name,latitude,longitude,country,population,id,city,jan,feb,mar,apr,may,jun,jul,aug,sep,oct,nov,dec
Horad Zhodzina,54.0985,28.3331,BY,65451,618800,Horad Zhodzina,-6.65,-7.63,-2.24,4.2,14.37,15.04,19.68,16.57,12.24,4.37,2.52,-1.28
Zhlobin,52.8926,30.024,BY,76078,618806,Zhlobin,-6.26,-8.3,-1.31,5.16,16.59,16.35,20.8,17.37,12.38,5.45,2.85,-1.67
Vitebsk,55.1904,30.2049,BY,342700,620127,Vitebsk,-6.64,-7.89,-1.85,4.03,14.41,14.16,20.01,16.11,11.63,4.73,2.0,-1.49
Vilyeyka,54.4914,26.9111,BY,30000,620181,Vilyeyka,-6.36,-6.95,-1.3,3.9,13.62,14.79,19.38,16.51,12.29,4.33,2.79,-0.83
Volkovysk,53.1561,24.4513,BY,47300,620391,Volkovysk,-4.79,-6.0,0.19,5.42,14.59,16.4,20.3,18.48,13.35,5.15,4.15,0.29
Svyetlahorsk,52.6329,29.7389,BY,67054,621074,Svyetlahorsk,-5.97,-8.1,-1.07,5.2,16.87,16.62,20.76,17.55,12.66,5.51,2.93,-1.6
Stowbtsy,53.4785,26.7434,BY,15400,621266,Stowbtsy,-6.01,-7.12,-0.97,4.59,14.51,15.34,19.42,16.97,12.64,4.82,3.1,-0.93
Smarhoń,54.4798,26.3957,BY,35908,621713,Smarhoń,-6.08,-6.64,-0.87,4.12,13.58,14.93,19.37,16.66,12.48,4.38,2.9,-0.62
Smaliavičy,54.0249,28.0894,BY,16594,621729,Smaliavičy,-6.65,-7.68,-2.47,4.18,14.4,14.99,19.64,16.61,12.31,4.4,2.66,-1.27
Slutsk,53.0274,27.5597,BY,61802,621741,Slutsk,-5.91,-7.95,-1.24,5.04,15.61,16.11,19.82,17.48,13.0,5.28,3.17,-1.12
Slonim,53.0869,25.3163,BY,51434,621754,Slonim,-5.2,-6.28,-0.07,5.3,14.64,16.08,19.76,17.9,13.12,5.12,3.74,-0.21
Shchuchyn,53.6014,24.7465,BY,15475,622113,Shchuchyn,-5.21,-5.98,-0.11,4.87,13.97,15.82,19.9,17.78,12.85,4.73,3.72,-0.06
Salihorsk,52.7876,27.5415,BY,106627,622428,Salihorsk,-5.61,-7.57,-1.08,5.14,15.83,16.32,19.77,17.59,13.07,5.38,3.31,-1.01
Rahachow,53.0934,30.0495,BY,34700,622739,Rahachow,-6.47,-8.48,-1.63,5.11,16.27,16.21,20.75,17.21,12.26,5.35,2.75,-1.73
Rechytsa,52.3617,30.3916,BY,65400,622794,Rechytsa,-5.88,-7.71,-0.86,5.35,17.51,17.07,21.05,17.79,12.65,5.84,2.87,-1.49
Pruzhany,52.556,24.4573,BY,19135,622997,Pruzhany,-4.96,-6.49,0.14,5.66,14.92,16.64,20.05,18.66,13.6,5.35,4.14,0.06
Polatsk,55.4879,28.7856,BY,82258,623317,Polatsk,-6.43,-7.21,-1.33,4.22,14.04,14.49,19.95,16.27,12.02,4.69,2.23,-0.74
Pinsk,52.1229,26.0951,BY,130777,623549,Pinsk,-4.64,-6.63,0.12,5.85,15.96,16.72,19.85,18.18,13.34,5.87,3.97,-0.2
Pastavy,55.11676,26.83263,BY,19800,623760,Pastavy,-6.15,-6.65,-1.02,4.03,13.4,14.86,19.58,16.56,12.37,4.6,2.82,-0.35
Asipovichy,53.3011,28.6386,BY,34591,624034,Asipovichy,-6.44,-8.17,-1.87,4.9,15.57,15.79,20.18,17.22,12.72,5.08,2.93,-1.45
Orsha,54.5081,30.4172,BY,125347,624079,Orsha,-6.69,-8.42,-2.22,4.2,14.7,14.57,20.35,16.32,11.63,4.64,2.12,-1.49
Navapolatsk,55.5318,28.5987,BY,108000,624784,Navapolatsk,-6.48,-7.27,-1.36,4.21,13.92,14.47,19.9,16.27,12.02,4.66,2.27,-0.71
Novogrudok,53.5942,25.8191,BY,29441,624785,Novogrudok,-6.35,-7.02,-1.28,3.9,13.39,14.59,18.58,16.24,11.84,3.96,2.76,-1.15
Minsk,53.9,27.56667,BY,1742124,625144,Minsk,-6.82,-7.86,-2.33,3.94,14.18,14.75,19.29,16.42,12.17,4.08,2.41,-1.68
Mazyr,52.0495,29.2456,BY,112348,625324,Mazyr,-5.26,-7.55,-0.76,5.38,17.09,16.77,20.2,17.67,13.1,5.88,3.28,-1.19
Mosty,53.4122,24.5387,BY,15770,625367,Mosty,-4.9,-5.99,0.18,5.4,14.48,16.42,20.45,18.51,13.34,5.08,3.99,0.22
Mar’’ina Horka,53.509,28.147,BY,20100,625409,Mar’’ina Horka,-6.65,-8.08,-2.14,4.53,14.93,15.23,19.73,16.85,12.51,4.71,2.78,-1.45
Maladziečna,54.3167,26.854,BY,101300,625625,Maladziečna,-6.3,-6.95,-1.19,4.01,13.85,14.85,19.4,16.56,12.39,4.38,2.85,-0.89
Mahilyow,53.9168,30.3449,BY,369200,625665,Mahilyow,-6.88,-8.64,-2.4,4.49,15.14,15.17,20.58,16.57,11.75,4.7,2.22,-1.75
Lyepyel’,54.8814,28.699,BY,17400,625743,Lyepyel’,-6.69,-7.79,-2.27,4.0,13.97,14.47,19.81,16.31,11.97,4.54,2.31,-1.04
Luninyets,52.2472,26.8047,BY,25000,625818,Luninyets,-4.68,-6.85,-0.2,5.77,16.2,16.74,19.71,17.93,13.29,5.87,3.84,-0.38
Lida,53.88333,25.29972,BY,102700,626081,Lida,-5.54,-5.93,-0.13,4.82,13.99,15.63,19.73,17.36,12.87,4.73,3.51,-0.24
Krychaw,53.69571,31.71233,BY,27681,626450,Krychaw,-7.21,-9.13,-2.86,4.34,15.44,14.92,20.13,16.55,11.66,5.04,2.01,-2.08
Kalodzishchy,53.944,27.7823,BY,17000,627083,Kalodzishchy,-6.91,-7.95,-2.58,3.83,14.1,14.62,19.21,16.31,12.05,4.05,2.36,-1.66
Kobryn,52.2138,24.3564,BY,50691,627145,Kobryn,-4.65,-6.54,0.4,6.08,15.41,17.14,20.25,19.03,13.93,5.67,4.46,0.25
Kalinkavichy,52.1323,29.3257,BY,37190,627751,Kalinkavichy,-5.24,-7.48,-0.64,5.54,17.28,16.95,20.45,17.83,13.23,5.96,3.32,-1.16
Ivatsevichy,52.709,25.3401,BY,24200,627800,Ivatsevichy,-5.16,-6.54,-0.03,5.47,14.97,16.27,19.83,18.08,13.28,5.42,3.85,-0.18
Hrodna,53.6884,23.8258,BY,373547,627904,Hrodna,-4.68,-5.84,0.24,5.24,14.11,16.28,20.4,18.28,13.26,4.87,4.15,0.53
Horki,54.2862,30.9863,BY,33897,627905,Horki,-7.16,-8.97,-2.66,4.12,14.71,14.45,19.99,16.21,11.43,4.51,1.87,-1.91
Homyel',52.4345,30.9754,BY,526872,627907,Homyel',-5.92,-7.41,-0.93,5.18,17.53,16.91,20.84,17.6,12.39,5.86,2.7,-1.64
Hlybokaye,55.1384,27.6905,BY,22000,627908,Hlybokaye,-6.59,-7.22,-1.53,4.02,13.54,14.51,19.55,16.36,12.07,4.45,2.56,-0.71
Dzyarzhynsk,53.6832,27.138,BY,25164,628634,Dzyarzhynsk,-6.54,-7.65,-1.72,4.27,14.32,14.92,19.3,16.61,12.4,4.42,2.76,-1.36
Dobrush,52.42671,31.31219,BY,18300,629018,Dobrush,-5.92,-7.49,-1.05,5.2,17.52,16.89,20.86,17.63,12.42,5.98,2.68,-1.66
Bykhaw,53.521,30.2454,BY,17500,629447,Bykhaw,-6.75,-8.69,-2.27,4.81,15.66,15.74,20.68,16.92,11.98,5.06,2.49,-1.74
Byaroza,52.5314,24.9786,BY,29645,629454,Byaroza,-4.87,-6.37,0.24,5.74,15.17,16.63,20.0,18.49,13.6,5.54,4.09,0.0
Brest,52.09755,23.68775,BY,362641,629634,Brest,-4.46,-6.67,0.48,6.22,15.49,17.32,20.45,19.14,14.01,5.57,4.68,0.4
Barysaw,54.2279,28.505,BY,144945,630376,Barysaw,-6.77,-7.77,-2.52,4.13,14.32,14.95,19.79,16.55,12.16,4.38,2.49,-1.28
Baranovichi,53.1327,26.0139,BY,179000,630429,Baranovichi,-5.73,-6.98,-0.72,4.87,14.53,15.69,19.31,17.32,12.65,4.83,3.2,-0.83
Babruysk,53.1384,29.2214,BY,209675,630468,Babruysk,-6.41,-8.32,-1.63,5.06,16.04,16.12,20.45,17.22,12.53,5.17,2.86,-1.65
