name,latitude,longitude,country,population,id,city,jan,feb,mar,apr,may,jun,jul,aug,sep,oct,nov,dec
Horad Zhodzina,54.0985,28.3331,BY,65451,618800,Horad Zhodzina,-9.73,-9.81,-2.39,4.52,12.69,16.28,18.04,16.12,11.64,5.37,1.3,-4.0
Zhlobin,52.8926,30.024,BY,76078,618806,Zhlobin,-8.84,-8.99,-1.78,5.93,13.46,16.81,19.54,16.7,12.21,5.84,2.03,-3.27
Vitebsk,55.1904,30.2049,BY,342700,620127,Vitebsk,-10.31,-9.33,-1.71,4.18,13.03,16.24,18.4,16.22,11.63,5.13,0.56,-4.8
Vilyeyka,54.4914,26.9111,BY,30000,620181,Vilyeyka,-9.81,-9.96,-2.23,4.43,12.28,16.38,17.69,16.2,11.63,5.58,1.42,-3.77
Volkovysk,53.1561,24.4513,BY,47300,620391,Volkovysk,-8.18,-8.31,-0.94,5.61,12.53,16.41,17.4,16.78,12.07,6.73,3.1,-1.6
Svyetlahorsk,52.6329,29.7389,BY,67054,621074,Svyetlahorsk,-8.56,-8.78,-1.66,6.39,13.57,16.72,19.37,16.62,12.23,5.9,2.29,-3.1
Stowbtsy,53.4785,26.7434,BY,15400,621266,Stowbtsy,-9.13,-9.68,-1.95,5.13,12.79,16.33,17.91,16.54,11.87,5.99,2.0,-3.12
Smarhoń,54.4798,26.3957,BY,35908,621713,Smarhoń,-9.61,-9.69,-1.95,4.59,12.37,16.56,17.7,16.32,11.7,5.79,1.58,-3.56
Smaliavičy,54.0249,28.0894,BY,16594,621729,Smaliavičy,-9.8,-9.99,-2.42,4.4,12.7,16.28,18.05,16.18,11.71,5.48,1.4,-3.85
Slutsk,53.0274,27.5597,BY,61802,621741,Slutsk,-8.78,-9.41,-1.82,5.77,13.21,16.42,18.57,16.76,12.18,6.05,2.27,-2.96
Slonim,53.0869,25.3163,BY,51434,621754,Slonim,-8.53,-8.59,-1.27,5.82,12.73,16.35,17.57,16.7,12.05,6.51,2.76,-2.18
Shchuchyn,53.6014,24.7465,BY,15475,622113,Shchuchyn,-8.62,-8.72,-1.31,5.04,12.31,16.26,17.22,16.47,11.7,6.31,2.55,-2.18
Salihorsk,52.7876,27.5415,BY,106627,622428,Salihorsk,-8.59,-9.16,-1.67,6.04,13.24,16.4,18.56,16.77,12.21,6.12,2.48,-2.87
Rahachow,53.0934,30.0495,BY,34700,622739,Rahachow,-9.16,-9.29,-1.92,5.61,13.38,16.83,19.52,16.68,12.15,5.78,1.84,-3.46
Rechytsa,52.3617,30.3916,BY,65400,622794,Rechytsa,-8.49,-8.4,-1.47,6.42,13.87,16.92,19.68,16.82,12.42,5.97,2.37,-3.06
Pruzhany,52.556,24.4573,BY,19135,622997,Pruzhany,-7.87,-7.98,-0.94,6.16,12.47,16.23,17.25,16.7,12.05,6.74,3.2,-1.47
Polatsk,55.4879,28.7856,BY,82258,623317,Polatsk,-10.35,-9.53,-1.75,4.52,12.87,16.52,18.04,16.37,11.6,5.15,0.82,-4.47
Pinsk,52.1229,26.0951,BY,130777,623549,Pinsk,-7.68,-7.93,-0.98,7.6,13.36,16.55,18.31,16.9,12.41,6.7,3.19,-1.94
Pastavy,55.11676,26.83263,BY,19800,623760,Pastavy,-10.03,-9.94,-1.99,4.26,12.48,16.62,17.72,16.37,11.68,5.49,1.43,-3.91
Asipovichy,53.3011,28.6386,BY,34591,624034,Asipovichy,-9.13,-9.63,-2.01,5.35,13.16,16.48,18.63,16.42,12.04,5.76,1.87,-3.39
Orsha,54.5081,30.4172,BY,125347,624079,Orsha,-10.18,-9.31,-2.07,3.91,12.98,16.27,18.83,16.22,11.68,5.05,0.69,-4.63
Navapolatsk,55.5318,28.5987,BY,108000,624784,Navapolatsk,-10.44,-9.68,-1.83,4.5,12.77,16.5,17.97,16.32,11.58,5.11,0.85,-4.46
Novogrudok,53.5942,25.8191,BY,29441,624785,Novogrudok,-9.55,-9.83,-2.35,4.28,11.73,15.41,16.7,15.67,11.01,5.42,1.55,-3.46
Minsk,53.9,27.56667,BY,1742124,625144,Minsk,-9.75,-10.11,-2.61,4.36,12.48,16.04,17.73,16.04,11.48,5.29,1.12,-4.09
Mazyr,52.0495,29.2456,BY,112348,625324,Mazyr,-7.78,-8.12,-1.23,7.02,13.66,16.56,19.26,16.62,12.34,6.19,2.76,-2.74
Mosty,53.4122,24.5387,BY,15770,625367,Mosty,-8.44,-8.51,-1.02,5.55,12.62,16.57,17.52,16.84,12.1,6.69,2.95,-1.76
Mar’’ina Horka,53.509,28.147,BY,20100,625409,Mar’’ina Horka,-9.42,-10.0,-2.26,4.97,12.86,16.22,18.16,16.23,11.8,5.64,1.66,-3.47
Maladziečna,54.3167,26.854,BY,101300,625625,Maladziečna,-9.58,-9.79,-2.13,4.64,12.4,16.35,17.74,16.27,11.7,5.68,1.5,-3.73
Mahilyow,53.9168,30.3449,BY,369200,625665,Mahilyow,-9.93,-9.6,-2.27,4.36,12.98,16.54,19.08,16.41,11.78,5.19,0.89,-4.29
Lyepyel’,54.8814,28.699,BY,17400,625743,Lyepyel’,-10.47,-10.2,-2.38,4.09,12.53,16.2,17.9,16.07,11.57,5.1,0.93,-4.48
Luninyets,52.2472,26.8047,BY,25000,625818,Luninyets,-7.83,-8.13,-1.04,7.37,13.43,16.54,18.69,17.03,12.52,6.61,3.09,-2.26
Lida,53.88333,25.29972,BY,102700,626081,Lida,-8.84,-8.91,-1.41,5.07,12.56,16.52,17.53,16.65,11.83,6.29,2.27,-2.61
Krychaw,53.69571,31.71233,BY,27681,626450,Krychaw,-9.92,-8.98,-2.07,4.31,13.06,16.73,19.64,16.47,11.89,5.15,0.67,-4.1
Kalodzishchy,53.944,27.7823,BY,17000,627083,Kalodzishchy,-9.89,-10.27,-2.75,4.2,12.37,15.89,17.67,15.89,11.39,5.19,1.1,-4.11
Kobryn,52.2138,24.3564,BY,50691,627145,Kobryn,-7.36,-7.48,-0.72,6.99,12.67,16.38,17.46,16.87,12.26,7.03,3.64,-1.01
Kalinkavichy,52.1323,29.3257,BY,37190,627751,Kalinkavichy,-7.75,-8.03,-1.15,7.13,13.86,16.77,19.44,16.78,12.47,6.29,2.82,-2.67
Ivatsevichy,52.709,25.3401,BY,24200,627800,Ivatsevichy,-8.24,-8.33,-1.14,6.28,12.83,16.36,17.67,16.71,12.16,6.62,2.96,-1.91
Hrodna,53.6884,23.8258,BY,373547,627904,Hrodna,-8.41,-8.54,-0.99,4.92,12.37,16.38,17.15,16.66,11.93,6.63,2.89,-1.55
Horki,54.2862,30.9863,BY,33897,627905,Horki,-10.46,-9.47,-2.34,3.61,12.83,16.21,18.98,16.14,11.59,4.85,0.42,-4.63
Homyel',52.4345,30.9754,BY,526872,627907,Homyel',-8.55,-8.18,-1.5,6.3,13.85,16.98,19.97,16.88,12.4,5.81,2.13,-3.22
Hlybokaye,55.1384,27.6905,BY,22000,627908,Hlybokaye,-10.27,-10.08,-2.25,4.25,12.41,16.33,17.74,16.14,11.55,5.15,1.13,-4.26
Dzyarzhynsk,53.6832,27.138,BY,25164,628634,Dzyarzhynsk,-9.44,-10.03,-2.31,4.7,12.62,16.19,17.76,16.33,11.67,5.65,1.51,-3.71
Dobrush,52.42671,31.31219,BY,18300,629018,Dobrush,-8.49,-7.96,-1.42,6.38,13.93,17.1,20.19,16.98,12.5,5.85,2.11,-3.22
Bykhaw,53.521,30.2454,BY,17500,629447,Bykhaw,-9.6,-9.48,-2.09,5.07,13.13,16.76,19.33,16.53,11.95,5.51,1.37,-3.83
Byaroza,52.5314,24.9786,BY,29645,629454,Byaroza,-7.84,-7.9,-0.92,6.6,12.82,16.39,17.61,16.79,12.21,6.75,3.21,-1.57
Brest,52.09755,23.68775,BY,362641,629634,Brest,-7.12,-7.15,-0.67,6.8,12.51,16.39,17.38,16.82,12.2,7.17,3.91,-0.6
Barysaw,54.2279,28.505,BY,144945,630376,Barysaw,-10.08,-9.95,-2.43,4.36,12.69,16.26,18.07,16.09,11.61,5.31,1.21,-4.11
Baranovichi,53.1327,26.0139,BY,179000,630429,Baranovichi,-9.04,-9.29,-1.8,5.44,12.66,16.1,17.68,16.48,11.84,6.09,2.29,-2.85
Babruysk,53.1384,29.2214,BY,209675,630468,Babruysk,-9.04,-9.43,-1.96,5.55,13.29,16.6,19.0,16.46,12.07,5.72,1.89,-3.41
