name,latitude,longitude,country,population,id,city,jan,feb,mar,apr,may,jun,jul,aug,sep,oct,nov,dec
Zwickau,50.72724,12.48839,DE,98796,2803560,Zwickau,-0.62,-3.57,5.05,8.18,15.1,19.89,19.47,21.27,14.67,6.25,6.45,1.82
Zweibrücken,49.24686,7.36977,DE,35221,2803620,Zweibrücken,0.01,0.18,7.45,9.8,14.85,21.19,20.2,23.44,15.66,7.87,7.32,2.66
Zülpich,50.69447,6.65414,DE,20208,2803723,Zülpich,1.21,0.5,7.04,8.83,13.78,19.19,19.3,20.91,14.84,7.38,7.98,3.25
Zossen,52.216,13.44909,DE,17138,2803870,Zossen,-0.34,-1.85,4.27,8.73,15.95,20.37,20.65,21.63,15.99,6.92,6.62,2.68
Zittau,50.89772,14.80764,DE,25785,2804008,Zittau,-1.44,-4.11,3.86,7.48,15.05,19.63,19.07,20.32,14.95,5.96,5.72,1.0
Zirndorf,49.4424,10.95414,DE,25734,2804034,Zirndorf,-0.79,-2.67,5.86,8.99,15.62,21.53,20.28,23.4,15.09,6.65,5.63,1.44
Zerbst,51.9662,12.08517,DE,15680,2804748,Zerbst,-0.0,-1.97,4.73,8.62,15.42,20.16,20.46,21.6,15.52,6.92,6.96,2.5
Zeitz,51.04962,12.1369,DE,29469,2804922,Zeitz,-0.17,-1.99,5.14,8.13,15.14,20.13,19.92,21.55,14.96,6.79,6.62,2.01
Zehlendorf,52.43333,13.25,DE,54328,2805059,Zehlendorf,-0.46,-2.05,3.95,8.5,15.64,20.1,20.42,21.42,15.77,6.66,6.43,2.58
Xanten,51.65877,6.45297,DE,21587,2805385,Xanten,1.87,1.27,7.29,9.7,14.03,19.12,19.31,20.53,15.1,7.75,8.23,3.68
Wurzen,51.3707,12.73939,DE,15233,2805597,Wurzen,-0.22,-1.86,4.95,8.59,15.65,20.3,20.46,21.83,15.56,7.09,6.8,2.3
Würzburg,49.79391,9.95121,DE,133731,2805615,Würzburg,0.34,-1.04,6.51,9.42,15.61,21.6,20.81,23.48,15.43,7.27,6.26,2.05
Würselen,50.81809,6.1347,DE,37074,2805644,Würselen,1.05,0.82,7.07,8.87,13.34,18.77,18.86,20.63,15.01,7.36,7.9,3.3
Wuppertal,51.25627,7.14816,DE,360797,2805753,Wuppertal,0.98,0.88,7.16,9.2,13.76,18.99,18.89,20.54,14.69,7.28,7.98,3.3
Wunstorf,52.42377,9.43585,DE,42080,2805761,Wunstorf,1.0,-0.62,5.6,8.84,14.26,19.06,19.88,21.19,14.83,6.85,7.56,3.15
Wülfrath,51.28195,7.03821,DE,21003,2805910,Wülfrath,0.76,0.7,6.89,8.97,13.47,18.72,18.64,20.23,14.46,7.03,7.67,3.03
Wörth am Rhein,49.04888,8.25959,DE,17272,2806081,Wörth am Rhein,0.23,0.1,7.87,10.4,16.15,22.59,21.6,25.13,16.83,8.51,7.46,2.81
Worms,49.63278,8.35916,DE,81099,2806142,Worms,-0.22,-0.12,7.14,10.05,15.93,21.97,21.54,24.54,16.56,7.97,6.96,2.25
Wolfsburg,52.42452,10.7815,DE,123064,2806654,Wolfsburg,0.2,-1.4,5.02,8.57,14.83,19.61,20.1,21.21,15.03,6.72,7.28,2.75
Wolfratshausen,47.91289,11.42166,DE,17191,2806768,Wolfratshausen,-1.2,-4.26,4.82,7.83,14.6,20.81,19.31,22.06,13.78,6.08,5.04,0.09
Wolfenbüttel,52.16442,10.54095,DE,54740,2806914,Wolfenbüttel,0.31,-1.72,5.11,8.27,14.49,19.13,19.77,20.9,14.62,6.53,7.19,2.52
Wolfen,51.66122,12.26873,DE,25251,2806919,Wolfen,-0.12,-1.82,4.83,8.58,15.57,20.28,20.59,21.96,15.55,7.04,6.81,2.34
Witzenhausen,51.34103,9.8554,DE,16055,2807184,Witzenhausen,0.81,-1.35,5.8,8.44,14.58,19.44,19.58,21.49,14.33,6.69,6.99,2.3
Wittstock,53.16118,12.48287,DE,17361,2807201,Wittstock,-0.47,-1.98,3.73,7.96,14.33,18.81,19.59,19.89,14.91,6.33,6.43,2.69
Wittmund,53.57674,7.77839,DE,21355,2807218,Wittmund,1.62,0.16,5.47,8.47,12.35,17.0,18.3,19.03,14.66,7.2,7.24,3.92
Wittlich,49.98596,6.89308,DE,17887,2807240,Wittlich,0.14,-0.15,6.9,9.05,13.91,19.8,19.51,21.73,14.56,7.24,6.94,2.47
Wittenberge,53.00543,11.75032,DE,20171,2807344,Wittenberge,-0.16,-1.7,4.32,8.62,14.9,19.58,20.29,20.8,15.47,6.55,6.88,2.85
Wittenau,52.59319,13.32127,DE,24726,2807360,Wittenau,-0.53,-1.88,3.89,8.42,15.43,19.82,20.21,20.97,15.5,6.55,6.37,2.62
Witten,51.44362,7.35258,DE,101247,2807363,Witten,0.97,0.49,7.17,9.3,14.06,19.15,19.06,20.66,14.85,7.27,8.07,3.32
Wismar,53.89314,11.45286,DE,45255,2807465,Wismar,0.09,-1.72,4.07,8.06,13.55,18.15,19.57,19.8,15.31,6.81,6.89,3.39
Wipperfürth,51.1161,7.39865,DE,23723,2807594,Wipperfürth,0.13,-0.88,6.39,8.4,13.2,18.46,18.2,20.07,13.86,6.64,7.21,2.51
Winterhude,53.6,10.0,DE,56382,2807748,Winterhude,0.09,-1.19,4.45,8.41,13.35,18.09,19.34,19.97,14.79,6.2,6.67,3.08
Winsen,53.35753,10.21282,DE,32662,2807845,Winsen,0.23,-1.11,4.69,8.67,13.79,18.52,19.59,20.3,15.01,6.42,6.97,3.22
Winnenden,48.87563,9.39819,DE,28334,2807872,Winnenden,0.05,-1.79,6.44,9.13,15.3,21.62,20.34,23.89,15.29,7.24,6.17,1.6
Wilnsdorf,50.81667,8.1,DE,21505,2808461,Wilnsdorf,-0.49,-2.57,5.42,7.68,12.88,18.19,17.81,19.66,13.39,5.84,6.0,1.35
Wilmersdorf,52.48333,13.31667,DE,101877,2808473,Wilmersdorf,-0.53,-1.88,3.88,8.47,15.53,19.99,20.34,21.24,15.64,6.57,6.37,2.57
Willich,51.26371,6.54734,DE,51843,2808559,Willich,1.86,1.43,7.52,9.74,14.22,19.5,19.58,20.97,15.31,7.92,8.36,3.8
Wilhelmstadt,52.52462,13.17707,DE,40463,2808662,Wilhelmstadt,-0.42,-1.94,4.05,8.58,15.59,20.0,20.37,21.21,15.71,6.7,6.53,2.7
Wilhelmshaven,53.52998,8.11253,DE,84393,2808720,Wilhelmshaven,1.18,-0.14,5.49,8.69,12.7,17.44,18.52,19.26,14.5,6.72,7.0,3.55
Wilhelmsburg,53.50669,9.98715,DE,53064,2808747,Wilhelmsburg,0.22,-0.98,4.68,8.65,13.63,18.37,19.53,20.22,14.95,6.38,6.86,3.21
Wildeshausen,52.89446,8.43375,DE,18114,2808893,Wildeshausen,1.08,0.03,5.91,9.05,13.59,18.31,19.23,20.34,14.76,6.8,7.37,3.46
Wiesloch,49.29504,8.69846,DE,26605,2809138,Wiesloch,0.17,0.33,7.55,10.26,16.15,22.54,21.41,24.84,16.38,8.19,7.2,2.49
Wiesbaden,50.08258,8.24932,DE,278609,2809346,Wiesbaden,0.99,-0.07,6.91,9.9,15.55,21.47,21.01,23.66,16.2,7.86,6.93,2.27
Wiehl,50.9495,7.55062,DE,26291,2809517,Wiehl,0.41,-0.81,6.62,8.84,13.76,19.05,18.72,20.61,14.21,6.94,7.31,2.62
Wetzlar,50.56109,8.50495,DE,52656,2809889,Wetzlar,0.84,-0.79,6.55,9.03,14.49,19.96,19.65,21.87,14.96,7.15,6.9,2.25
Wetter,51.38747,7.39277,DE,29146,2809984,Wetter,0.97,0.49,7.17,9.3,14.06,19.15,19.06,20.66,14.85,7.27,8.07,3.32
Westerstede,53.25682,7.92737,DE,21902,2810188,Westerstede,1.05,-0.06,5.69,8.75,12.89,17.57,18.5,19.24,14.31,6.39,7.06,3.38
Westend,52.51708,13.27636,DE,41328,2810538,Westend,-0.69,-2.03,3.73,8.32,15.38,19.84,20.19,21.09,15.5,6.42,6.22,2.42
Wesseling,50.82709,6.9747,DE,35665,2810612,Wesseling,1.78,1.1,7.51,9.55,14.44,19.8,19.96,21.58,15.19,7.95,8.37,3.66
Wesel,51.6669,6.62037,DE,61685,2810678,Wesel,1.83,1.27,7.32,9.71,14.05,19.16,19.34,20.63,15.11,7.72,8.23,3.68
Wertheim,49.759,9.50852,DE,24869,2810716,Wertheim,0.52,-0.91,6.87,9.72,15.75,21.75,20.85,23.87,15.82,7.48,6.53,2.23
Wersten,51.18459,6.81249,DE,27151,2810730,Wersten,1.69,1.22,7.52,9.77,14.4,19.66,19.82,21.41,15.31,7.88,8.33,3.68
Wernigerode,51.83652,10.78216,DE,34463,2810808,Wernigerode,-0.88,-3.79,4.17,7.38,13.61,18.37,18.88,20.2,13.79,5.66,5.89,1.31
Werne,51.66446,7.63421,DE,30810,2810833,Werne,1.3,0.38,6.88,9.21,14.09,19.16,19.37,20.97,14.76,7.21,7.96,3.26
Wermelskirchen,51.1397,7.21583,DE,36816,2810855,Wermelskirchen,0.06,-0.36,6.19,8.27,12.98,18.28,18.17,19.95,13.74,6.48,6.98,2.32
Werl,51.55493,7.91403,DE,32149,2810878,Werl,1.11,0.2,6.83,9.07,14.16,19.2,19.28,20.92,14.7,7.07,7.99,3.17
Werdohl,51.26011,7.76608,DE,20366,2810919,Werdohl,0.43,-0.52,6.56,8.61,13.57,18.65,18.5,20.16,14.27,6.72,7.62,2.82
Werder,52.37874,12.934,DE,22384,2810945,Werder,-0.19,-2.16,4.28,8.65,15.6,20.0,20.44,21.21,15.75,6.77,6.74,2.76
Werdau,50.73604,12.37534,DE,24424,2810969,Werdau,-0.64,-3.47,5.08,8.13,15.02,19.85,19.4,21.25,14.65,6.25,6.43,1.79
Wendlingen am Neckar,48.67124,9.37632,DE,15728,2811204,Wendlingen am Neckar,0.12,-1.91,6.8,9.44,15.59,22.02,20.66,24.35,15.57,7.45,6.24,1.65
Wenden,50.96667,7.86667,DE,19924,2811278,Wenden,-1.03,-2.3,5.32,7.53,12.53,17.78,17.28,19.25,13.18,5.6,6.09,1.4
Wendelstein,49.3523,11.15069,DE,16220,2811292,Wendelstein,-0.9,-3.05,5.61,8.85,15.52,21.39,20.07,23.21,14.9,6.43,5.42,1.23
Weiterstadt,49.9039,8.58874,DE,24253,2811644,Weiterstadt,1.11,0.11,7.18,9.97,15.74,21.85,21.32,24.19,16.33,8.03,7.26,2.5
Weißwasser,51.50403,14.64017,DE,22099,2811698,Weißwasser,-1.18,-2.54,4.07,8.41,15.87,20.15,19.96,20.89,15.52,6.64,6.25,2.13
Weißenfels,51.20148,11.96843,DE,29792,2811899,Weißenfels,0.16,-1.54,5.51,8.63,15.65,20.56,20.58,22.16,15.58,7.34,6.99,2.37
Weißenburg in Bayern,49.03095,10.97221,DE,18578,2811909,Weißenburg in Bayern,-0.89,-2.7,5.72,8.58,15.31,21.3,19.87,23.51,15.12,6.6,5.38,1.24
Weinstadt-Endersbach,48.81311,9.36387,DE,26166,2812145,Weinstadt-Endersbach,0.37,-1.63,6.86,9.55,15.69,22.06,20.74,24.32,15.66,7.59,6.5,1.86
Weinheim,49.54887,8.66697,DE,43325,2812174,Weinheim,0.1,0.25,7.47,10.27,16.17,22.41,21.49,24.74,16.57,8.21,7.22,2.42
Weingarten,47.81009,9.63863,DE,23802,2812204,Weingarten,-0.49,-2.64,5.37,8.65,15.01,22.02,20.07,23.25,15.09,7.15,5.37,0.8
Weimar,50.9803,11.32903,DE,64727,2812482,Weimar,0.22,-1.75,5.06,7.88,14.73,19.68,19.74,21.7,14.6,6.67,6.43,1.91
Weilheim,47.84147,11.15484,DE,21401,2812515,Weilheim,-2.19,-4.75,4.58,7.72,14.42,20.67,19.19,21.88,13.62,5.89,4.86,-0.72
Weilerswist,50.75292,6.84585,DE,16321,2812522,Weilerswist,1.34,0.65,7.09,8.96,13.84,19.25,19.44,21.04,14.82,7.47,8.01,3.28
Weil der Stadt,48.74953,8.87176,DE,19338,2812625,Weil der Stadt,-0.78,-1.68,6.38,8.48,14.56,20.95,19.48,23.07,14.78,6.85,6.2,1.49
Weil am Rhein,47.59331,7.62082,DE,29548,2812636,Weil am Rhein,0.55,-0.91,7.26,9.52,15.1,23.03,21.52,24.73,16.11,7.62,6.0,1.88
Weiden,49.67682,12.15613,DE,42550,2813040,Weiden,-1.17,-3.43,4.86,8.18,15.15,20.68,19.32,22.27,14.72,5.92,4.89,0.74
Weißensee,52.55632,13.46649,DE,47693,2813187,Weißensee,-0.7,-2.01,3.69,8.28,15.38,19.74,20.11,20.88,15.39,6.43,6.21,2.5
Wegberg,51.14221,6.28436,DE,29622,2813390,Wegberg,1.9,1.45,7.56,9.59,14.08,19.46,19.65,21.07,15.43,7.97,8.42,3.83
Weener,53.16332,7.35052,DE,15718,2813433,Weener,1.33,0.05,5.86,8.81,12.96,17.52,18.5,19.22,14.3,6.49,7.13,3.38
Wedel,53.58374,9.69835,DE,31995,2813464,Wedel,0.29,-0.92,4.79,8.65,13.32,18.0,19.17,19.85,14.81,6.4,6.81,3.29
Wedding,52.54734,13.35594,DE,85275,2813472,Wedding,-0.58,-1.87,3.81,8.45,15.57,20.06,20.39,21.33,15.67,6.55,6.31,2.52
Wassenberg,51.10009,6.15484,DE,16641,2813786,Wassenberg,2.03,1.59,7.72,9.76,14.21,19.61,19.77,21.16,15.62,8.1,8.52,3.94
Warstein,51.44488,8.34851,DE,28532,2814005,Warstein,-0.45,-1.98,5.47,7.57,12.86,17.83,17.62,19.44,13.29,5.73,6.65,1.88
Warendorf,51.95109,7.98756,DE,38707,2814127,Warendorf,1.25,0.28,6.68,9.35,14.26,19.24,19.62,21.37,14.87,7.14,7.81,3.2
Waren,53.5204,12.67985,DE,21470,2814131,Waren,-0.75,-2.08,3.33,7.66,13.9,18.19,19.15,19.15,14.59,6.28,6.17,2.63
Wardenburg,53.06667,8.2,DE,16019,2814146,Wardenburg,1.01,-0.13,5.74,8.92,13.31,18.0,18.9,19.79,14.49,6.51,7.16,3.36
Warburg,51.49011,9.14641,DE,24317,2814153,Warburg,0.51,-1.44,5.93,8.25,13.92,18.85,18.96,20.73,13.97,6.33,6.86,2.2
Wangen,47.6895,9.83247,DE,27045,2814270,Wangen,-1.27,-3.61,4.41,7.83,14.12,20.92,19.05,21.96,13.97,6.36,4.72,-0.4
Wandlitz,52.74196,13.45799,DE,19888,2814305,Wandlitz,-0.73,-1.99,3.69,8.22,15.29,19.58,19.98,20.62,15.26,6.39,6.18,2.51
Waltrop,51.62125,7.40238,DE,30220,2814362,Waltrop,1.38,0.63,7.12,9.42,14.2,19.32,19.46,20.98,14.9,7.33,8.11,3.39
Walsrode,52.86147,9.5926,DE,24448,2814462,Walsrode,0.54,-0.54,5.41,9.03,14.03,18.85,19.57,20.62,14.91,6.62,7.23,3.23
Wallenhorst,52.35,8.01667,DE,24201,2814632,Wallenhorst,1.05,0.02,6.23,8.99,13.64,18.54,19.27,20.78,14.58,6.75,7.4,3.04
Waldshut-Tiengen,47.62323,8.21717,DE,22404,2814791,Waldshut-Tiengen,0.51,-0.9,7.48,9.58,15.33,22.81,21.14,24.01,16.02,7.64,6.44,2.32
Waldkraiburg,48.20854,12.39893,DE,24676,2814874,Waldkraiburg,-1.27,-3.22,5.59,8.84,15.76,21.59,20.5,23.13,14.95,7.02,5.3,0.69
Waldkirch,48.09585,7.96371,DE,20155,2814883,Waldkirch,-0.03,-0.86,7.29,9.75,15.11,22.14,20.86,24.11,16.05,7.86,7.04,2.2
Waldbröl,50.87576,7.61688,DE,19533,2815137,Waldbröl,-0.04,-1.26,6.17,8.39,13.31,18.6,18.27,20.16,13.76,6.49,6.86,2.17
Waiblingen,48.83241,9.31641,DE,52945,2815330,Waiblingen,0.45,-1.34,6.85,9.52,15.68,22.09,20.77,24.31,15.66,7.63,6.5,1.91
Waghäusel,49.24991,8.51257,DE,20178,2815487,Waghäusel,0.13,0.28,7.55,10.11,16.02,22.4,21.27,24.73,16.46,8.22,7.26,2.58
Wadgassen,49.26667,6.78333,DE,18464,2815559,Wadgassen,0.08,0.49,7.48,10.03,14.72,21.16,20.33,23.15,15.24,7.93,7.28,2.75
Wadern,49.54122,6.88774,DE,17282,2815565,Wadern,-0.19,-0.2,7.12,9.36,14.14,20.34,19.55,22.29,14.76,7.42,6.98,2.46
Wachtberg,50.63333,7.1,DE,20032,2815678,Wachtberg,1.19,0.31,6.84,8.81,13.84,19.24,19.18,20.86,14.44,7.31,7.69,2.93
Vreden,52.03792,6.828,DE,22412,2815824,Vreden,1.64,0.93,7.12,9.7,13.93,18.89,19.23,20.55,14.96,7.41,8.02,3.45
Volksdorf,53.64972,10.18417,DE,20685,2816607,Volksdorf,0.02,-1.35,4.34,8.21,13.21,17.92,19.16,19.8,14.71,6.12,6.64,3.03
Völklingen,49.25162,6.85873,DE,41132,2816630,Völklingen,0.34,0.7,7.65,10.13,14.9,21.34,20.49,23.4,15.47,8.11,7.5,2.98
Voerde,51.59703,6.6863,DE,36047,2817065,Voerde,1.9,1.34,7.42,9.72,14.15,19.34,19.47,20.83,15.2,7.85,8.38,3.79
Vlotho,52.1653,8.85996,DE,20214,2817105,Vlotho,1.1,-0.15,6.15,8.93,14.21,19.16,19.79,21.29,14.81,6.97,7.72,3.21
Vilshofen,48.62695,13.19222,DE,16695,2817202,Vilshofen,-2.18,-3.14,5.41,8.83,15.96,21.43,20.37,22.91,15.13,6.9,5.55,0.63
Villingen-Schwenningen,48.06226,8.49358,DE,81770,2817220,Villingen-Schwenningen,-3.02,-3.89,4.65,6.93,12.53,19.35,17.9,21.2,13.22,4.95,4.49,-0.63
Viersen,51.25435,6.39441,DE,76153,2817311,Viersen,1.9,1.45,7.54,9.75,14.21,19.5,19.57,20.89,15.34,7.94,8.39,3.81
Viernheim,49.54033,8.5782,DE,32620,2817324,Viernheim,0.2,0.21,7.57,10.39,16.23,22.41,21.64,24.84,16.71,8.31,7.36,2.6
Versmold,52.04009,8.15272,DE,20996,2817537,Versmold,1.12,-0.01,6.36,9.09,14.19,19.19,19.68,21.43,14.54,6.93,7.66,3.0
Verl,51.88333,8.51667,DE,24002,2817576,Verl,1.01,-0.06,6.3,8.96,14.31,19.32,19.76,21.57,14.42,6.85,7.66,2.94
Verden,52.92343,9.23491,DE,26924,2817599,Verden,0.73,-0.51,5.42,8.96,13.84,18.61,19.52,20.5,14.76,6.57,7.22,3.24
Velbert,51.33537,7.04348,DE,87669,2817724,Velbert,0.41,0.34,6.55,8.61,13.12,18.37,18.3,19.88,14.11,6.68,7.31,2.68
Vegesack,53.16667,8.61667,DE,34757,2817783,Vegesack,0.95,-0.33,5.51,8.87,13.33,18.01,18.95,19.71,14.55,6.51,7.12,3.42
Vechta,52.72632,8.28598,DE,29729,2817812,Vechta,1.24,-0.05,6.09,9.17,13.81,18.51,19.4,20.59,14.73,6.83,7.43,3.33
Vechelde,52.26038,10.36491,DE,16219,2817813,Vechelde,0.19,-1.38,5.01,8.31,14.38,19.06,19.68,20.84,14.62,6.48,7.14,2.55
Vaterstetten,48.10537,11.76825,DE,21007,2817818,Vaterstetten,-1.3,-3.95,5.0,7.87,14.62,20.81,19.37,22.3,13.92,6.11,4.76,0.17
Varel,53.39693,8.13621,DE,25212,2817873,Varel,1.04,-0.22,5.43,8.66,12.81,17.53,18.56,19.33,14.37,6.47,6.98,3.38
Vaihingen an der Enz,48.93563,8.96045,DE,28867,2817927,Vaihingen an der Enz,0.54,-0.63,7.37,9.83,15.76,22.16,20.84,24.35,15.92,7.85,6.94,2.32
Uetersen,53.68769,9.66394,DE,17921,2818067,Uetersen,0.28,-0.94,4.74,8.59,13.19,17.88,19.09,19.77,14.82,6.4,6.74,3.31
Uslar,51.6569,9.63501,DE,15951,2818094,Uslar,0.78,-1.29,5.8,8.33,14.21,19.06,19.33,21.18,14.11,6.53,7.03,2.36
Unterschleißheim,48.28038,11.57684,DE,25567,2818766,Unterschleißheim,-0.65,-3.36,5.66,8.8,15.47,21.76,20.36,23.39,14.87,6.74,5.17,0.89
Unterhaching,48.06598,11.61564,DE,20852,2819465,Unterhaching,-1.46,-4.53,4.79,7.75,14.47,20.79,19.34,22.34,13.84,5.98,4.53,-0.01
Unterkrozingen,47.91933,7.69045,DE,15908,2819974,Unterkrozingen,0.18,-0.16,7.44,10.11,15.55,23.07,21.77,25.1,16.71,7.87,6.68,2.01
Unna,51.53795,7.68969,DE,66734,2820087,Unna,1.04,0.22,6.95,9.13,14.1,19.17,19.16,20.77,14.72,7.12,8.03,3.22
Ulm,48.39841,9.99155,DE,120451,2820256,Ulm,-0.77,-3.18,5.75,8.42,14.76,21.24,19.51,22.79,14.68,6.32,5.1,0.8
Uerdingen,51.35478,6.63918,DE,17888,2820447,Uerdingen,1.88,1.42,7.5,9.77,14.24,19.49,19.6,21.01,15.29,7.92,8.39,3.82
Uelzen,52.96572,10.56111,DE,34996,2820456,Uelzen,0.01,-1.36,4.78,8.78,14.42,19.24,19.93,20.77,15.05,6.44,7.14,3.04
Überlingen,47.76977,9.17136,DE,21507,2820577,Überlingen,-0.25,-1.58,6.14,8.96,15.36,22.47,20.62,23.73,15.56,7.4,5.62,1.59
Übach-Palenberg,50.91775,6.12336,DE,25544,2820621,Übach-Palenberg,1.51,1.03,7.3,9.2,13.72,19.15,19.32,20.97,15.26,7.7,8.1,3.56
Tuttlingen,47.98464,8.8177,DE,34847,2820693,Tuttlingen,-1.66,-3.35,5.46,7.74,13.62,20.48,19.24,22.45,14.29,5.73,4.55,0.26
Tübingen,48.52266,9.05222,DE,83416,2820860,Tübingen,-0.19,-1.8,6.52,8.96,15.04,21.59,20.14,23.79,15.12,7.08,6.0,1.48
Trossingen,48.07667,8.64409,DE,15040,2820973,Trossingen,-2.51,-3.66,5.04,7.29,12.96,19.77,18.36,21.8,13.67,5.3,4.69,-0.3
Troisdorf,50.80901,7.14968,DE,74749,2821029,Troisdorf,1.72,1.04,7.46,9.56,14.48,19.81,19.94,21.58,15.14,7.92,8.3,3.58
Trier,49.75565,6.63935,DE,100129,2821164,Trier,0.36,0.45,7.25,9.47,14.21,20.18,19.86,22.07,14.8,7.7,7.29,2.89
Traunstein,47.86825,12.64335,DE,18422,2821515,Traunstein,-2.33,-4.74,4.25,7.49,14.42,20.16,18.89,21.5,13.4,6.0,5.04,-0.3
Traunreut,47.96269,12.59231,DE,21244,2821517,Traunreut,-2.12,-4.34,4.26,7.3,14.23,20.0,18.78,21.34,13.35,5.84,4.58,-0.31
Torgau,51.56016,12.99617,DE,18746,2821807,Torgau,-0.38,-1.58,4.69,8.65,15.82,20.47,20.74,21.97,15.78,7.04,6.64,2.39
Tönisvorst,51.32092,6.49412,DE,30296,2821899,Tönisvorst,1.86,1.43,7.52,9.74,14.22,19.5,19.58,20.97,15.31,7.92,8.36,3.8
Tettnang,47.66857,9.59132,DE,18135,2823368,Tettnang,-0.59,-2.74,5.27,8.55,14.91,21.92,19.97,23.15,14.99,7.05,5.27,0.7
Templin,53.11865,13.5022,DE,17634,2823533,Templin,-0.81,-2.28,3.44,7.85,14.68,19.02,19.62,19.96,14.99,6.35,6.07,2.57
Tempelhof,52.46667,13.4,DE,61769,2823538,Tempelhof,-0.61,-1.88,3.77,8.41,15.52,20.01,20.35,21.27,15.62,6.5,6.27,2.48
Teltow,52.4031,13.26014,DE,19530,2823567,Teltow,-0.46,-2.05,3.95,8.5,15.64,20.1,20.42,21.42,15.77,6.66,6.43,2.58
Telgte,51.97995,7.78293,DE,19389,2823590,Telgte,1.35,0.42,6.86,9.49,14.25,19.26,19.62,21.34,14.99,7.23,7.87,3.3
Tegel,52.57601,13.29389,DE,36764,2823708,Tegel,-0.48,-1.83,3.94,8.47,15.48,19.87,20.26,21.02,15.55,6.6,6.42,2.68
Taunusstein,50.14993,8.15206,DE,29501,2823799,Taunusstein,-0.09,-1.04,5.82,8.43,13.9,19.84,19.25,21.94,14.65,6.5,5.88,1.33
Taufkirchen,48.0486,11.61701,DE,17791,2823812,Taufkirchen,-1.08,-4.32,5.0,7.89,14.56,20.75,19.27,22.19,13.85,6.18,5.07,0.18
Syke,52.91345,8.82209,DE,24274,2824461,Syke,0.96,-0.28,5.59,8.91,13.66,18.38,19.38,20.42,14.65,6.62,7.31,3.35
Sundern,51.3281,8.00369,DE,27554,2824655,Sundern,0.05,-1.44,6.08,8.11,13.2,18.28,18.12,19.84,13.82,6.31,7.25,2.4
Sulzbach-Rosenberg,49.50126,11.74598,DE,19252,2824801,Sulzbach-Rosenberg,-0.76,-3.3,5.21,8.34,15.18,20.78,19.42,22.52,14.73,6.14,5.21,1.03
Sulzbach,49.29882,7.05696,DE,18364,2824841,Sulzbach,0.24,0.6,7.58,9.86,14.75,21.18,20.27,23.42,15.51,7.88,7.39,2.88
Suhl,50.60911,10.69401,DE,43509,2824948,Suhl,-1.79,-4.2,4.37,7.45,13.7,19.38,18.59,21.16,13.81,5.35,4.89,0.58
Stuttgart,48.78232,9.17702,DE,630305,2825297,Stuttgart,0.53,-1.07,6.95,9.52,15.66,22.09,20.75,24.25,15.67,7.68,6.61,2.0
Stuhr,53.03333,8.75,DE,32507,2825422,Stuhr,0.98,-0.26,5.6,8.99,13.68,18.38,19.39,20.35,14.72,6.62,7.3,3.42
Strausberg,52.57859,13.88741,DE,26649,2826082,Strausberg,-0.75,-2.0,3.64,8.16,15.43,19.66,19.98,20.62,15.32,6.43,6.18,2.53
Straubing,48.88126,12.57385,DE,44580,2826099,Straubing,-2.15,-3.2,5.05,8.66,15.83,21.45,20.31,23.39,15.17,6.38,4.85,0.19
Stralsund,54.30911,13.0818,DE,58976,2826287,Stralsund,0.01,-2.37,3.27,7.08,13.48,17.57,19.05,19.01,14.98,6.81,6.53,3.38
Straelen,51.4419,6.26639,DE,15325,2826304,Straelen,1.89,1.36,7.4,9.67,14.06,19.33,19.41,20.63,15.19,7.83,8.27,3.7
Stolberg,50.77368,6.22595,DE,56377,2826595,Stolberg,1.09,0.83,7.15,8.88,13.41,18.85,18.9,20.64,15.01,7.38,7.98,3.36
Stockelsdorf,53.8922,10.64713,DE,16562,2826861,Stockelsdorf,0.0,-1.67,4.15,7.97,13.05,17.75,19.17,19.61,14.87,6.33,6.6,3.1
Stockach,47.85105,9.0091,DE,16844,2826909,Stockach,-0.64,-2.07,6.28,8.79,14.75,21.81,20.33,23.48,15.21,6.68,5.19,1.18
Stendal,52.6069,11.85867,DE,37722,2827479,Stendal,-0.14,-1.94,4.49,8.54,15.13,19.78,20.29,21.08,15.5,6.59,6.91,2.72
Stellingen,53.5922,9.9287,DE,23472,2827552,Stellingen,0.1,-1.14,4.51,8.44,13.29,18.0,19.21,19.88,14.76,6.23,6.66,3.1
Steinhagen,52.0,8.4,DE,19869,2828050,Steinhagen,1.04,-0.06,6.24,8.94,14.16,19.16,19.69,21.45,14.44,6.84,7.63,2.95
Steinfurt,52.15045,7.33664,DE,34601,2828105,Steinfurt,1.35,0.48,6.77,9.37,13.71,18.66,19.14,20.59,14.78,7.03,7.71,3.25
Steilshoop,53.61028,10.05917,DE,19343,2828994,Steilshoop,0.09,-1.24,4.43,8.34,13.31,18.03,19.28,19.91,14.78,6.19,6.69,3.09
Steglitz,52.45606,13.332,DE,72464,2829109,Steglitz,-0.59,-1.93,3.83,8.42,15.48,19.94,20.29,21.19,15.6,6.52,6.32,2.52
Staßfurt,51.85186,11.58508,DE,22960,2829422,Staßfurt,0.41,-1.37,4.94,8.32,14.98,19.76,20.27,21.61,15.27,6.88,7.08,2.5
Starnberg,48.00193,11.34416,DE,23086,2829457,Starnberg,-1.2,-4.47,4.78,7.69,14.43,20.75,19.25,22.05,13.8,6.08,4.82,0.15
Stadtlohn,51.99399,6.91918,DE,20602,2829758,Stadtlohn,1.63,0.95,7.17,9.71,13.95,18.95,19.28,20.66,15.02,7.39,8.0,3.47
Stadthagen,52.32333,9.20311,DE,23076,2829777,Stadthagen,0.93,-0.61,5.66,8.66,14.05,18.88,19.65,21.03,14.58,6.73,7.5,3.02
Stadtallendorf,50.82261,9.01294,DE,21720,2829804,Stadtallendorf,0.21,-1.31,5.81,8.25,13.96,19.47,19.16,21.6,14.15,6.49,6.32,1.67
Stade,53.59337,9.47629,DE,45634,2829901,Stade,0.29,-0.88,4.84,8.63,13.18,17.82,19.0,19.68,14.64,6.33,6.76,3.28
Staaken,52.53661,13.15057,DE,46369,2829962,Staaken,-0.4,-1.9,4.06,8.58,15.59,20.0,20.37,21.21,15.71,6.7,6.53,2.71
Sprockhövel,51.34669,7.24343,DE,26400,2829998,Sprockhövel,0.46,0.32,6.71,8.71,13.33,18.53,18.39,20.05,14.23,6.81,7.55,2.85
Springe,52.20845,9.55416,DE,29828,2830035,Springe,0.73,-1.0,5.45,8.34,14.03,18.76,19.5,20.88,14.4,6.53,7.31,2.72
Speyer,49.32083,8.43111,DE,50343,2830582,Speyer,0.12,0.25,7.55,10.33,16.31,22.59,21.59,24.93,16.75,8.36,7.35,2.54
Spenge,52.14021,8.48475,DE,15625,2830637,Spenge,1.02,-0.11,6.16,8.85,14.02,18.97,19.58,21.24,14.51,6.84,7.62,2.99
Sonthofen,47.51821,10.28262,DE,21285,2831088,Sonthofen,-2.63,-4.53,3.22,6.73,13.33,19.83,18.05,20.69,12.92,5.53,4.52,-1.33
Sonneberg,50.3592,11.17463,DE,23908,2831250,Sonneberg,-1.79,-3.86,4.5,7.87,14.22,19.93,19.0,21.55,14.16,5.48,5.0,0.74
Sondershausen,51.36973,10.87011,DE,21802,2831276,Sondershausen,-0.08,-2.53,4.89,7.89,14.33,19.14,19.57,21.39,14.58,6.31,5.95,1.64
Sömmerda,51.15914,11.11524,DE,20853,2831403,Sömmerda,0.08,-1.64,5.01,8.09,14.66,19.59,19.96,21.86,14.86,6.66,6.09,1.78
Soltau,52.98638,9.84338,DE,21945,2831486,Soltau,0.24,-0.86,5.16,8.9,13.94,18.74,19.48,20.47,14.84,6.42,7.06,3.09
Solingen,51.17343,7.0845,DE,164359,2831580,Solingen,0.63,0.53,6.81,8.87,13.45,18.73,18.65,20.36,14.37,6.99,7.58,2.94
Soest,51.57558,8.10619,DE,48037,2831708,Soest,1.0,0.03,6.66,8.92,14.13,19.17,19.26,21.0,14.55,6.97,7.92,3.05
Sinzig,50.54384,7.24639,DE,17880,2831852,Sinzig,1.89,0.96,7.52,9.55,14.59,19.98,19.91,21.63,15.12,8.02,8.35,3.57
Sinsheim,49.2529,8.87867,DE,35219,2831872,Sinsheim,0.2,-0.15,7.5,10.21,16.13,22.48,21.37,24.79,16.26,8.11,7.17,2.47
Singen,47.75935,8.8403,DE,48033,2831924,Singen,-0.28,-1.78,6.67,9.06,15.08,22.5,20.85,24.02,15.58,7.0,5.32,1.51
Sindelfingen,48.7,9.01667,DE,61311,2831948,Sindelfingen,-1.18,-2.18,5.76,7.96,14.07,20.49,19.03,22.63,14.23,6.33,5.53,0.93
Simmerath,50.6,6.3,DE,15646,2832023,Simmerath,-0.69,-1.74,5.49,6.99,11.56,17.12,16.9,18.93,13.06,5.7,6.33,1.74
Sigmaringen,48.08829,9.23033,DE,16592,2832232,Sigmaringen,-1.22,-2.78,6.02,8.34,14.22,20.86,19.35,22.7,14.54,6.22,5.31,0.62
Siegen,50.87481,8.02431,DE,107242,2832495,Siegen,0.1,-1.67,6.14,8.43,13.54,18.86,18.44,20.27,13.93,6.54,6.77,2.07
Siegburg,50.80019,7.20769,DE,39135,2832521,Siegburg,1.59,0.9,7.36,9.49,14.43,19.75,19.8,21.48,15.04,7.8,8.19,3.45
Langenhorn,53.66667,10.01667,DE,46272,2832561,Langenhorn,0.22,-1.17,4.53,8.39,13.21,17.92,19.21,19.85,14.85,6.32,6.72,3.22
Senftenberg,51.52517,14.00164,DE,28988,2833073,Senftenberg,-0.79,-2.04,4.46,8.63,15.95,20.42,20.36,21.39,15.76,6.96,6.44,2.4
Senden,51.85645,7.48327,DE,20363,2833079,Senden,1.47,0.51,6.83,9.37,14.05,19.17,19.57,21.18,14.8,7.29,7.93,3.3
Senden,48.32441,10.04442,DE,22275,2833080,Senden,-0.82,-2.97,5.68,8.29,14.72,21.3,19.5,22.72,14.62,6.32,5.05,0.78
Selm,51.69689,7.46809,DE,27540,2833170,Selm,1.34,0.49,6.98,9.3,14.1,19.18,19.38,20.94,14.83,7.28,8.01,3.32
Seligenstadt,50.0432,8.97394,DE,19569,2833242,Seligenstadt,0.79,-0.46,6.96,9.83,15.62,21.62,21.04,24.01,16.02,7.71,7.0,2.31
Selb,50.17058,12.13054,DE,17132,2833296,Selb,-2.07,-4.53,3.58,6.58,13.44,18.68,17.82,20.2,13.2,4.71,4.4,-0.08
Sehnde,52.31394,9.9682,DE,23060,2833475,Sehnde,0.47,-1.0,5.31,8.49,14.31,19.0,19.7,20.96,14.68,6.63,7.32,2.75
Seevetal,53.4,9.96667,DE,41266,2833564,Seevetal,0.06,-1.13,4.59,8.49,13.5,18.2,19.26,19.98,14.72,6.21,6.77,3.05
Seesen,51.89095,10.17847,DE,21909,2833592,Seesen,-0.16,-2.94,4.96,7.85,13.94,18.58,19.01,20.41,13.92,6.08,6.68,1.86
Seelze,52.39635,9.59727,DE,32899,2833641,Seelze,0.93,-0.77,5.48,8.79,14.33,19.14,19.96,21.25,14.85,6.81,7.48,3.05
Schwetzingen,49.38217,8.5823,DE,22593,2834240,Schwetzingen,0.2,0.35,7.57,10.37,16.27,22.51,21.59,24.84,16.67,8.31,7.32,2.52
Schwerte,51.44387,7.5675,DE,50399,2834265,Schwerte,0.87,0.1,7.06,9.14,14.02,19.1,18.95,20.58,14.76,7.18,8.05,3.27
Schwerin,53.62937,11.41316,DE,96641,2834282,Schwerin,-0.37,-2.0,3.96,8.0,13.66,18.3,19.55,19.91,15.03,6.24,6.67,2.9
Schwelm,51.28635,7.29388,DE,30235,2834372,Schwelm,0.42,0.19,6.72,8.69,13.38,18.54,18.37,20.04,14.24,6.81,7.58,2.86
Schweinfurt,50.04937,10.22175,DE,54012,2834498,Schweinfurt,-0.2,-1.71,5.81,9.0,15.16,21.09,20.39,23.05,15.05,6.75,5.59,1.48
Schwedt (Oder),53.05963,14.28154,DE,30189,2834629,Schwedt (Oder),-0.69,-2.25,3.42,8.12,15.13,19.36,19.83,20.11,15.35,6.57,6.18,2.72
Schwarzenberg,50.53791,12.78522,DE,16168,2834978,Schwarzenberg,-1.73,-4.71,4.01,7.13,14.18,19.04,18.47,20.26,13.7,5.22,5.29,0.48
Schwanewede,53.23333,8.6,DE,20015,2835260,Schwanewede,0.9,-0.38,5.46,8.82,13.28,17.96,18.91,19.66,14.5,6.46,7.07,3.37
Schwandorf in Bayern,49.32534,12.1098,DE,28235,2835297,Schwandorf in Bayern,-1.29,-3.5,5.08,8.48,15.6,21.23,19.82,22.93,15.11,6.34,5.04,0.76
Schwalmtal,51.21667,6.26667,DE,19435,2835342,Schwalmtal,1.88,1.42,7.49,9.61,14.06,19.42,19.53,20.87,15.32,7.9,8.35,3.77
Schwalmstadt,50.93333,9.21667,DE,19279,2835345,Schwalmstadt,0.35,-1.23,5.8,8.18,14.04,19.52,19.24,21.62,14.17,6.5,6.42,1.81
Schwalbach,49.3,6.81667,DE,18708,2835382,Schwalbach,0.18,0.59,7.58,10.13,14.82,21.26,20.43,23.25,15.34,8.03,7.38,2.85
Schwäbisch Hall,49.11127,9.73908,DE,36543,2835481,Schwäbisch Hall,-0.56,-1.94,6.44,9.14,15.29,21.53,20.45,23.82,15.32,7.06,6.17,1.63
Schwäbisch Gmünd,48.79947,9.79809,DE,61216,2835482,Schwäbisch Gmünd,-0.0,-2.36,6.66,9.33,15.49,21.76,20.36,24.12,15.5,7.25,6.28,1.67
Schwabach,49.33047,11.02346,DE,38554,2835537,Schwabach,-0.75,-2.52,6.06,9.04,15.7,21.64,20.32,23.61,15.27,6.72,5.69,1.51
Schrobenhausen,48.56067,11.26071,DE,16143,2836084,Schrobenhausen,-0.37,-2.56,5.8,8.88,15.61,21.75,20.31,23.61,15.12,6.78,5.27,1.03
Schramberg,48.22399,8.38583,DE,18565,2836203,Schramberg,-0.97,-2.27,6.64,9.07,14.54,21.44,20.01,23.25,15.27,7.19,6.7,1.4
Schortens,53.53333,7.95,DE,21357,2836282,Schortens,1.17,-0.19,5.42,8.62,12.64,17.38,18.48,19.21,14.42,6.6,6.97,3.48
Schorndorf,48.80537,9.52721,DE,39697,2836320,Schorndorf,0.22,-1.97,6.78,9.47,15.6,21.92,20.58,24.22,15.57,7.46,6.42,1.78
Schopfheim,47.65105,7.82089,DE,19386,2836413,Schopfheim,0.03,-1.75,7.3,9.31,14.83,22.43,20.82,23.83,15.74,7.35,5.98,1.74
Schöneberg,52.46667,13.35,DE,122658,2836788,Schöneberg,-0.61,-1.88,3.77,8.41,15.52,20.01,20.35,21.27,15.62,6.5,6.27,2.48
Schönebeck,52.01682,11.7307,DE,30387,2836809,Schönebeck,0.28,-1.78,4.81,8.43,15.13,19.93,20.35,21.63,15.32,6.84,7.0,2.45
Schneverdingen,53.11685,9.79524,DE,19199,2837291,Schneverdingen,-0.05,-1.15,4.78,8.55,13.57,18.34,19.15,20.09,14.5,6.05,6.72,2.8
Schnelsen,53.6374,9.91829,DE,30100,2837343,Schnelsen,0.15,-1.09,4.56,8.49,13.34,18.05,19.26,19.92,14.81,6.27,6.71,3.15
Schneeberg,50.59465,12.64139,DE,16784,2837470,Schneeberg,-1.86,-4.89,3.87,7.02,13.98,18.83,18.3,20.1,13.48,5.05,5.16,0.34
Schmelz,49.43333,6.85,DE,17596,2837954,Schmelz,0.18,0.43,7.5,9.94,14.71,21.0,20.24,23.05,15.28,7.91,7.32,2.79
Schmargendorf,52.47517,13.29071,DE,22733,2838009,Schmargendorf,-0.59,-1.93,3.83,8.42,15.48,19.94,20.29,21.19,15.6,6.52,6.32,2.52
Schmallenberg,51.15473,8.28505,DE,26132,2838053,Schmallenberg,-1.02,-2.92,5.06,7.14,12.4,17.38,17.11,18.92,12.82,5.3,6.14,1.28
Schmalkalden,50.72136,10.44386,DE,19553,2838059,Schmalkalden,-0.49,-3.56,5.2,7.89,14.15,19.51,19.11,21.38,14.07,6.05,5.91,1.48
Schlüchtern,50.34891,9.52532,DE,17260,2838201,Schlüchtern,0.34,-1.52,6.53,9.28,15.08,21.05,20.38,23.31,15.38,7.13,6.59,2.11
Schleswig,54.52156,9.5586,DE,24114,2838634,Schleswig,0.4,-1.13,4.06,7.63,12.23,16.76,18.45,18.68,14.49,6.52,6.51,3.43
Schkeuditz,51.39678,12.22141,DE,18487,2839050,Schkeuditz,-0.09,-1.72,4.98,8.34,15.38,20.21,20.42,21.94,15.38,7.09,6.81,2.22
Schiffweiler,49.36667,7.13333,DE,15780,2839316,Schiffweiler,-0.21,-0.09,7.05,9.31,14.23,20.52,19.66,22.6,14.92,7.41,6.91,2.37
Schifferstadt,49.38417,8.3775,DE,19209,2839335,Schifferstadt,0.09,0.25,7.54,10.42,16.37,22.58,21.75,24.97,16.88,8.38,7.34,2.53
Bad Saulgau,48.01676,9.50064,DE,17911,2841125,Bad Saulgau,-1.39,-2.73,5.62,8.12,14.31,20.98,19.32,22.59,14.36,6.06,4.78,0.34
Sasel,53.65385,10.11184,DE,23131,2841374,Sasel,0.12,-1.32,4.41,8.25,13.13,17.83,19.13,19.75,14.76,6.21,6.65,3.12
Sarstedt,52.23495,9.85411,DE,18718,2841386,Sarstedt,0.64,-1.07,5.43,8.46,14.34,19.01,19.76,21.04,14.6,6.64,7.37,2.73
Sankt Wendel,49.46633,7.16814,DE,26904,2841463,Sankt Wendel,-0.19,-0.37,7.16,9.28,14.29,20.48,19.66,22.56,15.05,7.37,6.99,2.43
Sankt Ingbert,49.27697,7.11672,DE,38697,2841590,Sankt Ingbert,0.34,0.7,7.68,9.96,14.85,21.28,20.37,23.52,15.61,7.98,7.49,2.98
Sankt Augustin,50.77538,7.197,DE,56094,2841648,Sankt Augustin,1.59,0.9,7.36,9.49,14.43,19.75,19.8,21.48,15.04,7.8,8.19,3.45
Sangerhausen,51.47221,11.29533,DE,23347,2841693,Sangerhausen,0.09,-1.86,5.04,8.16,14.73,19.59,19.95,21.59,14.82,6.57,6.43,2.04
Salzwedel,52.85435,11.1525,DE,21058,2842112,Salzwedel,-0.05,-1.53,4.6,8.74,14.88,19.71,20.28,20.89,15.36,6.6,7.13,2.95
Salzkotten,51.6717,8.60092,DE,24561,2842131,Salzkotten,0.71,-0.54,6.26,8.74,14.16,19.09,19.29,21.17,14.28,6.66,7.47,2.74
Salzgitter,52.15705,10.4154,DE,103866,2842150,Salzgitter,0.25,-1.75,5.08,8.22,14.37,18.99,19.63,20.78,14.55,6.47,7.14,2.45
Saarlouis,49.31366,6.75154,DE,38333,2842632,Saarlouis,0.34,0.74,7.73,10.28,14.97,21.4,20.58,23.4,15.5,8.18,7.53,3.0
Saarbrücken,49.23262,7.00982,DE,179349,2842647,Saarbrücken,0.53,0.78,7.71,10.09,14.94,21.44,20.5,23.55,15.63,8.21,7.66,3.1
Saalfeld,50.64826,11.36536,DE,28023,2842688,Saalfeld,-0.71,-3.38,5.35,8.44,15.05,20.18,19.84,21.87,14.98,6.54,6.45,1.83
Rüsselsheim,49.98955,8.42251,DE,59730,2842884,Rüsselsheim,1.1,0.04,7.06,10.05,15.72,21.67,21.2,23.9,16.37,7.99,7.06,2.39
Rummelsburg,52.50146,13.4934,DE,25697,2843106,Rummelsburg,-0.65,-2.01,3.74,8.42,15.57,20.01,20.35,21.25,15.62,6.51,6.25,2.48
Rudow,52.42407,13.48529,DE,42631,2843350,Rudow,-0.52,-2.04,3.86,8.5,15.72,20.16,20.46,21.47,15.78,6.64,6.37,2.55
Rudolstadt,50.72043,11.34046,DE,25476,2843355,Rudolstadt,-0.56,-3.23,5.53,8.65,15.19,20.33,19.98,22.03,15.13,6.7,6.62,1.97
Rottweil,48.16783,8.62719,DE,25510,2843636,Rottweil,-2.5,-3.9,5.15,7.48,13.19,19.99,18.59,22.14,13.75,5.55,4.87,-0.33
Rottenburg,48.47629,8.93528,DE,42721,2843729,Rottenburg,-0.76,-1.79,6.73,8.94,14.82,21.42,20.03,23.7,15.21,6.99,6.26,1.48
Rotherbaum,53.56999,9.99449,DE,17114,2843965,Rotherbaum,0.09,-1.19,4.45,8.41,13.35,18.09,19.34,19.97,14.79,6.2,6.67,3.08
Roth,49.24762,11.09111,DE,25083,2844265,Roth,-0.78,-2.83,6.03,9.12,15.82,21.78,20.42,23.9,15.41,6.81,5.65,1.49
Rotenburg,53.11125,9.41082,DE,22139,2844437,Rotenburg,0.64,-0.44,5.45,9.11,13.85,18.63,19.48,20.45,14.91,6.58,7.17,3.32
Rostock,54.0887,12.14049,DE,198293,2844588,Rostock,0.06,-1.89,3.65,7.72,13.4,17.83,19.17,19.22,15.02,6.85,6.59,3.35
Rösrath,50.89559,7.18175,DE,26868,2844862,Rösrath,1.29,0.7,7.17,9.34,14.22,19.56,19.59,21.32,14.83,7.61,7.99,3.27
Rosenheim,47.85637,12.12247,DE,60167,2844988,Rosenheim,-1.41,-4.06,5.3,8.34,15.16,21.04,19.81,22.45,14.01,6.33,5.11,-0.1
Ronnenberg,52.31939,9.65544,DE,23416,2845222,Ronnenberg,0.76,-0.93,5.42,8.55,14.22,18.97,19.74,21.05,14.65,6.66,7.38,2.85
Rissen,53.58453,9.76594,DE,16051,2846455,Rissen,0.15,-1.06,4.62,8.51,13.26,17.95,19.13,19.81,14.75,6.28,6.69,3.16
Rinteln,52.18604,9.07917,DE,27843,2846523,Rinteln,1.18,-0.24,6.19,8.98,14.36,19.26,19.88,21.37,14.95,7.08,7.82,3.34
Rietberg,51.80924,8.42841,DE,28672,2846843,Rietberg,0.93,-0.11,6.33,8.95,14.29,19.31,19.62,21.49,14.39,6.82,7.63,2.88
Riesa,51.30777,13.29168,DE,37156,2846939,Riesa,-0.4,-2.12,4.84,8.59,15.8,20.44,20.39,21.37,15.52,6.89,6.65,2.39
Riegelsberg,49.3,6.93333,DE,15647,2847033,Riegelsberg,-0.31,0.05,7.0,9.48,14.25,20.69,19.84,22.75,14.82,7.47,6.85,2.33
Ribnitz-Damgarten,54.2422,12.45666,DE,17152,2847524,Ribnitz-Damgarten,0.13,-1.95,3.55,7.49,13.39,17.69,19.14,19.12,15.01,6.9,6.65,3.51
Rheinhausen,51.40055,6.71187,DE,78203,2847631,Rheinhausen,1.85,1.41,7.52,9.79,14.29,19.53,19.64,21.12,15.31,7.93,8.41,3.81
Rheinfelden,47.56013,7.78715,DE,32535,2847639,Rheinfelden,0.39,-1.23,7.4,9.59,15.17,22.93,21.38,24.5,16.07,7.63,6.1,1.93
Rheine,52.28509,7.44055,DE,76491,2847645,Rheine,1.37,0.39,6.6,9.33,13.72,18.59,19.2,20.63,14.7,6.99,7.72,3.23
Rheinberg,51.54649,6.59525,DE,32188,2847662,Rheinberg,1.91,1.25,7.36,9.67,14.17,19.4,19.55,20.94,15.17,7.88,8.35,3.74
Rheinbach,50.62562,6.94911,DE,26262,2847666,Rheinbach,1.33,0.6,7.12,8.95,13.9,19.35,19.3,21.01,14.77,7.5,7.99,3.28
Rhede,51.83537,6.69602,DE,19140,2847689,Rhede,1.76,1.23,7.39,9.83,14.08,19.18,19.39,20.75,15.12,7.62,8.16,3.61
Rheda-Wiedenbrück,51.84967,8.30017,DE,46123,2847690,Rheda-Wiedenbrück,1.08,0.04,6.42,8.99,14.29,19.34,19.64,21.5,14.48,6.95,7.74,2.99
Reutlingen,48.49144,9.20427,DE,112627,2847736,Reutlingen,-0.44,-2.05,6.27,8.71,14.79,21.34,19.89,23.54,14.87,6.83,5.75,1.23
Renningen,48.76974,8.93871,DE,17442,2848175,Renningen,-0.76,-1.65,6.49,8.7,14.68,21.05,19.65,23.24,14.88,6.92,6.22,1.55
Rendsburg,54.30663,9.66313,DE,28323,2848245,Rendsburg,0.5,-1.01,4.33,7.99,12.57,17.12,18.69,19.03,14.68,6.57,6.63,3.49
Remscheid,51.17983,7.1925,DE,117118,2848273,Remscheid,-0.16,-0.41,6.04,8.04,12.69,17.94,17.81,19.55,13.55,6.22,6.87,2.19
Remagen,50.57879,7.22703,DE,16280,2848335,Remagen,1.86,1.05,7.52,9.6,14.59,19.93,20.05,21.65,15.17,8.02,8.38,3.61
Reinickendorf,52.56667,13.33333,DE,83972,2848756,Reinickendorf,-0.55,-1.92,3.88,8.41,15.43,19.82,20.21,20.97,15.5,6.55,6.36,2.61
Reinheim,49.82923,8.83572,DE,17841,2848762,Reinheim,0.83,-0.15,7.18,9.85,15.69,21.72,21.07,24.12,16.07,7.94,7.39,2.55
Reinbek,53.51703,10.2488,DE,25261,2848845,Reinbek,0.04,-1.28,4.42,8.37,13.43,18.16,19.31,19.98,14.78,6.18,6.71,3.03
Reichenbach/Vogtland,50.62279,12.30344,DE,22530,2849156,Reichenbach/Vogtland,-1.36,-4.18,4.39,7.44,14.29,19.16,18.67,20.5,13.83,5.51,5.61,0.94
Regensburg,49.01513,12.10161,DE,129151,2849483,Regensburg,-1.6,-3.68,5.1,8.74,15.85,21.45,20.12,23.35,15.27,6.59,4.99,0.75
Rees,51.76263,6.39778,DE,22544,2849548,Rees,1.86,1.23,7.21,9.68,13.92,18.92,19.18,20.31,15.02,7.68,8.14,3.62
Recklinghausen,51.61379,7.19738,DE,122438,2849647,Recklinghausen,1.36,0.71,7.08,9.38,14.05,19.22,19.39,20.9,14.84,7.32,8.05,3.31
Ravensburg,47.78198,9.61062,DE,48825,2849802,Ravensburg,-0.53,-2.46,5.61,8.84,15.12,22.23,20.31,23.51,15.26,7.2,5.39,0.98
Ratingen,51.29724,6.84929,DE,91606,2850174,Ratingen,1.53,1.3,7.47,9.68,14.17,19.42,19.45,20.98,15.19,7.73,8.24,3.65
Rathenow,52.60659,12.33696,DE,27115,2850213,Rathenow,-0.18,-2.13,4.31,8.49,15.22,19.78,20.29,21.0,15.52,6.48,6.76,2.69
Ratekau,53.95,10.73333,DE,15921,2850235,Ratekau,0.2,-1.44,4.2,7.95,13.06,17.78,19.24,19.57,15.06,6.69,6.77,3.33
Rastede,53.25,8.2,DE,20046,2850253,Rastede,0.93,-0.28,5.46,8.69,12.94,17.64,18.59,19.35,14.3,6.35,6.97,3.31
Rastatt,48.85851,8.20965,DE,47906,2850257,Rastatt,-0.04,-0.56,7.65,10.24,15.9,22.32,21.32,24.9,16.66,8.27,7.2,2.53
Rahlstedt,53.60194,10.15667,DE,92511,2850872,Rahlstedt,0.16,-1.2,4.49,8.36,13.36,18.07,19.32,19.95,14.86,6.27,6.79,3.18
Rahden,52.43367,8.61263,DE,16140,2850887,Rahden,1.21,0.01,6.19,9.05,14.08,18.97,19.76,21.23,14.88,6.96,7.62,3.28
Radolfzell,47.74194,8.97098,DE,30096,2850954,Radolfzell,-0.01,-1.26,6.9,9.3,15.42,22.7,20.97,24.13,15.79,7.35,5.69,1.81
Radevormwald,51.20219,7.36027,DE,24100,2850995,Radevormwald,-0.34,-1.32,5.89,7.82,12.62,17.81,17.58,19.36,13.35,6.1,6.81,2.08
Radebeul,51.10654,13.66047,DE,32643,2851077,Radebeul,-0.79,-3.21,4.59,8.27,15.46,20.23,19.99,21.12,15.25,6.59,6.28,2.15
Radeberg,51.11112,13.91199,DE,18747,2851079,Radeberg,-1.56,-3.75,3.89,7.52,14.76,19.39,19.11,20.26,14.56,5.87,5.6,1.42
Quickborn,53.72831,9.90934,DE,20410,2851343,Quickborn,0.19,-1.13,4.53,8.38,13.13,17.84,19.1,19.77,14.79,6.29,6.65,3.18
Quedlinburg,51.78843,11.15006,DE,22814,2851465,Quedlinburg,0.01,-2.18,4.83,8.03,14.49,19.28,19.83,21.27,14.75,6.46,6.66,2.12
Püttlingen,49.2855,6.88723,DE,21052,2851584,Püttlingen,0.19,0.55,7.5,9.98,14.75,21.19,20.34,23.25,15.32,7.97,7.35,2.83
Pulheim,50.99965,6.80632,DE,53762,2851746,Pulheim,1.81,1.23,7.52,9.61,14.31,19.75,20.02,21.7,15.34,7.98,8.4,3.72
Puchheim,48.15,11.35,DE,19357,2851782,Puchheim,-1.05,-4.3,5.22,8.13,14.82,21.2,19.7,22.69,14.27,6.42,5.02,0.37
Prenzlauer Berg,52.53878,13.42443,DE,148878,2852217,Prenzlauer Berg,-0.66,-1.93,3.72,8.35,15.47,19.96,20.29,21.23,15.57,6.45,6.22,2.44
Prenzlau,53.31625,13.86261,DE,20899,2852218,Prenzlau,-0.89,-2.62,3.23,7.71,14.53,18.83,19.55,19.76,15.07,6.36,6.05,2.63
Preetz,54.2354,10.27795,DE,15768,2852280,Preetz,0.16,-1.4,4.03,7.69,12.63,17.28,18.88,19.24,14.67,6.37,6.53,3.21
Potsdam,52.39886,13.06566,DE,182112,2852458,Potsdam,-0.26,-1.85,4.23,8.66,15.69,20.09,20.46,21.34,15.83,6.82,6.68,2.77
Porz am Rhein,50.88637,7.0583,DE,113415,2852566,Porz am Rhein,1.55,1.01,7.38,9.54,14.39,19.76,19.87,21.57,15.09,7.82,8.19,3.5
Porta Westfalica,52.22961,8.91612,DE,36364,2852577,Porta Westfalica,1.05,-0.2,6.1,8.88,14.16,19.11,19.74,21.24,14.76,6.92,7.67,3.16
Poppenbüttel,53.65917,10.08472,DE,24135,2852673,Poppenbüttel,0.17,-1.26,4.46,8.3,13.18,17.88,19.18,19.8,14.82,6.26,6.7,3.17
Plettenberg,51.20949,7.87261,DE,28206,2853209,Plettenberg,0.2,-1.73,6.4,8.38,13.48,18.55,18.31,20.07,14.07,6.63,7.51,2.59
Plauen,50.4973,12.13782,DE,66412,2853292,Plauen,-1.17,-4.01,4.66,7.61,14.4,19.34,18.84,20.75,13.93,5.67,5.71,1.09
Pirna,50.95843,13.93702,DE,40322,2853572,Pirna,-0.87,-3.62,4.67,8.41,15.5,20.32,19.97,21.14,15.41,6.63,6.2,2.03
Pirmasens,49.20145,7.60529,DE,43582,2853574,Pirmasens,-0.98,-0.85,6.54,8.95,14.14,20.41,19.38,22.71,14.97,6.96,6.38,1.67
Pinneberg,53.66732,9.78936,DE,40577,2853658,Pinneberg,0.26,-1.03,4.64,8.49,13.16,17.86,19.09,19.74,14.8,6.34,6.73,3.26
Pfungstadt,49.80557,8.60307,DE,25084,2853924,Pfungstadt,0.84,0.05,7.2,9.98,15.76,21.86,21.29,24.25,16.31,8.03,7.25,2.49
Pfullingen,48.46458,9.22796,DE,18269,2853928,Pfullingen,-0.65,-2.21,6.29,8.6,14.58,21.15,19.64,23.28,14.73,6.72,5.83,1.2
Pforzheim,48.88436,8.69892,DE,119313,2853969,Pforzheim,-0.04,-0.55,7.22,9.71,15.56,21.97,20.73,24.19,15.86,7.81,7.01,2.24
Pfaffenhofen an der Ilm,48.53053,11.505,DE,23192,2854386,Pfaffenhofen an der Ilm,-0.21,-2.47,5.94,8.98,15.7,21.79,20.44,23.56,15.19,7.0,5.58,1.23
Petershagen,52.37513,8.96538,DE,27090,2854655,Petershagen,1.03,-0.53,5.68,8.84,14.1,19.0,19.85,21.17,14.71,6.8,7.5,3.11
Penzberg,47.75293,11.377,DE,16079,2854923,Penzberg,-2.28,-4.52,4.27,7.49,14.31,20.39,18.93,21.63,13.42,5.73,4.86,-0.53
Peine,52.31928,10.2352,DE,49953,2855047,Peine,0.39,-1.16,5.25,8.47,14.4,19.08,19.71,20.93,14.72,6.65,7.33,2.73
Passau,48.5665,13.43122,DE,50560,2855328,Passau,-2.58,-3.62,5.04,8.48,15.67,21.04,19.96,22.49,14.87,6.46,5.2,0.22
Pasing,48.14146,11.45599,DE,35728,2855334,Pasing,-1.14,-4.34,5.1,8.03,14.74,21.1,19.62,22.65,14.14,6.27,4.87,0.27
Parchim,53.42631,11.84875,DE,19161,2855441,Parchim,-0.43,-2.03,3.87,8.03,14.0,18.57,19.68,20.01,14.99,6.18,6.66,2.78
Papenburg,53.07738,7.40444,DE,34117,2855525,Papenburg,1.4,0.15,6.0,8.91,13.1,17.65,18.6,19.39,14.4,6.58,7.27,3.42
Pankow,52.56926,13.40186,DE,65375,2855598,Pankow,-0.59,-1.91,3.81,8.37,15.43,19.81,20.19,20.96,15.47,6.51,6.31,2.58
Paderborn,51.71905,8.75439,DE,142161,2855745,Paderborn,0.69,-0.64,6.14,8.71,14.15,19.12,19.42,21.28,14.17,6.56,7.4,2.7
Oyten,53.05,9.01667,DE,15286,2855794,Oyten,0.69,-0.47,5.47,8.98,13.6,18.32,19.23,20.02,14.64,6.38,7.03,3.25
Overath,50.93275,7.28389,DE,27203,2855859,Overath,1.19,0.46,7.12,9.27,14.18,19.51,19.44,21.21,14.71,7.57,7.95,3.2
Ottweiler,49.40133,7.16424,DE,15503,2855917,Ottweiler,-0.02,0.01,7.29,9.5,14.49,20.78,19.92,22.9,15.21,7.59,7.13,2.56
Ottobrunn bei München,48.06489,11.66327,DE,19204,2855935,Ottobrunn bei München,-1.48,-4.27,4.83,7.75,14.47,20.72,19.26,22.19,13.79,5.97,4.57,-0.01
Ottensen,53.55,9.91667,DE,35136,2856075,Ottensen,0.0,-1.24,4.41,8.34,13.19,17.9,19.11,19.78,14.66,6.13,6.56,3.0
Othmarschen,53.55173,9.88632,DE,16009,2856163,Othmarschen,0.15,-1.09,4.56,8.49,13.34,18.05,19.26,19.92,14.81,6.27,6.71,3.15
Osterholz-Scharmbeck,53.22698,8.79528,DE,31405,2856500,Osterholz-Scharmbeck,0.71,-0.45,5.45,8.87,13.34,18.05,18.95,19.7,14.53,6.33,6.95,3.29
Osnabrück,52.27264,8.0498,DE,166462,2856883,Osnabrück,1.2,0.2,6.39,9.12,13.86,18.76,19.42,21.0,14.66,6.91,7.62,3.15
Osdorf,53.57982,9.85826,DE,26420,2856915,Osdorf,0.05,-1.19,4.46,8.39,13.24,17.95,19.16,19.82,14.71,6.17,6.61,3.05
Oschersleben,52.03039,11.22898,DE,19396,2856930,Oschersleben,0.17,-1.8,4.85,8.04,14.53,19.31,19.91,21.2,14.81,6.53,6.89,2.34
Oschatz,51.30001,13.10984,DE,16000,2856944,Oschatz,-0.26,-2.06,4.92,8.56,15.74,20.36,20.35,21.48,15.5,6.96,6.78,2.42
Oranienburg,52.75577,13.24197,DE,40793,2857129,Oranienburg,-0.5,-1.81,3.97,8.44,15.29,19.68,20.1,20.68,15.4,6.55,6.35,2.72
Opladen,51.06863,7.00387,DE,23000,2857185,Opladen,1.6,1.28,7.59,9.81,14.46,19.78,19.86,21.56,15.33,7.94,8.35,3.72
Olsberg,51.35613,8.48899,DE,15814,2857291,Olsberg,-0.18,-1.56,5.55,7.65,13.03,17.99,17.94,19.86,13.34,5.81,6.73,2.01
Olpe,51.02899,7.85139,DE,25686,2857306,Olpe,-0.58,-1.85,5.77,7.98,12.98,18.23,17.73,19.69,13.63,6.05,6.54,1.84
Oldenburg,53.14118,8.21467,DE,159218,2857458,Oldenburg,1.01,-0.13,5.74,8.92,13.31,18.0,18.9,19.79,14.49,6.51,7.16,3.36
Olching,48.2,11.33333,DE,23978,2857472,Olching,-0.57,-3.99,5.63,8.51,15.19,21.64,20.12,23.17,14.71,6.63,5.18,0.88
Öhringen,49.19884,9.5072,DE,22765,2857565,Öhringen,-0.02,-1.35,6.88,9.58,15.74,21.97,20.9,24.21,15.76,7.55,6.59,2.02
Offenburg,48.47377,7.94495,DE,59238,2857798,Offenburg,0.65,-0.05,7.5,10.06,15.5,22.28,21.19,24.57,16.55,8.29,7.19,2.64
Offenbach,50.10061,8.76647,DE,119192,2857807,Offenbach,1.04,-0.08,6.97,9.79,15.53,21.63,21.11,24.0,16.12,7.85,7.06,2.36
Oerlinghausen,51.95453,8.6622,DE,17403,2857900,Oerlinghausen,0.1,-1.22,5.41,8.03,13.33,18.31,18.77,20.52,13.7,5.98,6.79,2.17
Oer-Erkenschwick,51.64198,7.26451,DE,30409,2857904,Oer-Erkenschwick,1.35,0.68,7.1,9.39,14.11,19.26,19.4,20.91,14.87,7.32,8.08,3.35
Oelde,51.8289,8.14724,DE,29297,2857943,Oelde,1.1,0.04,6.4,8.87,14.05,19.13,19.45,21.25,14.43,6.96,7.72,2.98
Odenthal,51.03333,7.11667,DE,15619,2858103,Odenthal,1.38,1.02,7.39,9.61,14.3,19.7,19.75,21.51,15.09,7.79,8.13,3.5
Ochtrup,52.20802,7.18988,DE,19441,2858245,Ochtrup,1.34,0.45,6.72,9.32,13.64,18.55,19.04,20.43,14.7,7.0,7.7,3.2
Oberursel,50.20731,8.57747,DE,46678,2858738,Oberursel,0.77,-0.29,6.43,9.02,14.71,20.66,20.11,22.83,15.38,7.32,6.7,2.08
Obertshausen,50.07139,8.85123,DE,24459,2858763,Obertshausen,0.81,-0.32,6.79,9.64,15.39,21.46,20.94,23.86,15.93,7.64,6.87,2.2
Oberschöneweide,52.46106,13.52108,DE,23638,2859103,Oberschöneweide,-0.6,-1.97,3.79,8.47,15.62,20.07,20.39,21.3,15.66,6.56,6.3,2.53
Ober-Ramstadt,49.83078,8.74887,DE,15367,2859380,Ober-Ramstadt,0.43,-0.41,6.74,9.43,15.25,21.32,20.7,23.72,15.7,7.53,6.91,2.07
Oberkirch,48.53241,8.07864,DE,20375,2860080,Oberkirch,0.51,-0.43,7.31,10.02,15.52,22.21,21.17,24.6,16.43,8.3,7.13,2.57
Oberhausen,51.47805,6.8625,DE,219176,2860410,Oberhausen,1.62,1.05,7.31,9.6,14.18,19.4,19.54,21.06,15.09,7.67,8.25,3.55
Oberasbach,49.42275,10.95766,DE,17306,2861402,Oberasbach,-0.84,-2.72,5.81,8.94,15.57,21.48,20.22,23.35,15.04,6.6,5.58,1.39
Nürtingen,48.62565,9.34203,DE,40210,2861632,Nürtingen,0.02,-2.01,6.7,9.34,15.49,21.92,20.56,24.25,15.47,7.35,6.14,1.55
Nürnberg,49.45421,11.07752,DE,515543,2861650,Nürnberg,-0.74,-2.76,5.67,8.97,15.56,21.46,20.22,23.19,14.9,6.53,5.52,1.31
Nümbrecht,50.90427,7.54063,DE,17427,2861677,Nümbrecht,-0.02,-1.22,6.11,8.3,13.2,18.51,18.25,20.11,13.65,6.47,6.85,2.14
Nottuln,51.93333,7.35,DE,20427,2861733,Nottuln,1.19,0.22,6.53,9.03,13.66,18.77,19.19,20.76,14.45,6.99,7.63,3.0
Northeim,51.70662,9.99997,DE,30894,2861814,Northeim,0.52,-1.93,5.56,8.54,14.6,19.3,19.68,21.36,14.46,6.57,6.94,2.16
Nördlingen,48.85122,10.48868,DE,19492,2861914,Nördlingen,-1.15,-3.29,5.62,8.52,15.04,21.14,19.72,23.31,14.91,6.37,5.17,0.98
Nordhorn,52.43081,7.06833,DE,52803,2861934,Nordhorn,1.52,0.47,6.61,9.34,13.58,18.35,19.06,20.32,14.67,6.99,7.75,3.32
Nordhausen,51.5018,10.7957,DE,43912,2861982,Nordhausen,-0.43,-3.24,4.71,7.85,14.14,18.98,19.38,21.15,14.37,6.0,5.72,1.37
Norderstedt,53.6859,9.98041,DE,71439,2862026,Norderstedt,0.17,-1.22,4.48,8.34,13.16,17.87,19.16,19.8,14.8,6.26,6.67,3.17
Nordenham,53.4861,8.48093,DE,27714,2862104,Nordenham,0.94,-0.32,5.34,8.8,12.92,17.63,18.68,19.33,14.6,6.71,6.92,3.53
Norden,53.59552,7.20639,DE,24767,2862118,Norden,2.04,0.49,5.6,8.44,12.2,16.77,18.3,19.06,14.92,7.78,7.44,4.24
Nippes,50.96545,6.95314,DE,113487,2862375,Nippes,1.59,1.17,7.5,9.71,14.41,19.82,19.97,21.69,15.27,7.92,8.27,3.63
Niendorf,53.61769,9.95032,DE,40906,2862606,Niendorf,0.09,-1.19,4.45,8.41,13.35,18.09,19.34,19.97,14.79,6.2,6.67,3.08
Nienburg,52.6461,9.22086,DE,32629,2862620,Nienburg,0.85,-0.49,5.6,8.94,14.11,18.94,19.76,20.95,14.85,6.8,7.47,3.24
Niederschönhausen,52.58483,13.40272,DE,32037,2862888,Niederschönhausen,-0.65,-1.97,3.76,8.32,15.38,19.76,20.14,20.91,15.42,6.46,6.26,2.53
Niederkrüchten,51.2,6.21667,DE,15487,2863199,Niederkrüchten,1.92,1.43,7.54,9.7,14.13,19.49,19.6,20.91,15.42,7.96,8.37,3.79
Niederkassel,50.81503,7.03777,DE,36480,2863223,Niederkassel,1.73,1.06,7.46,9.5,14.39,19.75,19.92,21.53,15.14,7.9,8.32,3.6
Nieder-Ingelheim,49.97756,8.07246,DE,24596,2863240,Nieder-Ingelheim,1.19,0.12,7.11,9.84,15.42,21.3,20.85,23.46,16.13,7.89,7.17,2.52
Nidderau,50.23805,8.86704,DE,20090,2863712,Nidderau,0.84,-0.32,6.69,9.56,15.32,21.35,20.89,23.74,15.88,7.61,6.82,2.17
Nidda,50.4133,9.00638,DE,18241,2863716,Nidda,0.75,-0.8,6.71,9.43,15.14,20.99,20.55,23.28,15.4,7.4,6.95,2.2
Neu Wulmstorf,53.46667,9.8,DE,20150,2863795,Neu Wulmstorf,0.32,-0.83,4.82,8.69,13.52,18.2,19.33,20.01,14.85,6.39,6.91,3.29
Neuwied,50.4336,7.47057,DE,66805,2863840,Neuwied,1.68,0.36,7.3,9.58,14.85,20.34,20.21,22.15,15.32,7.85,7.81,3.09
Neu-Ulm,48.39279,10.01112,DE,51389,2863941,Neu-Ulm,-0.72,-3.13,5.8,8.47,14.81,21.29,19.56,22.84,14.74,6.38,5.15,0.85
Neustrelitz,53.3613,13.07292,DE,22291,2864005,Neustrelitz,-0.79,-2.31,3.41,7.75,14.17,18.41,19.3,19.44,14.84,6.38,6.12,2.63
Neustadt in Holstein,54.10707,10.8145,DE,16176,2864034,Neustadt in Holstein,0.46,-1.19,4.2,7.81,13.0,17.78,19.35,19.59,15.29,7.15,6.97,3.63
Neustadt bei Coburg,50.32975,11.12058,DE,16715,2864053,Neustadt bei Coburg,-1.51,-3.62,4.65,8.04,14.33,20.1,19.25,21.73,14.24,5.67,5.05,0.84
Neustadt,49.35009,8.13886,DE,53984,2864054,Neustadt,0.38,0.35,7.49,10.15,15.87,21.96,21.3,24.38,16.51,8.21,7.4,2.63
Neustadt am Rübenberge,52.50462,9.45871,DE,45942,2864058,Neustadt am Rübenberge,0.72,-0.79,5.38,8.82,14.24,19.08,19.91,21.16,14.81,6.74,7.39,3.06
Neue Neustadt,52.15,11.63333,DE,226851,2864072,Neue Neustadt,0.19,-2.0,4.65,8.41,15.07,19.94,20.38,21.62,15.24,6.72,6.9,2.34
Neuss,51.19807,6.68504,DE,152457,2864118,Neuss,1.75,1.24,7.48,9.71,14.32,19.6,19.8,21.36,15.3,7.89,8.32,3.7
Neuruppin,52.92815,12.80311,DE,31901,2864276,Neuruppin,-0.49,-2.11,3.8,8.21,14.87,19.34,19.95,20.36,15.11,6.26,6.3,2.59
Neunkirchen,49.34449,7.18045,DE,49843,2864435,Neunkirchen,-0.2,0.07,7.18,9.46,14.41,20.81,19.9,23.03,15.16,7.51,7.01,2.45
Neumünster,54.07477,9.98195,DE,80196,2864475,Neumünster,0.28,-1.25,4.28,8.02,12.69,17.31,18.79,19.22,14.71,6.35,6.57,3.28
Neumarkt in der Oberpfalz,49.28028,11.46278,DE,39557,2864549,Neumarkt in der Oberpfalz,-1.03,-3.23,5.55,8.52,15.34,21.0,19.64,22.85,14.9,6.31,5.35,1.18
Neukölln,52.47719,13.43126,DE,164636,2864695,Neukölln,-0.66,-1.93,3.72,8.35,15.47,19.96,20.29,21.23,15.57,6.45,6.22,2.44
Neu-Isenburg,50.04832,8.69406,DE,35293,2864820,Neu-Isenburg,0.97,-0.08,7.03,9.77,15.49,21.56,21.02,23.9,16.05,7.82,7.12,2.34
Neugraben-Fischbek,53.46579,9.84344,DE,32054,2865260,Neugraben-Fischbek,0.12,-1.03,4.62,8.49,13.32,18.0,19.13,19.81,14.65,6.19,6.71,3.09
Neufahrn bei Freising,48.31588,11.66316,DE,18255,2865376,Neufahrn bei Freising,-0.7,-3.21,5.85,8.96,15.65,21.9,20.48,23.46,14.99,6.83,5.25,0.93
Neuenhagen,52.52985,13.68914,DE,16170,2865716,Neuenhagen,-0.76,-2.11,3.66,8.38,15.59,19.93,20.25,21.09,15.53,6.49,6.18,2.45
Neuburg an der Donau,48.73218,11.18709,DE,28370,2866070,Neuburg an der Donau,-0.33,-2.45,5.81,9.03,15.8,21.92,20.44,23.92,15.33,6.87,5.17,1.07
Neubrück,51.13434,6.63857,DE,51109,2866110,Neubrück,1.92,1.31,7.53,9.63,14.24,19.63,19.92,21.5,15.36,7.99,8.45,3.8
Neubrandenburg,53.56414,13.27532,DE,68082,2866135,Neubrandenburg,-0.71,-2.31,3.42,7.73,14.16,18.36,19.41,19.42,14.98,6.39,6.32,2.9
Neu-Anspach,50.31667,8.5,DE,15276,2866280,Neu-Anspach,0.57,-0.54,6.21,8.37,13.93,19.77,19.17,21.75,14.62,6.89,6.61,2.03
Nettetal,51.31667,6.28333,DE,42417,2866333,Nettetal,1.88,1.39,7.47,9.69,14.12,19.43,19.5,20.76,15.28,7.88,8.31,3.73
Netphen,50.91667,8.1,DE,25163,2866375,Netphen,-0.19,-2.2,5.82,8.19,13.33,18.59,18.19,20.03,13.8,6.23,6.5,1.8
Neckarsulm,49.18912,9.22527,DE,27413,2866758,Neckarsulm,0.34,-0.72,7.36,10.08,16.01,22.34,21.23,24.73,16.12,7.82,6.79,2.23
Naumburg,51.14987,11.80979,DE,29722,2866906,Naumburg,0.29,-1.58,5.44,8.53,15.49,20.46,20.49,22.2,15.33,7.19,6.93,2.34
Nauen,52.60701,12.87374,DE,16600,2866930,Nauen,-0.36,-1.95,4.2,8.56,15.37,19.74,20.22,20.85,15.6,6.6,6.5,2.71
Nagold,48.5498,8.72366,DE,22912,2867164,Nagold,-0.97,-2.03,6.61,8.82,14.63,21.24,19.89,23.47,15.07,6.83,6.21,1.18
Munster,52.98569,10.08756,DE,17746,2867542,Munster,-0.08,-1.18,4.76,8.6,13.88,18.65,19.41,20.36,14.64,6.15,6.91,2.82
Münster,51.96236,7.62571,DE,270184,2867543,Münster,1.34,0.33,6.71,9.33,14.03,19.07,19.49,21.1,14.79,7.16,7.83,3.21
Hannoversch Münden,51.41505,9.65046,DE,25073,2867613,Hannoversch Münden,0.98,-1.03,6.02,8.58,14.56,19.43,19.62,21.52,14.38,6.77,7.15,2.49
Munich,48.13743,11.57549,DE,1260391,2867714,Munich,-1.26,-4.33,4.99,7.95,14.67,20.99,19.54,22.54,14.04,6.18,4.73,0.19
Müllheim,47.8082,7.63035,DE,18097,2867770,Müllheim,0.85,-0.08,7.04,9.59,15.23,23.07,21.58,24.9,16.34,7.86,6.59,2.29
Mülheim,51.43218,6.87967,DE,170921,2867838,Mülheim,1.68,1.43,7.59,9.78,14.29,19.53,19.56,21.1,15.27,7.82,8.42,3.78
Mühlheim am Main,50.11667,8.83333,DE,28534,2867985,Mühlheim am Main,1.04,-0.08,6.97,9.79,15.53,21.63,21.11,24.0,16.12,7.85,7.06,2.36
Stuttgart Mühlhausen,48.84232,9.23028,DE,26111,2867993,Stuttgart Mühlhausen,0.59,-0.91,7.18,9.84,15.9,22.33,21.05,24.6,15.94,7.83,6.72,2.12
Mühlhausen,51.20896,10.45275,DE,38108,2867996,Mühlhausen,-0.04,-2.46,4.93,7.8,14.15,19.19,19.45,21.46,14.18,6.22,5.96,1.48
Mühldorf,48.2467,12.52155,DE,17622,2868506,Mühldorf,-1.21,-3.09,5.69,8.98,15.92,21.67,20.61,23.2,15.06,7.15,5.43,0.79
Mühlacker,48.94754,8.83675,DE,26375,2868788,Mühlacker,0.16,-0.35,7.42,9.91,15.76,22.17,20.93,24.39,16.06,8.01,7.21,2.44
Much,50.90383,7.40306,DE,15231,2868936,Much,0.3,-0.9,6.26,8.42,13.37,18.68,18.52,20.31,13.79,6.72,7.1,2.33
Mössingen,48.40567,9.05419,DE,20010,2869019,Mössingen,-1.35,-2.53,5.89,8.11,14.06,20.66,19.22,22.93,14.37,6.22,5.35,0.72
Mosbach,49.35357,9.15106,DE,25106,2869120,Mosbach,0.02,-0.61,7.27,10.01,15.9,22.19,21.09,24.48,16.02,7.77,6.79,2.12
Moosburg,48.47089,11.93811,DE,17363,2869449,Moosburg,-0.65,-2.55,5.91,9.1,15.81,21.77,20.49,23.46,15.19,7.01,5.56,1.16
Monheim am Rhein,51.09162,6.89217,DE,43038,2869791,Monheim am Rhein,1.64,1.24,7.53,9.77,14.44,19.75,19.9,21.56,15.34,7.92,8.32,3.68
Mönchengladbach,51.18539,6.44172,DE,261742,2869894,Mönchengladbach,1.85,1.37,7.47,9.61,14.11,19.45,19.6,21.01,15.29,7.9,8.35,3.75
Mölln,53.61702,10.68742,DE,18469,2869994,Mölln,-0.1,-1.7,4.24,8.15,13.48,18.18,19.38,19.84,14.86,6.22,6.73,3.03
Moers,51.45342,6.6326,DE,103487,2870221,Moers,1.86,1.2,7.31,9.62,14.12,19.35,19.5,20.89,15.12,7.84,8.3,3.69
Moabit,52.52635,13.33903,DE,81021,2870310,Moabit,-0.5,-1.87,3.92,8.51,15.58,20.04,20.39,21.29,15.7,6.62,6.41,2.61
Mittweida,50.98622,12.97537,DE,16619,2870318,Mittweida,-0.72,-3.13,4.71,7.97,15.07,19.75,19.35,20.91,14.74,6.32,6.5,1.92
Minden,52.28953,8.91455,DE,82879,2871039,Minden,1.01,-0.4,5.87,8.81,14.05,18.95,19.7,21.09,14.65,6.8,7.56,3.08
Michelstadt,49.67569,9.00373,DE,17279,2871284,Michelstadt,0.27,-1.24,6.88,9.74,15.59,21.52,20.79,23.91,15.84,7.47,6.79,2.1
Metzingen,48.53695,9.2833,DE,22112,2871486,Metzingen,-0.24,-1.85,6.47,8.91,14.99,21.54,20.09,23.74,15.07,7.03,5.95,1.43
Mettmann,51.2504,6.97536,DE,39550,2871535,Mettmann,1.11,1.04,7.25,9.31,13.82,19.07,19.0,20.58,14.81,7.38,8.01,3.38
Meschede,51.3502,8.28332,DE,32224,2871668,Meschede,0.03,-1.45,5.78,7.93,13.24,18.23,18.16,19.97,13.58,6.1,7.06,2.25
Merzig,49.44331,6.63874,DE,31118,2871675,Merzig,0.38,0.78,7.65,10.13,14.73,21.09,20.38,23.0,15.24,8.19,7.6,3.11
Merseburg,51.35478,11.98923,DE,34780,2871736,Merseburg,-0.04,-1.64,5.09,8.41,15.4,20.29,20.49,22.04,15.43,7.14,6.82,2.24
Meppen,52.69064,7.29097,DE,34198,2871845,Meppen,1.46,0.24,6.36,9.14,13.44,17.97,18.78,19.85,14.49,6.72,7.52,3.27
Menden,51.44337,7.77825,DE,52452,2871983,Menden,0.63,-0.63,6.73,8.74,13.77,18.85,18.69,20.39,14.44,6.91,7.84,3.02
Memmingen,47.98372,10.18527,DE,41135,2871992,Memmingen,-1.2,-3.16,5.31,7.91,14.32,20.91,19.14,22.17,13.97,5.97,4.95,0.02
Melle,52.20197,8.33826,DE,46514,2872079,Melle,1.16,0.02,6.2,8.89,13.88,18.82,19.48,21.08,14.54,6.88,7.66,3.1
Meissen,51.16158,13.4737,DE,28492,2872155,Meissen,-0.54,-2.47,4.75,8.39,15.65,20.3,20.13,21.19,15.36,6.73,6.61,2.38
Meiningen,50.56787,10.41521,DE,21580,2872225,Meiningen,-0.87,-3.79,5.16,8.23,14.36,19.99,19.39,21.89,14.49,6.01,5.43,1.21
Meinerzhagen,51.1074,7.64838,DE,21982,2872237,Meinerzhagen,-0.7,-2.14,5.59,7.57,12.49,17.69,17.33,19.2,13.08,5.84,6.44,1.68
Meiderich,51.46667,6.76667,DE,45297,2872347,Meiderich,1.8,1.19,7.4,9.7,14.26,19.49,19.63,21.1,15.2,7.83,8.36,3.69
Meerbusch,51.25268,6.68807,DE,54826,2872504,Meerbusch,1.76,1.41,7.55,9.79,14.29,19.55,19.63,21.12,15.32,7.9,8.36,3.79
Meerane,50.84688,12.46473,DE,17325,2872519,Meerane,-0.77,-3.29,4.84,7.94,14.88,19.62,19.25,20.94,14.52,6.16,6.38,1.73
Meckenheim,50.62388,7.02942,DE,25515,2872582,Meckenheim,1.33,0.52,7.01,8.91,13.92,19.32,19.28,20.94,14.61,7.46,7.89,3.15
Mechernich,50.59304,6.65224,DE,27537,2872611,Mechernich,0.56,-0.12,6.53,8.24,13.13,18.58,18.54,20.28,14.26,6.79,7.36,2.72
Mayen,50.32797,7.22277,DE,19414,2872649,Mayen,0.74,-0.46,6.36,8.43,13.65,19.18,19.01,20.94,14.17,6.86,6.96,2.27
Marzahn,52.54525,13.56983,DE,111508,2873074,Marzahn,-0.78,-2.15,3.61,8.32,15.5,19.9,20.23,21.11,15.5,6.42,6.13,2.38
Marsberg,51.46171,8.84949,DE,21914,2873211,Marsberg,0.12,-1.54,5.62,7.82,13.29,18.22,18.35,20.25,13.44,5.98,6.81,2.1
Marl,51.65671,7.09038,DE,91398,2873263,Marl,1.47,0.87,7.13,9.45,13.99,19.18,19.37,20.88,14.89,7.4,8.09,3.39
Marktredwitz,50.00443,12.08593,DE,18204,2873289,Marktredwitz,-1.96,-4.34,3.66,6.65,13.56,18.85,17.76,20.28,13.28,4.75,4.27,-0.09
Marktoberdorf,47.77964,10.61713,DE,18505,2873291,Marktoberdorf,-2.54,-4.87,3.66,6.69,13.32,19.65,18.03,20.74,12.78,5.25,4.26,-1.2
Markkleeberg,51.2755,12.36906,DE,24664,2873352,Markkleeberg,-0.25,-1.81,4.99,8.43,15.47,20.32,20.48,22.01,15.38,7.09,6.73,2.16
Märkisches Viertel,52.59841,13.35766,DE,40119,2873356,Märkisches Viertel,-0.65,-1.97,3.76,8.32,15.38,19.76,20.14,20.91,15.42,6.46,6.26,2.53
Marienfelde,52.41868,13.36723,DE,32270,2873589,Marienfelde,-0.52,-2.1,3.84,8.45,15.64,20.11,20.42,21.46,15.75,6.6,6.34,2.51
Mariendorf,52.4378,13.38109,DE,52734,2873606,Mariendorf,-0.52,-2.1,3.84,8.45,15.64,20.11,20.42,21.46,15.75,6.6,6.34,2.51
Marienberg,50.65051,13.16122,DE,16716,2873632,Marienberg,-3.03,-5.81,2.76,5.75,13.02,17.75,17.2,18.92,12.72,4.07,4.0,-0.63
Marburg an der Lahn,50.80904,8.77069,DE,78895,2873759,Marburg an der Lahn,0.29,-1.16,5.8,8.29,13.9,19.35,19.16,21.48,14.3,6.52,6.31,1.68
Marbach am Neckar,48.93964,9.25995,DE,15604,2873776,Marbach am Neckar,0.27,-1.43,6.69,9.42,15.56,21.92,20.65,24.17,15.54,7.48,6.33,1.73
Mannheim,49.4891,8.46694,DE,307960,2873891,Mannheim,-0.05,0.11,7.43,10.3,16.19,22.34,21.67,24.81,16.76,8.2,7.17,2.42
Mainz,49.98419,8.2791,DE,217123,2874225,Mainz,0.99,-0.07,6.91,9.9,15.55,21.47,21.01,23.66,16.2,7.86,6.93,2.27
Maintal,50.15,8.83333,DE,38313,2874230,Maintal,0.99,-0.13,6.92,9.74,15.48,21.58,21.06,23.95,16.07,7.8,7.01,2.31
Mahlsdorf,52.50935,13.61373,DE,29757,2874455,Mahlsdorf,-0.73,-2.1,3.66,8.37,15.55,19.95,20.28,21.16,15.55,6.47,6.18,2.43
Magdeburg,52.12773,11.62916,DE,235775,2874545,Magdeburg,0.24,-1.95,4.7,8.46,15.12,19.99,20.43,21.67,15.29,6.77,6.94,2.39
Lurup,53.59266,9.87697,DE,36521,2875023,Lurup,0.1,-1.14,4.51,8.44,13.29,18.0,19.21,19.88,14.76,6.23,6.66,3.1
Lünen,51.61634,7.52872,DE,91009,2875107,Lünen,1.43,0.65,7.18,9.45,14.29,19.38,19.5,21.02,14.98,7.37,8.19,3.46
Lüneburg,53.2509,10.41409,DE,71260,2875115,Lüneburg,0.1,-1.15,4.55,8.58,13.93,18.74,19.76,20.45,14.94,6.29,6.96,3.08
Ludwigshafen am Rhein,49.48121,8.44641,DE,163196,2875376,Ludwigshafen am Rhein,-0.16,0.14,7.43,10.34,16.29,22.44,21.82,24.9,16.88,8.26,7.2,2.44
Ludwigsfelde,52.30322,13.25405,DE,24164,2875379,Ludwigsfelde,-0.42,-1.84,4.18,8.63,15.78,20.21,20.48,21.51,15.9,6.84,6.55,2.65
Ludwigsburg,48.89731,9.19161,DE,87603,2875392,Ludwigsburg,0.04,-1.46,6.62,9.29,15.35,21.78,20.5,24.05,15.39,7.28,6.17,1.57
Lüdinghausen,51.7683,7.44379,DE,24094,2875417,Lüdinghausen,1.47,0.6,7.0,9.42,14.09,19.21,19.49,21.06,14.91,7.38,8.04,3.37
Lüdenscheid,51.21977,7.6273,DE,79386,2875457,Lüdenscheid,-0.67,-1.88,5.66,7.51,12.42,17.57,17.26,19.04,13.17,5.84,6.59,1.82
Luckenwalde,52.09029,13.16772,DE,21616,2875484,Luckenwalde,-0.21,-1.98,4.43,8.8,16.01,20.48,20.78,21.78,16.02,6.94,6.75,2.69
Lübeck,53.86893,10.68729,DE,212207,2875601,Lübeck,0.11,-1.57,4.27,8.11,13.24,17.96,19.36,19.74,15.06,6.53,6.74,3.24
Lubnjow,51.86217,13.95168,DE,17461,2875623,Lubnjow,-0.59,-1.68,4.4,8.91,16.22,20.51,20.67,21.54,15.96,7.04,6.53,2.62
Lübbecke,52.30699,8.61423,DE,25573,2875626,Lübbecke,1.03,-0.26,5.93,8.78,13.88,18.8,19.56,21.02,14.53,6.75,7.51,3.03
Loxstedt,53.46667,8.65,DE,16382,2875645,Loxstedt,0.85,-0.37,5.33,8.82,12.98,17.68,18.72,19.33,14.63,6.7,6.91,3.53
Losheim,49.5099,6.74549,DE,16660,2875831,Losheim,-0.32,-0.02,6.96,9.34,13.97,20.21,19.5,22.14,14.48,7.4,6.9,2.4
Loschwitz,51.05386,13.81393,DE,20696,2875846,Loschwitz,-0.81,-3.09,4.63,8.31,15.52,20.21,19.95,21.09,15.3,6.62,6.32,2.16
Lörrach,47.61497,7.66457,DE,47002,2875881,Lörrach,0.29,-1.33,7.3,9.49,15.07,22.83,21.28,24.4,15.97,7.53,6.0,1.83
Lohr am Main,49.98922,9.57223,DE,16127,2876147,Lohr am Main,0.47,-0.8,6.72,9.63,15.65,21.57,20.74,23.67,15.72,7.42,6.38,2.16
Lohne,52.66625,8.2375,DE,27259,2876185,Lohne,1.2,-0.08,6.05,9.1,13.68,18.38,19.27,20.5,14.61,6.72,7.34,3.22
Löhne,52.18848,8.6922,DE,39521,2876187,Löhne,1.09,-0.17,6.07,8.86,14.06,19.01,19.71,21.23,14.62,6.87,7.66,3.09
Lohmar,50.83868,7.21399,DE,31339,2876218,Lohmar,1.54,0.86,7.31,9.44,14.38,19.7,19.75,21.43,14.99,7.75,8.14,3.4
Löbtau,51.04358,13.69444,DE,21205,2876683,Löbtau,-0.95,-3.89,4.69,8.32,15.4,20.32,19.98,21.17,15.22,6.56,6.16,1.96
Löbau,51.09954,14.66738,DE,18374,2876755,Löbau,-1.51,-4.07,3.6,7.23,14.7,19.05,18.68,19.76,14.49,5.72,5.66,1.26
Lippstadt,51.67369,8.34482,DE,67219,2876865,Lippstadt,0.9,-0.1,6.45,8.89,14.18,19.2,19.37,21.22,14.44,6.85,7.74,2.93
Lingen,52.52143,7.31845,DE,51310,2877088,Lingen,1.43,0.19,6.37,9.21,13.56,18.3,19.09,20.33,14.51,6.82,7.62,3.19
Lindlar,51.01959,7.37758,DE,22723,2877142,Lindlar,0.24,-0.99,6.45,8.58,13.41,18.73,18.47,20.37,13.96,6.79,7.21,2.53
Lindau,47.54612,9.68431,DE,24518,2877550,Lindau,-0.24,-2.41,5.45,8.95,15.56,22.72,20.65,23.66,15.59,7.79,5.88,1.3
Limburg an der Lahn,50.3836,8.0503,DE,33820,2877648,Limburg an der Lahn,0.9,-0.36,6.81,9.37,14.76,20.25,20.14,22.15,15.28,7.2,6.84,2.15
Limbach-Oberfrohna,50.85882,12.76165,DE,23711,2877673,Limbach-Oberfrohna,-1.49,-3.92,4.02,7.13,14.17,18.88,18.47,20.09,13.81,5.47,5.71,1.06
Lilienthal,53.14193,8.90338,DE,18293,2877709,Lilienthal,0.82,-0.4,5.5,8.97,13.61,18.3,19.26,20.07,14.65,6.47,7.14,3.34
Lichterfelde,52.4333,13.30762,DE,85885,2878018,Lichterfelde,-0.51,-2.1,3.9,8.45,15.59,20.05,20.37,21.37,15.72,6.61,6.39,2.52
Lichtenrade,52.39844,13.40637,DE,52110,2878044,Lichtenrade,-0.52,-2.1,3.84,8.45,15.64,20.11,20.42,21.46,15.75,6.6,6.34,2.51
Lichtenfels,50.14567,11.05928,DE,21336,2878074,Lichtenfels,-0.7,-2.85,5.39,8.69,14.98,20.85,19.94,22.63,14.79,6.35,5.66,1.52
Lichtenberg,52.51395,13.49975,DE,41359,2878102,Lichtenberg,-0.7,-2.07,3.69,8.37,15.52,19.97,20.29,21.2,15.56,6.46,6.2,2.43
Leverkusen,51.0303,6.98432,DE,162738,2878234,Leverkusen,1.64,1.22,7.55,9.76,14.46,19.87,20.02,21.74,15.32,7.97,8.32,3.68
Leutkirch,47.82672,10.0205,DE,22362,2878270,Leutkirch,-1.57,-3.63,4.37,7.45,13.76,20.38,18.55,21.49,13.45,5.81,4.55,-0.97
Leuben,51.01122,13.82029,DE,38353,2878396,Leuben,-0.9,-3.75,4.69,8.42,15.48,20.35,20.01,21.18,15.36,6.61,6.18,2.02
Leopoldshöhe,52.01246,8.69834,DE,16219,2878673,Leopoldshöhe,0.75,-0.58,6.06,8.68,13.98,18.96,19.42,21.17,14.35,6.63,7.44,2.81
Leonberg,48.8,9.01667,DE,45711,2878695,Leonberg,-0.65,-1.67,6.4,8.69,14.7,21.09,19.69,23.26,14.86,6.9,6.09,1.48
Lennestadt,51.11721,8.06707,DE,28102,2878784,Lennestadt,-0.05,-1.85,6.19,8.33,13.49,18.54,18.22,20.03,14.03,6.46,7.18,2.34
Lengerich,52.18661,7.86043,DE,22697,2878840,Lengerich,1.19,0.19,6.45,9.11,13.85,18.74,19.26,20.86,14.62,6.92,7.67,3.12
Lemgo,52.02786,8.89901,DE,41943,2878943,Lemgo,1.03,-0.67,6.21,8.79,14.18,19.11,19.61,21.25,14.53,6.85,7.7,3.05
Leipzig,51.33962,12.37129,DE,504971,2879139,Leipzig,-0.15,-1.71,5.09,8.53,15.58,20.42,20.58,22.11,15.48,7.19,6.83,2.26
Leinfelden-Echterdingen,48.69406,9.16809,DE,36672,2879185,Leinfelden-Echterdingen,-0.51,-2.18,5.97,8.42,14.54,21.0,19.59,23.14,14.56,6.62,5.6,1.06
Leimen,49.34737,8.68733,DE,27190,2879241,Leimen,0.32,0.48,7.7,10.41,16.3,22.69,21.56,24.99,16.53,8.34,7.35,2.65
Leichlingen,51.10628,7.01873,DE,27885,2879315,Leichlingen,1.55,1.23,7.54,9.76,14.41,19.73,19.81,21.51,15.28,7.88,8.3,3.67
Lehrte,52.37193,9.97919,DE,43920,2879367,Lehrte,0.57,-0.79,5.41,8.72,14.44,19.26,19.91,21.17,14.91,6.82,7.46,2.99
Leer,53.23157,7.461,DE,33886,2879697,Leer,1.26,0.04,5.81,8.8,12.96,17.55,18.51,19.24,14.28,6.45,7.13,3.37
Lebach,49.41122,6.90988,DE,21583,2879832,Lebach,0.08,0.33,7.4,9.84,14.61,20.9,20.14,22.95,15.18,7.81,7.22,2.69
Laupheim,48.22786,9.87874,DE,19012,2880077,Laupheim,-0.93,-2.86,5.67,8.21,14.62,21.26,19.39,22.55,14.51,6.26,5.02,0.71
Lauf an der Pegnitz,49.51386,11.28247,DE,26403,2880144,Lauf an der Pegnitz,-0.3,-2.7,5.83,8.99,15.66,21.5,20.12,23.3,15.15,6.63,5.71,1.54
Lauchhammer,51.48813,13.76623,DE,18990,2880221,Lauchhammer,-0.66,-1.94,4.52,8.63,15.94,20.48,20.43,21.45,15.71,6.96,6.45,2.39
Lankwitz,52.43623,13.3459,DE,43558,2880498,Lankwitz,-0.46,-2.05,3.95,8.5,15.64,20.1,20.42,21.42,15.77,6.66,6.43,2.58
Langenhagen,52.44758,9.73741,DE,50439,2881062,Langenhagen,0.8,-0.93,5.34,8.68,14.29,19.13,19.95,21.23,14.78,6.72,7.38,2.92
Langenfeld,51.10821,6.94831,DE,59112,2881085,Langenfeld,1.59,1.19,7.48,9.72,14.39,19.7,19.85,21.51,15.29,7.87,8.27,3.63
Langen,53.60554,8.59509,DE,18863,2881276,Langen,0.98,-0.16,5.35,8.83,12.9,17.58,18.73,19.31,14.87,7.11,7.05,3.8
Langen,49.98955,8.66852,DE,35416,2881279,Langen,0.92,-0.13,6.98,9.72,15.44,21.51,20.97,23.85,16.0,7.77,7.07,2.29
Landshut,48.52961,12.16179,DE,60488,2881485,Landshut,-1.57,-3.01,5.43,8.7,15.48,21.32,20.11,22.98,14.78,6.58,5.07,0.63
Landsberg am Lech,48.04819,10.88282,DE,27017,2881509,Landsberg am Lech,-1.44,-4.56,4.76,7.52,14.2,20.53,19.03,21.86,13.72,5.9,4.65,-0.07
Landau in der Pfalz,49.19844,8.11692,DE,41612,2881646,Landau in der Pfalz,0.2,0.34,7.71,10.19,15.92,22.2,21.14,24.59,16.68,8.31,7.55,2.81
Lampertheim,49.59786,8.4725,DE,31635,2881695,Lampertheim,0.1,-0.01,7.37,10.25,16.04,22.09,21.56,24.67,16.61,8.1,7.18,2.41
Lahr,48.34042,7.86886,DE,47551,2881885,Lahr,0.53,-0.08,7.35,9.86,15.3,22.06,20.97,24.26,16.39,8.05,7.05,2.49
Lahnstein,50.3,7.61667,DE,18749,2881889,Lahnstein,1.27,-0.01,7.05,9.28,14.55,20.11,19.9,21.98,15.08,7.56,7.48,2.74
Lage,51.99223,8.79301,DE,34885,2881956,Lage,1.0,-0.5,6.27,8.87,14.21,19.17,19.65,21.36,14.58,6.86,7.68,3.06
Laatzen,52.31506,9.79739,DE,40038,2882087,Laatzen,0.53,-1.07,5.31,8.47,14.2,18.93,19.7,20.97,14.6,6.58,7.27,2.73
Bad Laasphe,50.93139,8.42502,DE,15184,2882091,Bad Laasphe,-0.03,-1.9,5.61,7.88,13.31,18.66,18.33,20.43,13.79,6.17,6.15,1.58
Kürten,51.05,7.26667,DE,20103,2882318,Kürten,0.89,0.23,7.06,9.09,13.86,19.14,18.96,20.79,14.56,7.34,7.89,3.2
Künzelsau,49.2818,9.68352,DE,15070,2882439,Künzelsau,-0.03,-1.24,7.04,9.71,15.81,22.06,21.02,24.2,15.84,7.61,6.81,2.22
Künzell,50.5442,9.71792,DE,16124,2882440,Künzell,-0.46,-3.04,5.81,8.53,14.39,20.12,19.41,22.22,14.57,6.17,5.86,1.45
Kulmbach,50.10068,11.45032,DE,27565,2882588,Kulmbach,-1.08,-3.26,5.1,8.42,14.86,20.57,19.49,22.22,14.61,5.96,5.36,1.23
Kronberg,50.18424,8.5232,DE,17730,2883754,Kronberg,0.74,-0.25,6.42,8.89,14.48,20.37,19.78,22.46,15.18,7.23,6.68,2.1
Kronach,50.23963,11.33308,DE,18248,2883784,Kronach,-1.21,-3.23,5.12,8.51,14.83,20.66,19.64,22.38,14.66,6.01,5.38,1.23
Kreuztal,50.96775,7.98848,DE,31772,2884050,Kreuztal,-0.57,-1.93,5.68,7.95,13.03,18.26,17.78,19.75,13.63,6.0,6.46,1.76
Kreuzberg,52.49973,13.40338,DE,153135,2884161,Kreuzberg,-0.56,-1.83,3.82,8.45,15.57,20.06,20.39,21.33,15.67,6.55,6.32,2.54
Kreuzau,50.74699,6.49069,DE,18400,2884245,Kreuzau,1.28,0.71,7.15,8.94,13.73,19.14,19.3,20.96,15.0,7.46,8.05,3.36
Krefeld,51.33645,6.55381,DE,237984,2884509,Krefeld,1.82,1.4,7.52,9.77,14.26,19.53,19.62,21.08,15.31,7.91,8.36,3.79
Köthen,51.75185,11.97093,DE,28710,2885237,Köthen,-0.05,-1.58,5.02,8.66,15.47,20.24,20.46,21.86,15.55,7.12,6.96,2.47
Korschenbroich,51.19139,6.51352,DE,33406,2885397,Korschenbroich,1.91,1.4,7.54,9.71,14.25,19.58,19.76,21.24,15.37,7.98,8.43,3.83
Kornwestheim,48.86158,9.18569,DE,31040,2885408,Kornwestheim,-0.01,-1.51,6.58,9.24,15.3,21.73,20.45,24.0,15.34,7.23,6.12,1.52
Korntal,48.83218,9.1214,DE,18081,2885412,Korntal,0.11,-1.23,6.75,9.18,15.26,21.68,20.31,23.83,15.34,7.38,6.43,1.82
Korbach,51.27561,8.873,DE,24481,2885536,Korbach,-0.55,-2.61,4.97,7.2,12.83,17.84,17.68,19.51,12.94,5.28,5.79,1.18
Köpenick,52.4455,13.57455,DE,67148,2885656,Köpenick,-0.54,-1.97,3.9,8.58,15.81,20.18,20.48,21.44,15.81,6.7,6.39,2.58
Berlin Köpenick,52.44254,13.58228,DE,59561,2885657,Berlin Köpenick,-0.54,-1.97,3.9,8.58,15.81,20.18,20.48,21.44,15.81,6.7,6.39,2.58
Konz,49.70045,6.57652,DE,17879,2885672,Konz,0.44,0.62,7.38,9.61,14.28,20.31,19.94,22.23,14.88,7.88,7.42,3.04
Konstanz,47.66033,9.17582,DE,81275,2885679,Konstanz,0.2,-1.08,6.33,9.29,15.87,23.04,21.26,24.36,16.15,7.91,6.02,2.25
Königs Wusterhausen,52.30141,13.633,DE,32513,2885732,Königs Wusterhausen,-0.4,-1.69,4.15,8.73,15.95,20.26,20.58,21.49,15.94,6.9,6.58,2.74
Königswinter,50.67734,7.19245,DE,41164,2885734,Königswinter,1.89,1.08,7.54,9.65,14.65,19.97,20.03,21.68,15.18,8.05,8.39,3.63
Königstein im Taunus,50.17943,8.47132,DE,15661,2885760,Königstein im Taunus,-0.0,-1.01,5.67,8.14,13.73,19.62,19.03,21.71,14.43,6.48,5.93,1.35
Königslutter am Elm,52.25116,10.81683,DE,16419,2885800,Königslutter am Elm,-0.14,-1.75,4.64,7.93,14.25,18.96,19.47,20.61,14.45,6.25,6.85,2.29
Königsbrunn,48.27506,10.89178,DE,27494,2885908,Königsbrunn,-0.61,-3.61,5.74,8.53,15.16,21.52,20.05,23.24,14.76,6.51,5.1,0.9
Köln,50.93333,6.95,DE,963395,2886242,Köln,1.61,1.02,7.4,9.51,14.33,19.73,19.91,21.59,15.12,7.83,8.23,3.53
Kolbermoor,47.84965,12.06696,DE,17941,2886446,Kolbermoor,-1.48,-4.02,5.12,8.2,15.08,20.95,19.73,22.35,14.02,6.38,5.11,-0.1
Koblenz,50.35357,7.57883,DE,107319,2886946,Koblenz,1.63,0.31,7.25,9.53,14.8,20.29,20.16,22.1,15.27,7.8,7.76,3.04
Klotzsche,51.11053,13.76862,DE,21064,2887366,Klotzsche,-1.41,-3.69,4.03,7.71,14.92,19.61,19.35,20.49,14.7,6.02,5.72,1.56
Klingenstein,48.41849,9.90812,DE,15643,2887716,Klingenstein,-0.75,-3.09,5.86,8.44,14.71,21.17,19.43,22.76,14.68,6.36,5.23,0.89
Kleve,51.78826,6.13865,DE,49072,2887835,Kleve,1.92,1.3,7.19,9.65,13.76,18.74,19.04,20.02,15.02,7.71,8.09,3.64
Kleinzschocher,51.31568,12.31979,DE,597493,2887933,Kleinzschocher,-0.24,-1.79,5.03,8.42,15.45,20.33,20.5,22.03,15.39,7.13,6.74,2.17
Kleinmachnow,52.40786,13.22514,DE,17892,2888523,Kleinmachnow,-0.4,-1.96,4.11,8.58,15.65,20.05,20.4,21.33,15.78,6.76,6.56,2.67
Kladow,52.45423,13.14445,DE,16368,2890136,Kladow,-0.47,-2.05,4.03,8.49,15.45,19.86,20.23,21.06,15.61,6.63,6.45,2.62
Kitzingen,49.73973,10.15072,DE,21387,2890158,Kitzingen,0.26,-1.38,6.56,9.56,15.8,21.86,21.01,23.64,15.46,7.22,6.28,2.03
Kirchlengern,52.2,8.63333,DE,16338,2890425,Kirchlengern,1.11,-0.13,6.1,8.87,14.04,18.98,19.69,21.26,14.6,6.87,7.65,3.09
Kirchheim unter Teck,48.64683,9.45378,DE,40206,2890473,Kirchheim unter Teck,-0.18,-2.21,6.5,9.14,15.29,21.72,20.36,24.05,15.27,7.15,5.94,1.35
Kirchhain,50.8272,8.92806,DE,16381,2890504,Kirchhain,0.35,-1.13,5.91,8.39,14.04,19.52,19.26,21.65,14.33,6.62,6.42,1.79
Kierspe,51.13403,7.59075,DE,18188,2891014,Kierspe,-0.7,-2.14,5.59,7.57,12.49,17.69,17.33,19.2,13.08,5.84,6.44,1.68
Kiel,54.32133,10.13489,DE,246601,2891122,Kiel,0.41,-1.12,4.15,7.75,12.62,17.21,18.87,19.18,14.79,6.64,6.67,3.44
Kevelaer,51.58243,6.24603,DE,28064,2891258,Kevelaer,2.01,1.39,7.34,9.74,14.03,19.2,19.34,20.44,15.14,7.86,8.26,3.71
Kerpen,50.86991,6.69691,DE,64226,2891524,Kerpen,1.6,0.96,7.32,9.21,13.96,19.43,19.67,21.29,15.09,7.72,8.24,3.55
Kempten (Allgäu),47.72674,10.31389,DE,61399,2891621,Kempten (Allgäu),-1.98,-4.0,4.21,7.25,13.63,20.18,18.41,21.29,13.2,5.57,4.51,-1.02
Kempen,51.36432,6.41858,DE,36312,2891643,Kempen,1.91,1.43,7.46,9.72,14.14,19.4,19.49,20.77,15.24,7.89,8.34,3.77
Kelkheim,50.13703,8.4502,DE,29162,2891832,Kelkheim,0.58,-0.45,6.42,9.25,14.89,20.83,20.31,23.05,15.55,7.29,6.49,1.85
Kelheim,48.91725,11.88618,DE,15723,2891834,Kelheim,-0.9,-2.82,5.67,9.06,16.01,21.79,20.48,23.82,15.55,6.94,5.45,1.23
Kehl,48.57297,7.81523,DE,34009,2891951,Kehl,0.59,0.24,7.55,10.09,15.58,22.11,21.06,24.43,16.59,8.29,7.24,2.62
Kaulsdorf,52.51732,13.58871,DE,19408,2892051,Kaulsdorf,-0.78,-2.15,3.61,8.32,15.5,19.9,20.23,21.11,15.5,6.42,6.13,2.38
Kaufbeuren,47.88238,10.62192,DE,42505,2892080,Kaufbeuren,-1.63,-4.1,4.62,7.4,13.96,20.36,18.69,21.59,13.5,5.73,4.76,-0.32
Kassel,51.31667,9.5,DE,194501,2892518,Kassel,0.56,-1.37,5.85,8.56,14.47,19.61,19.57,21.6,14.33,6.44,6.55,1.98
Karow,52.60904,13.48117,DE,18817,2892705,Karow,-0.7,-2.01,3.69,8.28,15.38,19.74,20.11,20.88,15.39,6.43,6.21,2.5
Karlstadt,49.96034,9.77239,DE,15272,2892786,Karlstadt,0.38,-0.99,6.65,9.58,15.59,21.57,20.77,23.72,15.76,7.33,6.29,2.15
Karlsruhe,49.00937,8.40444,DE,283799,2892794,Karlsruhe,0.29,-0.03,7.85,10.38,16.18,22.62,21.61,25.12,16.73,8.51,7.49,2.81
Karlshorst,52.48419,13.53185,DE,28206,2892811,Karlshorst,-0.6,-1.97,3.79,8.47,15.62,20.07,20.39,21.3,15.66,6.56,6.3,2.53
Karlsfeld,48.22697,11.47573,DE,17920,2892874,Karlsfeld,-0.92,-4.22,5.39,8.44,15.17,21.57,20.08,23.15,14.58,6.48,4.85,0.57
Karben,50.23019,8.77155,DE,21642,2892980,Karben,0.98,-0.16,6.73,9.57,15.34,21.37,20.91,23.72,15.95,7.69,6.9,2.26
Kamp-Lintfort,51.50467,6.54587,DE,39490,2893264,Kamp-Lintfort,1.91,1.23,7.32,9.63,14.11,19.35,19.5,20.84,15.14,7.87,8.32,3.71
Kamenz,51.26798,14.09374,DE,18270,2893437,Kamenz,-1.04,-2.6,4.22,8.04,15.42,19.9,19.68,20.78,15.22,6.43,6.14,1.95
Kamen,51.59231,7.6638,DE,45927,2893438,Kamen,1.37,0.49,7.08,9.33,14.29,19.37,19.46,21.03,14.91,7.3,8.18,3.4
Kaltenkirchen,53.83292,9.9581,DE,19747,2893544,Kaltenkirchen,0.2,-1.27,4.5,8.32,13.06,17.76,19.08,19.78,14.87,6.37,6.63,3.22
Kaiserslautern,49.443,7.77161,DE,98732,2894003,Kaiserslautern,-0.0,0.03,7.32,9.61,15.0,21.08,20.41,23.4,15.75,7.62,7.15,2.41
Kaarst,51.22929,6.61883,DE,42112,2894375,Kaarst,1.91,1.37,7.56,9.76,14.33,19.65,19.86,21.38,15.39,8.0,8.44,3.82
Jülich,50.92149,6.36267,DE,33911,2894553,Jülich,1.61,0.95,7.38,9.27,13.95,19.37,19.6,21.25,15.27,7.76,8.24,3.61
Jüchen,51.1,6.5,DE,22562,2894637,Jüchen,1.82,1.21,7.42,9.49,14.08,19.47,19.75,21.29,15.25,7.89,8.33,3.7
Johannisthal,52.44653,13.5066,DE,19960,2894755,Johannisthal,-0.52,-2.04,3.86,8.5,15.72,20.16,20.46,21.47,15.78,6.64,6.37,2.55
Jena,50.92878,11.5899,DE,104712,2895044,Jena,0.4,-1.6,5.38,8.39,15.31,20.32,20.35,22.21,15.11,7.04,6.75,2.18
Itzehoe,53.92099,9.51529,DE,33047,2895569,Itzehoe,0.32,-1.06,4.65,8.44,12.87,17.49,18.82,19.4,14.65,6.27,6.61,3.32
Isernhagen Farster Bauerschaft,52.47093,9.84179,DE,22601,2895664,Isernhagen Farster Bauerschaft,0.43,-0.99,5.14,8.58,14.13,18.96,19.72,20.93,14.63,6.54,7.22,2.84
Iserlohn,51.37547,7.70281,DE,97910,2895669,Iserlohn,0.08,-0.87,6.22,8.26,13.22,18.3,18.15,19.81,13.92,6.37,7.27,2.47
Ingolstadt,48.76508,11.42372,DE,120658,2895992,Ingolstadt,-0.85,-2.69,5.57,8.87,15.75,21.71,20.35,23.87,15.3,6.8,5.14,1.01
Ingelheim am Rhein,49.97078,8.05883,DE,24998,2896020,Ingelheim am Rhein,1.34,0.27,7.25,9.99,15.57,21.45,21.0,23.61,16.28,8.04,7.32,2.67
Ilmenau,50.68322,10.91858,DE,27055,2896514,Ilmenau,-1.88,-4.52,3.8,6.59,13.09,18.25,17.93,20.09,13.01,5.02,4.91,0.36
Illingen,49.37362,7.04758,DE,18488,2896538,Illingen,-0.31,-0.13,6.98,9.32,14.17,20.46,19.64,22.51,14.81,7.36,6.82,2.29
Illertissen,48.22336,10.10347,DE,16522,2896546,Illertissen,-0.83,-2.85,5.59,8.17,14.71,21.38,19.58,22.7,14.57,6.34,5.04,0.79
Idstein,50.21773,8.26679,DE,22810,2896736,Idstein,0.76,-0.32,6.54,8.91,14.38,20.2,19.58,22.13,15.09,7.17,6.69,2.15
Idar-Oberstein,49.71443,7.30776,DE,31610,2896753,Idar-Oberstein,-0.02,-0.18,7.13,9.17,14.37,20.47,19.82,22.65,15.16,7.31,7.05,2.41
Ibbenbüren,52.27964,7.71457,DE,50577,2896817,Ibbenbüren,1.18,0.16,6.37,9.12,13.66,18.55,19.17,20.7,14.55,6.84,7.57,3.08
Husum,54.4858,9.05239,DE,20841,2897132,Husum,0.51,-0.91,4.25,7.9,12.05,16.68,18.3,18.67,14.53,6.57,6.63,3.72
Hürth,50.87079,6.86761,DE,54678,2897216,Hürth,1.35,0.74,7.12,9.14,13.94,19.37,19.58,21.25,14.86,7.53,7.98,3.28
Hünfeld,50.67966,9.76727,DE,16323,2897436,Hünfeld,-0.04,-2.6,5.86,8.41,14.42,19.9,19.35,21.89,14.43,6.36,6.28,1.79
Hummelsbüttel,53.64773,10.04149,DE,17365,2897674,Hummelsbüttel,0.09,-1.19,4.45,8.41,13.35,18.09,19.34,19.97,14.79,6.2,6.67,3.08
Humboldtkolonie,50.93182,6.99469,DE,15108,2897732,Humboldtkolonie,1.61,1.02,7.4,9.51,14.33,19.73,19.91,21.59,15.12,7.83,8.23,3.53
Hude,53.10766,8.46322,DE,15567,2898079,Hude,0.94,-0.26,5.55,8.84,13.32,18.0,18.98,19.85,14.53,6.56,7.16,3.39
Hückeswagen,51.14979,7.34471,DE,16369,2898098,Hückeswagen,0.34,-0.32,6.51,8.54,13.31,18.59,18.41,20.24,14.01,6.8,7.34,2.65
Hückelhoven,51.0555,6.22658,DE,39828,2898111,Hückelhoven,1.93,1.49,7.62,9.66,14.11,19.51,19.67,21.06,15.52,8.0,8.42,3.84
Hoyerswerda,51.43787,14.23549,DE,43681,2898304,Hoyerswerda,-0.87,-2.19,4.51,8.59,15.91,20.32,20.16,21.22,15.73,6.89,6.42,2.31
Höxter,51.77501,9.38155,DE,32713,2898321,Höxter,0.94,-1.11,6.16,8.81,14.41,19.24,19.67,21.4,14.66,6.85,7.49,2.9
Hövelhof,51.81667,8.65,DE,15962,2898364,Hövelhof,0.74,-0.45,6.2,8.8,14.21,19.18,19.49,21.36,14.25,6.64,7.46,2.73
Hörstel,52.29763,7.58382,DE,19894,2898603,Hörstel,1.34,0.35,6.56,9.31,13.79,18.67,19.28,20.8,14.71,7.0,7.73,3.23
Horn,53.55406,10.08989,DE,37903,2898917,Horn,0.19,-1.14,4.53,8.44,13.41,18.13,19.38,20.01,14.88,6.29,6.79,3.19
Horb am Neckar,48.44423,8.6913,DE,25092,2899101,Horb am Neckar,-1.02,-2.08,6.56,8.77,14.58,21.19,19.84,23.41,15.02,6.78,6.16,1.13
Homburg,49.32637,7.33867,DE,44607,2899449,Homburg,-0.08,0.13,7.36,9.65,14.67,21.03,20.12,23.26,15.41,7.7,7.2,2.58
Holzwickede,51.5,7.63333,DE,17821,2899538,Holzwickede,0.82,0.06,6.76,8.97,13.87,18.95,18.95,20.53,14.53,6.91,7.79,3.0
Holzminden,51.82798,9.4455,DE,20998,2899601,Holzminden,0.99,-1.07,6.21,8.86,14.46,19.29,19.72,21.45,14.7,6.9,7.54,2.95
Holzkirchen,47.87663,11.70181,DE,16770,2899676,Holzkirchen,-2.09,-4.99,4.34,7.18,13.85,19.91,18.45,21.37,13.0,5.27,4.56,-0.77
Hohenstein-Ernstthal,50.80064,12.71287,DE,16542,2901420,Hohenstein-Ernstthal,-1.32,-3.96,4.26,7.3,14.28,18.99,18.54,20.26,13.91,5.53,5.83,1.15
Hohen Neuendorf,52.67631,13.27775,DE,21893,2901588,Hohen Neuendorf,-0.63,-1.86,3.88,8.33,15.3,19.65,20.02,20.71,15.37,6.49,6.27,2.58
Hofheim am Taunus,50.09019,8.4493,DE,37750,2902533,Hofheim am Taunus,1.0,0.03,6.87,9.67,15.27,21.21,20.63,23.36,15.92,7.68,6.91,2.31
Hofgeismar,51.49607,9.385,DE,16444,2902559,Hofgeismar,0.74,-1.34,5.84,8.35,14.2,19.1,19.28,21.11,14.05,6.46,6.94,2.26
Hof,50.31297,11.91261,DE,49239,2902768,Hof,-1.75,-4.54,4.0,7.03,13.71,18.9,18.2,20.45,13.45,5.07,4.95,0.39
Hockenheim,49.32334,8.55194,DE,20614,2902852,Hockenheim,0.17,0.45,7.64,10.36,16.27,22.64,21.54,24.95,16.6,8.3,7.3,2.57
Hochheim am Main,50.01436,8.35218,DE,17027,2903175,Hochheim am Main,0.85,-0.21,6.81,9.8,15.47,21.42,20.95,23.65,16.12,7.74,6.81,2.13
Hochfeld,51.41943,6.75462,DE,16292,2903237,Hochfeld,1.77,1.43,7.57,9.8,14.31,19.54,19.61,21.12,15.3,7.88,8.41,3.79
Hille,52.33333,8.75,DE,16567,2904725,Hille,1.05,-0.28,5.94,8.85,14.03,18.95,19.68,21.09,14.66,6.83,7.58,3.11
Hildesheim,52.15077,9.95112,DE,103052,2904789,Hildesheim,0.37,-1.34,5.21,8.28,14.22,18.87,19.6,20.86,14.43,6.48,7.21,2.52
Hilden,51.16818,6.93093,DE,56565,2904795,Hilden,1.59,1.29,7.56,9.75,14.36,19.63,19.7,21.32,15.29,7.85,8.34,3.69
Hilchenbach,50.99687,8.11062,DE,16467,2904808,Hilchenbach,-0.63,-2.57,5.45,7.82,12.93,18.18,17.76,19.59,13.35,5.85,6.15,1.42
Hiddenhausen,52.16667,8.61667,DE,20771,2904886,Hiddenhausen,1.01,-0.23,6.0,8.77,13.94,18.88,19.59,21.16,14.5,6.77,7.55,2.99
Heusweiler,49.33632,6.93036,DE,20006,2904985,Heusweiler,0.14,0.5,7.45,9.93,14.7,21.14,20.29,23.2,15.27,7.91,7.3,2.78
Heusenstamm,50.05553,8.80076,DE,19012,2904992,Heusenstamm,0.89,-0.23,6.82,9.64,15.38,21.48,20.96,23.85,15.97,7.7,6.91,2.21
Hettstedt,51.6503,11.51146,DE,15949,2905206,Hettstedt,-0.32,-2.13,4.65,7.79,14.46,19.26,19.65,21.13,14.66,6.36,6.48,1.93
Hessisch Oldendorf,52.17269,9.24913,DE,20129,2905290,Hessisch Oldendorf,1.03,-0.57,6.01,8.79,14.21,19.08,19.71,21.21,14.78,6.93,7.67,3.2
Herzogenrath,50.86874,6.09317,DE,47381,2905455,Herzogenrath,1.61,1.13,7.4,9.31,13.82,19.25,19.42,21.07,15.36,7.8,8.2,3.66
Herzogenaurach,49.56798,10.88565,DE,23319,2905457,Herzogenaurach,-0.38,-2.27,5.72,8.99,15.51,21.44,20.31,23.09,14.76,6.58,5.62,1.38
Herten,51.59638,7.14387,DE,65306,2905560,Herten,1.45,0.78,7.12,9.44,14.06,19.26,19.44,20.95,14.88,7.41,8.1,3.37
Herrenberg,48.59523,8.86648,DE,31338,2905826,Herrenberg,-1.12,-2.02,6.21,8.35,14.37,20.87,19.42,23.06,14.67,6.61,5.89,1.18
Herne,51.5388,7.22572,DE,172108,2905891,Herne,1.36,0.8,7.23,9.51,14.19,19.34,19.45,21.01,14.98,7.44,8.14,3.4
Hermsdorf,52.61421,13.30587,DE,16726,2905904,Hermsdorf,-0.53,-1.88,3.89,8.42,15.43,19.82,20.21,20.97,15.5,6.55,6.37,2.62
Herford,52.11457,8.67343,DE,64879,2906121,Herford,1.08,-0.13,6.21,8.9,14.16,19.11,19.72,21.34,14.62,6.9,7.72,3.09
Herdecke,51.39999,7.43584,DE,25618,2906152,Herdecke,1.12,0.64,7.33,9.45,14.21,19.3,19.21,20.81,15.0,7.42,8.22,3.47
Herborn,50.68135,8.30369,DE,20473,2906199,Herborn,0.54,-1.31,6.27,8.7,14.11,19.52,19.22,21.3,14.55,6.79,6.61,1.97
Heppenheim an der Bergstrasse,49.64145,8.63206,DE,25442,2906268,Heppenheim an der Bergstrasse,0.24,-0.05,7.45,10.27,16.03,22.1,21.46,24.64,16.54,8.16,7.35,2.55
Hennigsdorf,52.63598,13.20419,DE,26122,2906331,Hennigsdorf,-0.44,-1.82,4.02,8.5,15.46,19.86,20.24,21.0,15.58,6.63,6.45,2.71
Hennef,50.77555,7.28308,DE,45409,2906376,Hennef,1.56,0.81,7.31,9.43,14.42,19.74,19.72,21.42,14.92,7.79,8.17,3.4
Hemmingen,52.31425,9.72359,DE,18470,2906530,Hemmingen,0.81,-0.88,5.47,8.6,14.27,19.02,19.79,21.1,14.69,6.71,7.43,2.9
Hemer,51.38707,7.77019,DE,37502,2906595,Hemer,0.29,-0.98,6.37,8.39,13.42,18.51,18.35,20.04,14.09,6.56,7.49,2.67
Helmstedt,52.2279,11.00985,DE,25515,2906676,Helmstedt,-0.08,-1.93,4.55,7.78,14.24,19.02,19.63,20.74,14.42,6.25,6.78,2.23
Hellersdorf,52.53319,13.6088,DE,84103,2906809,Hellersdorf,-0.78,-2.15,3.61,8.32,15.5,19.9,20.23,21.11,15.5,6.42,6.13,2.38
Heinsberg,51.06358,6.0998,DE,41505,2907201,Heinsberg,2.11,1.71,7.84,9.91,14.31,19.72,19.87,21.22,15.77,8.19,8.56,4.01
Heilbad Heiligenstadt,51.37819,10.13744,DE,17230,2907545,Heilbad Heiligenstadt,0.03,-2.24,5.02,7.69,13.88,18.72,18.85,20.77,13.68,6.04,6.29,1.59
Heiligensee,52.61449,13.24501,DE,18099,2907551,Heiligensee,-0.54,-1.92,3.92,8.4,15.36,19.76,20.14,20.9,15.48,6.53,6.35,2.61
Heiligenhaus,51.32662,6.97106,DE,27700,2907585,Heiligenhaus,0.76,0.7,6.89,8.97,13.47,18.72,18.64,20.23,14.46,7.03,7.67,3.03
Heilbronn,49.13995,9.22054,DE,120733,2907669,Heilbronn,0.67,-0.61,7.45,10.15,16.11,22.44,21.27,24.76,16.19,7.96,6.89,2.33
Heidenheim an der Brenz,48.67798,10.15162,DE,50067,2907851,Heidenheim an der Brenz,-0.81,-3.21,5.65,8.33,14.78,21.0,19.48,23.12,14.74,6.38,5.24,1.02
Heidenau,50.97221,13.86741,DE,16756,2907887,Heidenau,-0.87,-3.62,4.67,8.41,15.5,20.32,19.97,21.14,15.41,6.63,6.2,2.03
Heidelberg,49.40768,8.69079,DE,143345,2907911,Heidelberg,0.35,0.29,7.63,10.4,16.27,22.55,21.55,24.83,16.57,8.35,7.42,2.63
Heide,54.19579,9.0988,DE,20599,2908032,Heide,0.44,-0.93,4.45,8.13,12.26,16.84,18.34,18.88,14.54,6.5,6.58,3.6
Hechingen,48.35149,8.96317,DE,19400,2908495,Hechingen,-1.68,-2.94,5.67,7.82,13.77,20.37,18.96,22.67,14.16,5.98,5.14,0.55
Hausbruch,53.47424,9.88289,DE,16927,2908942,Hausbruch,0.3,-0.87,4.78,8.71,13.61,18.32,19.46,20.16,14.93,6.41,6.91,3.28
Hattingen,51.39894,7.18557,DE,56866,2909230,Hattingen,1.25,1.01,7.38,9.52,14.13,19.29,19.25,20.84,15.0,7.48,8.22,3.5
Hattersheim,50.06906,8.48632,DE,25035,2909240,Hattersheim,1.18,0.15,7.02,9.85,15.49,21.43,20.91,23.65,16.15,7.89,7.09,2.45
Haßloch,49.36278,8.25806,DE,20779,2909313,Haßloch,0.34,0.39,7.67,10.49,16.36,22.55,21.72,24.95,16.9,8.48,7.5,2.7
Haselhorst,52.54409,13.23743,DE,16471,2909794,Haselhorst,-0.45,-1.95,4.01,8.54,15.54,19.95,20.32,21.16,15.66,6.66,6.48,2.66
Harvestehude,53.58333,9.98333,DE,17666,2909972,Harvestehude,0.14,-1.15,4.5,8.46,13.4,18.14,19.4,20.03,14.84,6.25,6.72,3.13
Harsewinkel,51.96224,8.22766,DE,24207,2910278,Harsewinkel,1.17,0.04,6.41,9.14,14.24,19.24,19.73,21.48,14.59,6.98,7.71,3.05
Haren,52.79262,7.24142,DE,22545,2910514,Haren,1.48,0.2,6.29,9.06,13.32,17.79,18.67,19.63,14.45,6.66,7.46,3.3
Harburg,53.46057,9.98388,DE,169221,2910685,Harburg,0.22,-0.98,4.68,8.65,13.63,18.37,19.53,20.22,14.95,6.38,6.86,3.21
Hannover,52.37052,9.73322,DE,515140,2910831,Hannover,0.8,-0.93,5.34,8.68,14.29,19.13,19.95,21.23,14.78,6.72,7.38,2.92
Hanau am Main,50.13423,8.91418,DE,88648,2911007,Hanau am Main,0.91,-0.22,6.89,9.74,15.49,21.56,21.04,23.96,16.03,7.74,6.97,2.3
Hamminkeln,51.73262,6.59031,DE,27433,2911051,Hamminkeln,1.87,1.3,7.37,9.76,14.1,19.21,19.39,20.68,15.16,7.77,8.28,3.72
Hamm,53.55487,10.05742,DE,37989,2911234,Hamm,0.24,-1.09,4.58,8.49,13.46,18.18,19.43,20.06,14.93,6.35,6.84,3.24
Hamm,51.68033,7.82089,DE,178967,2911240,Hamm,1.29,0.28,6.8,9.14,14.15,19.22,19.43,21.1,14.73,7.18,7.96,3.24
Hameln,52.10397,9.35623,DE,58666,2911271,Hameln,1.04,-0.87,6.03,8.82,14.4,19.17,19.8,21.31,14.77,6.92,7.64,3.07
Wandsbek,53.58334,10.08305,DE,411422,2911285,Wandsbek,0.14,-1.19,4.48,8.39,13.36,18.08,19.33,19.96,14.83,6.25,6.74,3.14
Marienthal,53.56667,10.08333,DE,287101,2911287,Marienthal,0.19,-1.14,4.53,8.44,13.41,18.13,19.38,20.01,14.88,6.29,6.79,3.19
Hamburg-Mitte,53.55,10.01667,DE,301231,2911288,Hamburg-Mitte,0.14,-1.15,4.5,8.46,13.4,18.14,19.4,20.03,14.84,6.25,6.72,3.13
Eimsbüttel,53.57416,9.95679,DE,269118,2911293,Eimsbüttel,0.09,-1.19,4.45,8.41,13.35,18.09,19.34,19.97,14.79,6.2,6.67,3.08
Altona,53.55,9.93333,DE,250192,2911296,Altona,0.05,-1.19,4.46,8.39,13.24,17.95,19.16,19.82,14.71,6.17,6.61,3.05
Hamburg,53.55073,9.99302,DE,1845229,2911298,Hamburg,0.19,-1.09,4.55,8.51,13.45,18.19,19.44,20.07,14.89,6.3,6.77,3.18
Halver,51.18612,7.49817,DE,17650,2911384,Halver,-0.69,-1.95,5.57,7.47,12.34,17.51,17.23,19.01,13.03,5.78,6.51,1.75
Haltern am See,51.74297,7.18163,DE,37845,2911395,Haltern am See,1.53,0.87,7.2,9.54,14.14,19.31,19.51,21.04,14.99,7.47,8.17,3.46
Halstenbek,53.63333,9.85,DE,16212,2911408,Halstenbek,0.15,-1.09,4.56,8.49,13.34,18.05,19.26,19.92,14.81,6.27,6.71,3.15
Halle,52.06007,8.36083,DE,21448,2911520,Halle,0.81,-0.3,5.97,8.66,13.77,18.73,19.32,21.0,14.28,6.62,7.4,2.76
Halle (Saale),51.48158,11.97947,DE,237865,2911522,Halle (Saale),-0.07,-1.72,5.02,8.37,15.34,20.22,20.43,22.01,15.4,7.07,6.8,2.24
Haldensleben I,52.28906,11.40982,DE,20294,2911584,Haldensleben I,0.22,-1.54,5.0,8.67,15.19,19.96,20.36,21.49,15.45,6.95,7.24,2.78
Halberstadt,51.89562,11.05622,DE,39729,2911665,Halberstadt,-0.23,-2.57,4.64,7.89,14.29,19.05,19.62,20.95,14.56,6.25,6.48,1.92
Hakenfelde,52.55877,13.20831,DE,31327,2911710,Hakenfelde,-0.44,-1.82,4.02,8.5,15.46,19.86,20.24,21.0,15.58,6.63,6.45,2.71
Haiger,50.74162,8.20778,DE,20218,2911964,Haiger,0.27,-1.66,6.04,8.42,13.77,19.21,18.87,20.93,14.26,6.5,6.37,1.77
Hagen,51.36081,7.47168,DE,198972,2912621,Hagen,0.97,0.37,7.2,9.31,14.13,19.2,19.07,20.67,14.88,7.29,8.13,3.36
Haar,48.10881,11.72653,DE,17560,2913192,Haar,-1.38,-4.17,4.93,7.85,14.57,20.82,19.36,22.29,13.89,6.07,4.67,0.09
Haan,51.19382,7.0133,DE,29431,2913195,Haan,0.95,0.79,7.04,9.16,13.74,19.02,19.0,20.66,14.68,7.26,7.8,3.16
Gütersloh,51.90693,8.37853,DE,96180,2913366,Gütersloh,1.08,-0.02,6.32,9.01,14.33,19.38,19.82,21.64,14.44,6.91,7.68,2.97
Güstrow,53.7972,12.17337,DE,31217,2913433,Güstrow,-0.41,-2.15,3.64,7.85,13.81,18.13,19.32,19.31,14.76,6.26,6.59,3.0
Gunzenhausen,49.11663,10.75971,DE,16477,2913537,Gunzenhausen,-1.15,-3.0,5.57,8.48,15.13,21.13,19.78,23.31,14.84,6.35,5.19,1.03
Günzburg,48.45599,10.27695,DE,19737,2913555,Günzburg,-0.63,-3.03,5.75,8.61,15.09,21.52,19.88,23.23,14.93,6.43,4.98,0.82
Gummersbach,51.02608,7.56473,DE,53131,2913761,Gummersbach,0.01,-1.13,6.4,8.48,13.34,18.62,18.19,20.14,13.93,6.63,7.09,2.43
Guben,51.94987,14.71447,DE,21608,2913922,Guben,-0.8,-2.09,4.01,8.77,16.28,20.48,20.49,21.22,15.83,6.89,6.49,2.52
Großzschocher,51.30147,12.32322,DE,597493,2914796,Großzschocher,-0.31,-1.87,4.98,8.36,15.4,20.28,20.45,21.98,15.34,7.08,6.69,2.1
Groß-Umstadt,49.86899,8.9321,DE,21758,2914929,Groß-Umstadt,0.78,-0.31,6.99,9.77,15.6,21.57,20.98,23.96,15.95,7.72,7.12,2.31
Großostheim,49.91985,9.07596,DE,16346,2915196,Großostheim,0.71,-0.77,7.07,9.97,15.82,21.73,21.09,24.15,16.11,7.74,7.06,2.37
Groß-Gerau,49.92139,8.48255,DE,23641,2915613,Groß-Gerau,1.17,0.16,7.21,10.09,15.84,21.92,21.41,24.23,16.49,8.13,7.24,2.53
Großenhain,51.28951,13.5335,DE,16573,2916630,Großenhain,-0.52,-2.16,4.7,8.48,15.76,20.35,20.25,21.22,15.43,6.78,6.54,2.33
Gronau,52.21099,7.02238,DE,46161,2917138,Gronau,1.52,0.66,6.84,9.46,13.71,18.59,19.09,20.39,14.8,7.14,7.85,3.32
Gröbenzell,48.2,11.36667,DE,19110,2917221,Gröbenzell,-0.78,-4.01,5.44,8.4,15.09,21.52,20.02,23.06,14.57,6.53,4.98,0.68
Grimma,51.23367,12.71959,DE,17991,2917325,Grimma,-0.27,-2.14,5.02,8.44,15.52,20.23,20.17,21.6,15.28,6.94,6.77,2.21
Griesheim,49.86085,8.5725,DE,25287,2917412,Griesheim,1.16,0.16,7.23,10.02,15.79,21.9,21.37,24.23,16.38,8.08,7.31,2.55
Grevenbroich,51.09102,6.5827,DE,64779,2917540,Grevenbroich,1.92,1.31,7.53,9.63,14.24,19.63,19.92,21.5,15.36,7.99,8.45,3.8
Greven,52.09364,7.59396,DE,35080,2917544,Greven,1.39,0.43,6.84,9.49,14.08,19.05,19.49,21.11,14.94,7.19,7.87,3.3
Greiz,50.65778,12.19918,DE,24147,2917737,Greiz,-0.43,-2.96,5.25,8.18,15.04,19.93,19.5,21.32,14.77,6.43,6.56,1.93
Greifswald,54.09311,13.38786,DE,52731,2917788,Greifswald,-0.07,-2.25,3.28,7.12,13.7,17.64,19.07,18.88,15.06,6.79,6.57,3.33
Grefrath,51.3363,6.34072,DE,16016,2917816,Grefrath,1.98,1.49,7.57,9.79,14.22,19.53,19.6,20.86,15.38,7.98,8.41,3.83
Göttingen,51.53443,9.93228,DE,122149,2918632,Göttingen,0.51,-1.9,5.4,8.22,14.31,19.07,19.42,21.16,14.12,6.38,6.79,2.01
Gotha,50.94823,10.70193,DE,46615,2918752,Gotha,-0.63,-3.13,4.69,7.52,14.01,19.16,19.04,21.23,13.92,5.99,5.7,1.28
Goslar,51.90425,10.42766,DE,43560,2918840,Goslar,-0.69,-3.47,4.2,7.3,13.41,18.08,18.62,19.93,13.45,5.51,6.04,1.27
Görlitz,51.15518,14.98853,DE,57751,2918987,Görlitz,-1.38,-3.79,3.63,7.51,15.08,19.41,19.01,20.0,14.72,5.94,5.9,1.54
Gorbitz,51.0455,13.66108,DE,21599,2919039,Gorbitz,-1.4,-4.34,4.24,7.87,14.95,19.87,19.53,20.72,14.78,6.11,5.71,1.51
Göppingen,48.70354,9.65209,DE,58040,2919054,Göppingen,-0.15,-2.45,6.54,9.22,15.33,21.64,20.26,24.0,15.38,7.13,6.18,1.53
Gohlis,51.36667,12.35,DE,45924,2919502,Gohlis,-0.17,-1.74,4.87,8.38,15.43,20.23,20.44,21.96,15.39,7.05,6.76,2.2
Goch,51.67873,6.15895,DE,33706,2919625,Goch,2.03,1.46,7.36,9.78,13.97,19.05,19.26,20.31,15.15,7.84,8.26,3.76
Glinde,53.5441,10.20048,DE,16210,2919880,Glinde,0.09,-1.23,4.47,8.42,13.48,18.21,19.36,20.03,14.83,6.23,6.76,3.08
Glauchau,50.81987,12.54493,DE,26473,2920020,Glauchau,-0.82,-3.34,4.79,7.89,14.83,19.57,19.2,20.89,14.47,6.11,6.33,1.68
Gladbeck,51.57077,6.98593,DE,76940,2920236,Gladbeck,1.48,0.87,7.14,9.45,14.01,19.22,19.39,20.87,14.89,7.45,8.1,3.4
Ginsheim-Gustavsburg,49.9711,8.34532,DE,16043,2920329,Ginsheim-Gustavsburg,1.24,0.18,7.16,10.15,15.8,21.72,21.26,23.91,16.45,8.11,7.18,2.52
Gilching,48.10755,11.2936,DE,16859,2920433,Gilching,-1.01,-4.54,5.09,7.93,14.63,21.03,19.55,22.5,14.14,6.26,4.87,0.31
Gifhorn,52.47774,10.5511,DE,43000,2920478,Gifhorn,0.15,-1.4,5.0,8.66,14.7,19.49,20.03,21.11,14.95,6.64,7.24,2.76
Gießen,50.58727,8.67554,DE,74411,2920512,Gießen,0.82,-0.4,6.48,8.98,14.55,20.16,19.9,22.35,14.99,7.21,6.85,2.16
Giengen an der Brenz,48.62219,10.24312,DE,20201,2920620,Giengen an der Brenz,-0.54,-3.02,5.88,8.61,15.03,21.37,19.81,23.31,14.97,6.52,5.24,1.04
Gevelsberg,51.31971,7.3392,DE,32664,2920757,Gevelsberg,0.73,0.41,6.9,9.04,13.73,18.84,18.78,20.38,14.55,7.0,7.76,3.03
Gesundbrunnen,52.55035,13.39139,DE,93862,2920789,Gesundbrunnen,-0.65,-1.97,3.76,8.32,15.38,19.76,20.14,20.91,15.42,6.46,6.26,2.53
Geseke,51.64091,8.5109,DE,20602,2920834,Geseke,0.98,-0.14,6.6,8.89,14.28,19.24,19.35,21.23,14.48,6.95,7.84,3.05
Gescher,51.954,7.00481,DE,17115,2920842,Gescher,1.53,0.8,7.04,9.56,13.88,18.88,19.23,20.63,14.91,7.3,7.94,3.37
Gersthofen,48.42432,10.87273,DE,20254,2920891,Gersthofen,-0.41,-3.01,5.7,8.61,15.32,21.59,20.13,23.32,14.93,6.65,5.16,0.98
Germersheim,49.2144,8.36687,DE,20972,2921034,Germersheim,0.15,0.29,7.59,10.17,16.07,22.45,21.35,24.8,16.57,8.29,7.33,2.63
Germering,48.13392,11.3765,DE,40511,2921039,Germering,-1.15,-4.4,5.12,8.03,14.72,21.1,19.6,22.59,14.17,6.32,4.92,0.27
Gerlingen,48.79954,9.06316,DE,19050,2921061,Gerlingen,-0.04,-1.38,6.6,9.03,15.11,21.53,20.16,23.68,15.19,7.23,6.28,1.68
Geretsried,47.85775,11.48054,DE,23364,2921139,Geretsried,-1.34,-4.82,4.74,7.67,14.38,20.53,19.03,21.85,13.54,5.85,4.99,-0.18
Gera,50.88029,12.08187,DE,104659,2921232,Gera,-0.27,-2.15,5.29,8.24,15.17,20.14,19.8,21.59,15.01,6.75,6.71,2.08
Georgsmarienhütte,52.20296,8.0448,DE,32580,2921242,Georgsmarienhütte,0.96,-0.03,6.21,8.86,13.64,18.54,19.07,20.67,14.4,6.7,7.46,2.91
Gelsenkirchen,51.50508,7.09654,DE,270028,2921466,Gelsenkirchen,1.54,1.0,7.37,9.65,14.29,19.47,19.6,21.15,15.12,7.61,8.28,3.55
Gelnhausen,50.20164,9.18742,DE,21881,2921473,Gelnhausen,0.77,-0.58,6.8,9.64,15.44,21.46,20.9,23.88,15.86,7.62,6.92,2.32
Geldern,51.51908,6.32363,DE,34013,2921528,Geldern,2.01,1.43,7.41,9.75,14.11,19.34,19.46,20.65,15.21,7.91,8.34,3.77
Geislingen an der Steige,48.62423,9.82736,DE,27962,2921653,Geislingen an der Steige,-0.63,-3.04,6.11,8.78,14.97,21.26,19.83,23.64,14.97,6.74,5.6,1.02
Geilenkirchen,50.96745,6.11763,DE,28334,2921837,Geilenkirchen,1.8,1.4,7.53,9.5,13.96,19.35,19.54,21.02,15.48,7.92,8.31,3.75
Geesthacht,53.43575,10.3779,DE,29487,2922102,Geesthacht,0.04,-1.32,4.47,8.46,13.71,18.47,19.55,20.23,14.91,6.29,6.86,3.07
Gauting,48.06919,11.37703,DE,19216,2922230,Gauting,-1.4,-4.65,4.87,7.78,14.46,20.85,19.36,22.34,13.92,6.07,4.67,0.03
Garmisch-Partenkirchen,47.49209,11.09576,DE,26022,2922530,Garmisch-Partenkirchen,-4.06,-5.01,3.07,6.27,13.29,19.27,17.92,20.21,12.64,5.0,4.22,-2.01
Garching,48.24896,11.65101,DE,15303,2922582,Garching,-0.92,-3.61,5.65,8.7,15.4,21.74,20.24,23.21,14.7,6.6,5.03,0.56
Garbsen,52.41371,9.5899,DE,63355,2922586,Garbsen,0.93,-0.77,5.48,8.79,14.33,19.14,19.96,21.25,14.85,6.81,7.48,3.05
Ganderkesee,53.03333,8.53333,DE,31141,2922731,Ganderkesee,0.87,-0.25,5.59,8.82,13.35,18.06,19.04,20.08,14.57,6.57,7.16,3.32
Gaggenau,48.8,8.33333,DE,29496,2923362,Gaggenau,-0.25,-1.08,7.45,10.01,15.64,22.09,21.0,24.59,16.34,8.13,7.12,2.47
Füssen,47.57143,10.70171,DE,15608,2923507,Füssen,-3.54,-5.65,2.74,6.07,12.7,19.06,17.43,20.13,12.1,4.53,3.78,-1.91
Fürth,49.47593,10.98856,DE,112025,2923544,Fürth,-0.85,-2.67,5.6,8.89,15.47,21.38,20.21,23.11,14.79,6.51,5.49,1.29
Fürstenwalde,52.36067,14.06185,DE,33539,2923588,Fürstenwalde,-0.63,-1.92,3.78,8.45,15.85,20.12,20.34,21.18,15.67,6.66,6.36,2.6
Fürstenfeldbruck,48.17904,11.2547,DE,33533,2923625,Fürstenfeldbruck,-0.67,-4.09,5.53,8.41,15.09,21.54,20.02,23.07,14.61,6.53,5.08,0.78
Fulda,50.55162,9.67518,DE,63760,2923822,Fulda,-0.3,-2.83,5.79,8.56,14.45,20.0,19.45,22.06,14.4,6.23,6.0,1.49
Fröndenberg,51.47563,7.76946,DE,20566,2924206,Fröndenberg,0.65,-0.22,6.53,8.68,13.72,18.8,18.78,20.42,14.31,6.72,7.66,2.83
Frohnau,52.63336,13.29024,DE,16689,2924302,Frohnau,-0.63,-1.98,3.79,8.32,15.33,19.72,20.11,20.87,15.4,6.45,6.27,2.52
Friesoythe,53.0226,7.85764,DE,20311,2924360,Friesoythe,1.22,0.25,6.07,9.1,13.41,18.1,18.96,19.97,14.69,6.79,7.38,3.52
Friedrichshain,52.51559,13.45482,DE,117829,2924573,Friedrichshain,-0.6,-1.97,3.79,8.47,15.62,20.07,20.39,21.3,15.66,6.56,6.3,2.53
Friedrichshagen,52.45052,13.62463,DE,19009,2924577,Friedrichshagen,-0.63,-2.0,3.76,8.47,15.65,20.05,20.38,21.26,15.65,6.58,6.28,2.53
Friedrichshafen,47.65689,9.47554,DE,58403,2924585,Friedrichshafen,-0.28,-2.21,5.86,9.08,15.37,22.48,20.56,23.76,15.51,7.45,5.64,1.22
Friedrichsfelde,52.50575,13.50812,DE,55423,2924599,Friedrichsfelde,-0.6,-1.97,3.79,8.47,15.62,20.07,20.39,21.3,15.66,6.56,6.3,2.53
Friedrichsdorf,50.24962,8.64281,DE,24435,2924625,Friedrichsdorf,0.87,-0.19,6.53,9.12,14.81,20.76,20.21,22.93,15.48,7.42,6.8,2.18
Friedenau,52.47133,13.32813,DE,27998,2924770,Friedenau,-0.53,-1.88,3.88,8.47,15.53,19.99,20.34,21.24,15.64,6.57,6.37,2.57
Friedberg,50.33739,8.75591,DE,27484,2924802,Friedberg,0.8,-0.36,6.55,9.28,14.96,20.87,20.46,23.2,15.5,7.43,6.79,2.09
Friedberg,48.35693,10.98461,DE,29916,2924803,Friedberg,-0.62,-3.23,5.53,8.49,15.16,21.45,19.96,23.18,14.76,6.47,4.98,0.79
Freudenstadt,48.46695,8.41371,DE,23868,2924894,Freudenstadt,-2.66,-3.65,4.75,7.04,12.64,19.44,17.93,21.33,13.4,5.56,5.18,-0.02
Freudenberg,50.89741,7.87415,DE,18601,2924915,Freudenberg,-0.34,-2.22,5.78,8.12,13.19,18.45,18.01,19.83,13.57,6.17,6.51,1.77
Freital,51.00166,13.6488,DE,39027,2925017,Freital,-0.9,-3.67,4.81,8.28,15.4,20.16,19.82,21.11,15.17,6.53,6.3,2.06
Freising,48.40351,11.74876,DE,42570,2925034,Freising,-0.66,-2.99,5.75,8.97,15.64,21.79,20.47,23.47,15.05,6.88,5.27,0.95
Freilassing,47.84085,12.98114,DE,15909,2925080,Freilassing,-2.12,-4.87,4.6,8.03,15.12,20.52,19.35,21.67,13.66,6.35,5.2,-0.16
Freiburg,47.9959,7.85222,DE,215966,2925177,Freiburg,-0.28,-1.01,7.11,9.71,15.09,22.47,21.1,24.36,16.16,7.51,6.4,1.64
Freiberg am Neckar,48.93196,9.2024,DE,15235,2925189,Freiberg am Neckar,0.34,-1.16,6.92,9.59,15.65,22.08,20.8,24.35,15.69,7.58,6.47,1.87
Freiberg,50.91089,13.33881,DE,43670,2925192,Freiberg,-1.88,-4.61,3.79,6.96,14.13,18.74,18.36,19.81,13.83,5.25,5.3,0.83
Frechen,50.91485,6.8118,DE,48733,2925259,Frechen,1.63,0.99,7.36,9.3,14.06,19.53,19.75,21.41,15.09,7.76,8.26,3.56
Frankfurt am Main,50.11552,8.68417,DE,650000,2925533,Frankfurt am Main,1.02,-0.08,6.94,9.76,15.46,21.53,21.01,23.86,16.09,7.81,7.02,2.32
Frankfurt (Oder),52.34714,14.55062,DE,57015,2925535,Frankfurt (Oder),-0.61,-1.9,3.83,8.66,16.08,20.22,20.37,21.0,15.72,6.78,6.38,2.58
Frankenthal,49.53414,8.35357,DE,47438,2925550,Frankenthal,-0.11,0.19,7.48,10.39,16.34,22.48,21.87,24.96,16.93,8.32,7.25,2.49
Frankenberg,51.0589,8.80077,DE,19276,2925629,Frankenberg,-0.05,-1.77,5.54,7.81,13.4,18.63,18.38,20.43,13.62,5.94,6.2,1.66
Frankenberg,50.91297,13.04011,DE,16850,2925630,Frankenberg,-0.84,-3.55,4.62,7.83,14.89,19.55,19.14,20.69,14.52,6.07,6.27,1.7
Forst,51.73544,14.63971,DE,22843,2925832,Forst,-0.89,-2.08,4.18,8.69,16.14,20.31,20.26,21.08,15.78,6.89,6.5,2.46
Forchheim,49.71754,11.05877,DE,30442,2925910,Forchheim,0.01,-2.17,6.02,9.31,15.79,21.7,20.46,23.43,15.22,6.86,5.97,1.8
Flörsheim,50.01311,8.42779,DE,20023,2926120,Flörsheim,1.05,-0.01,7.01,10.0,15.67,21.62,21.15,23.85,16.32,7.94,7.01,2.33
Flensburg,54.78431,9.43961,DE,85838,2926271,Flensburg,0.6,-0.98,4.18,7.7,12.18,16.73,18.52,18.53,14.5,6.56,6.71,3.64
Fischeln,51.30353,6.58836,DE,26030,2926565,Fischeln,1.82,1.4,7.52,9.77,14.26,19.53,19.62,21.08,15.31,7.91,8.36,3.79
Finsterwalde,51.63388,13.70662,DE,18922,2926670,Finsterwalde,-0.62,-1.87,4.5,8.63,15.94,20.5,20.48,21.52,15.77,6.99,6.46,2.43
Stuttgart Feuerbach,48.80867,9.15719,DE,28046,2927043,Stuttgart Feuerbach,0.28,-1.32,6.7,9.27,15.41,21.84,20.5,24.01,15.42,7.43,6.36,1.76
Fellbach,48.80912,9.27697,DE,43935,2927268,Fellbach,0.15,-1.64,6.55,9.22,15.38,21.79,20.47,24.01,15.36,7.33,6.2,1.61
Falkensee,52.56014,13.0927,DE,37468,2927930,Falkensee,-0.35,-1.75,4.15,8.58,15.49,19.89,20.26,21.02,15.65,6.72,6.53,2.78
Eving,51.55177,7.48087,DE,38687,2928313,Eving,1.23,0.45,6.98,9.25,14.09,19.18,19.3,20.82,14.78,7.17,7.99,3.26
Eutin,54.14054,10.60751,DE,16984,2928381,Eutin,0.21,-1.26,4.09,7.7,12.74,17.43,18.97,19.29,14.87,6.64,6.66,3.32
Euskirchen,50.66057,6.78722,DE,54889,2928396,Euskirchen,1.27,0.54,7.03,8.87,13.83,19.23,19.34,20.93,14.77,7.42,7.98,3.23
Ettlingen,48.94094,8.40763,DE,38942,2928615,Ettlingen,0.19,-0.13,7.75,10.28,16.08,22.52,21.51,25.02,16.63,8.41,7.39,2.71
Esslingen,48.73961,9.30473,DE,92390,2928751,Esslingen,0.37,-1.63,6.86,9.55,15.69,22.06,20.74,24.32,15.66,7.59,6.5,1.86
Essen,51.45657,7.01228,DE,593085,2928810,Essen,1.34,0.8,7.1,9.4,14.0,19.2,19.34,20.88,14.86,7.4,8.03,3.31
Espelkamp,52.38251,8.62127,DE,26378,2928874,Espelkamp,1.21,0.01,6.19,9.05,14.08,18.97,19.76,21.23,14.88,6.96,7.62,3.28
Eschweiler,50.81854,6.27184,DE,55778,2928963,Eschweiler,1.33,1.02,7.37,9.1,13.69,19.12,19.18,20.9,15.21,7.6,8.22,3.59
Eschwege,51.18386,10.05329,DE,21191,2928967,Eschwege,0.63,-1.52,5.71,8.38,14.59,19.48,19.51,21.5,14.31,6.64,6.81,2.14
Eschborn,50.14328,8.57111,DE,21641,2929134,Eschborn,1.0,-0.06,6.91,9.7,15.36,21.37,20.85,23.65,16.01,7.76,6.97,2.3
Erwitte,51.6127,8.3384,DE,16081,2929247,Erwitte,0.99,-0.07,6.58,8.84,14.16,19.19,19.29,21.11,14.46,6.96,7.91,3.05
Erlangen,49.59099,11.00783,DE,102675,2929567,Erlangen,-0.27,-2.4,5.72,9.06,15.59,21.52,20.37,23.18,14.85,6.62,5.63,1.41
Erkrath,51.22235,6.90831,DE,47815,2929600,Erkrath,1.59,1.29,7.56,9.75,14.36,19.63,19.7,21.32,15.29,7.85,8.34,3.69
Erkelenz,51.07947,6.31531,DE,44650,2929622,Erkelenz,1.7,1.25,7.36,9.39,13.88,19.26,19.45,20.87,15.23,7.77,8.22,3.63
Erfurt,50.9787,11.03283,DE,213692,2929670,Erfurt,0.08,-1.87,5.06,8.04,14.71,19.73,19.81,21.9,14.58,6.6,6.15,1.72
Erftstadt,50.81481,6.79387,DE,51207,2929671,Erftstadt,1.54,0.85,7.29,9.16,14.04,19.45,19.64,21.24,15.02,7.67,8.21,3.48
Erding,48.30603,11.90686,DE,33519,2929715,Erding,-0.73,-2.93,5.89,8.98,15.72,21.84,20.47,23.35,14.97,6.86,5.32,0.95
Eppingen,49.13645,8.91229,DE,21179,2929831,Eppingen,0.67,-0.06,7.46,10.0,15.9,22.26,21.04,24.47,16.09,8.06,7.22,2.54
Eppendorf,53.5924,9.98752,DE,24806,2929853,Eppendorf,0.14,-1.15,4.5,8.46,13.4,18.14,19.4,20.03,14.84,6.25,6.72,3.13
Eppelborn,49.4,6.96667,DE,18079,2929865,Eppelborn,-0.01,0.17,7.28,9.62,14.47,20.76,19.94,22.81,15.11,7.66,7.12,2.59
Ennigerloh,51.83843,8.03093,DE,20713,2930030,Ennigerloh,1.05,-0.04,6.32,8.77,13.88,18.98,19.32,21.08,14.32,6.87,7.61,2.89
Ennepetal,51.29848,7.3629,DE,32607,2930043,Ennepetal,0.54,-0.19,6.85,8.81,13.58,18.7,18.51,20.18,14.38,6.96,7.77,3.03
Enger,52.14063,8.55772,DE,19852,2930182,Enger,0.9,-0.25,6.04,8.74,13.96,18.91,19.52,21.16,14.42,6.72,7.52,2.88
Engelskirchen,50.98854,7.41391,DE,20786,2930216,Engelskirchen,0.99,0.26,6.92,9.07,13.98,19.31,19.24,21.01,14.51,7.37,7.75,3.0
Emsdetten,52.1734,7.52781,DE,35582,2930449,Emsdetten,1.38,0.39,6.7,9.41,13.89,18.83,19.35,20.88,14.81,7.08,7.8,3.25
Emmerich,51.83933,6.24792,DE,30869,2930509,Emmerich,1.98,1.34,7.24,9.71,13.87,18.86,19.15,20.17,15.07,7.78,8.18,3.7
Emmendingen,48.12096,7.85359,DE,27383,2930523,Emmendingen,0.06,-0.47,7.51,10.13,15.42,22.65,21.41,24.73,16.47,7.91,6.84,2.2
Emden,53.36745,7.20778,DE,51526,2930596,Emden,1.67,0.24,5.83,8.74,12.63,17.22,18.41,19.17,14.6,7.04,7.22,3.72
Eltville,50.02858,8.11754,DE,16845,2930646,Eltville,1.39,0.32,7.31,10.04,15.62,21.5,21.05,23.66,16.33,8.09,7.37,2.72
Elsdorf,50.93739,6.56828,DE,21967,2930778,Elsdorf,1.68,1.06,7.41,9.29,14.01,19.47,19.72,21.33,15.23,7.8,8.32,3.64
