name,latitude,longitude,country,population,id,city,jan,feb,mar,apr,may,jun,jul,aug,sep,oct,nov,dec
Zwickau,50.72724,12.48839,DE,98796,2803560,Zwickau,2.52,6.15,7.18,7.42,13.8,16.05,16.86,19.26,12.13,10.74,4.76,-0.17
Zweibrücken,49.24686,7.36977,DE,35221,2803620,Zweibrücken,2.75,6.83,7.76,7.98,15.12,15.92,18.44,20.46,13.15,11.88,5.32,1.07
Zülpich,50.69447,6.65414,DE,20208,2803723,Zülpich,4.54,7.11,7.71,7.78,13.88,15.46,17.14,19.65,12.57,12.17,5.66,2.13
Zossen,52.216,13.44909,DE,17138,2803870,Zossen,3.62,6.65,8.02,8.89,15.2,16.86,17.64,19.73,13.07,11.05,5.54,0.93
Zittau,50.89772,14.80764,DE,25785,2804008,Zittau,1.63,4.73,6.7,7.5,13.98,16.07,16.91,18.74,12.04,9.93,4.41,-0.58
Zirndorf,49.4424,10.95414,DE,25734,2804034,Zirndorf,1.67,5.37,7.27,7.55,14.93,15.97,17.64,19.74,12.6,10.86,4.71,0.07
Zerbst,51.9662,12.08517,DE,15680,2804748,Zerbst,3.66,6.72,7.99,8.59,14.83,16.73,17.71,19.99,13.07,11.22,5.69,1.36
Zeitz,51.04962,12.1369,DE,29469,2804922,Zeitz,3.04,6.65,7.59,7.84,14.0,16.34,17.37,19.73,12.63,10.99,5.2,0.91
Zehlendorf,52.43333,13.25,DE,54328,2805059,Zehlendorf,3.6,6.34,7.77,8.71,15.02,16.62,17.4,19.56,12.89,10.83,5.39,0.72
Xanten,51.65877,6.45297,DE,21587,2805385,Xanten,5.15,7.45,8.18,8.53,14.29,15.71,17.13,19.36,13.0,12.49,6.1,3.29
Wurzen,51.3707,12.73939,DE,15233,2805597,Wurzen,3.31,6.77,7.95,8.45,14.62,16.83,17.78,20.15,13.12,11.23,5.6,1.18
Würzburg,49.79391,9.95121,DE,133731,2805615,Würzburg,2.5,6.05,7.62,8.07,14.96,16.21,17.84,20.23,12.92,11.1,5.32,1.0
Würselen,50.81809,6.1347,DE,37074,2805644,Würselen,4.44,7.1,7.56,7.59,13.79,14.95,16.69,19.18,12.35,12.22,5.56,2.29
Wuppertal,51.25627,7.14816,DE,360797,2805753,Wuppertal,4.36,6.79,7.7,7.93,14.09,15.36,16.78,19.28,12.3,12.23,5.6,2.31
Wunstorf,52.42377,9.43585,DE,42080,2805761,Wunstorf,4.49,7.12,7.83,8.24,13.97,15.83,17.06,19.22,12.6,11.71,5.69,2.35
Wülfrath,51.28195,7.03821,DE,21003,2805910,Wülfrath,4.1,6.59,7.43,7.69,13.81,15.09,16.5,18.98,12.07,11.94,5.33,2.09
Wörth am Rhein,49.04888,8.25959,DE,17272,2806081,Wörth am Rhein,3.13,7.66,8.55,8.68,16.04,16.96,19.42,21.62,14.23,12.64,5.93,1.38
Worms,49.63278,8.35916,DE,81099,2806142,Worms,2.63,6.73,8.06,8.44,15.87,16.97,18.97,21.4,13.59,11.77,5.62,1.27
Wolfsburg,52.42452,10.7815,DE,123064,2806654,Wolfsburg,4.11,6.7,7.91,8.39,14.4,16.11,17.2,19.52,12.73,11.35,5.6,1.78
Wolfratshausen,47.91289,11.42166,DE,17191,2806768,Wolfratshausen,-1.42,4.44,6.71,6.49,13.57,14.82,16.79,18.11,12.31,10.68,3.44,-1.89
Wolfenbüttel,52.16442,10.54095,DE,54740,2806914,Wolfenbüttel,3.99,6.58,7.67,8.01,13.84,15.78,16.82,19.19,12.48,11.23,5.43,1.55
Wolfen,51.66122,12.26873,DE,25251,2806919,Wolfen,3.41,6.7,7.91,8.55,14.83,16.81,17.86,20.25,13.15,11.21,5.64,1.25
Witzenhausen,51.34103,9.8554,DE,16055,2807184,Witzenhausen,3.34,6.31,7.49,7.74,13.96,15.79,16.82,19.2,12.25,11.05,5.33,1.41
Wittstock,53.16118,12.48287,DE,17361,2807201,Wittstock,3.71,6.03,7.3,8.23,14.05,15.97,16.69,18.58,12.39,10.79,5.12,1.14
Wittmund,53.57674,7.77839,DE,21355,2807218,Wittmund,4.94,6.9,7.61,8.11,12.89,14.82,15.76,17.56,12.96,11.66,6.19,3.75
Wittlich,49.98596,6.89308,DE,17887,2807240,Wittlich,2.84,6.26,7.32,7.58,14.52,15.57,17.69,19.91,12.46,11.28,5.28,1.33
Wittenberge,53.00543,11.75032,DE,20171,2807344,Wittenberge,3.99,6.47,7.77,8.58,14.54,16.37,17.23,19.21,12.86,11.21,5.47,1.62
Wittenau,52.59319,13.32127,DE,24726,2807360,Wittenau,3.64,6.31,7.73,8.64,14.77,16.52,17.25,19.33,12.78,10.82,5.33,0.72
Witten,51.44362,7.35258,DE,101247,2807363,Witten,4.42,7.02,7.86,8.14,14.24,15.62,16.95,19.46,12.49,12.37,5.74,2.29
Wismar,53.89314,11.45286,DE,45255,2807465,Wismar,4.2,6.3,7.33,8.16,13.56,15.77,16.67,18.33,12.66,11.05,5.46,2.15
Wipperfürth,51.1161,7.39865,DE,23723,2807594,Wipperfürth,3.32,5.78,6.88,7.21,13.54,14.76,16.19,18.64,11.49,11.35,4.88,1.24
Winterhude,53.6,10.0,DE,56382,2807748,Winterhude,4.21,6.44,7.3,8.03,13.59,15.27,16.29,18.22,12.49,11.08,5.17,2.18
Winsen,53.35753,10.21282,DE,32662,2807845,Winsen,4.33,6.69,7.64,8.3,13.92,15.57,16.56,18.64,12.72,11.29,5.43,2.26
Winnenden,48.87563,9.39819,DE,28334,2807872,Winnenden,1.94,6.06,7.33,7.69,14.75,15.57,17.69,19.72,12.84,11.41,4.87,0.14
Wilnsdorf,50.81667,8.1,DE,21505,2808461,Wilnsdorf,2.06,4.6,6.13,6.62,13.14,14.33,15.74,17.99,10.97,10.16,4.16,0.11
Wilmersdorf,52.48333,13.31667,DE,101877,2808473,Wilmersdorf,3.6,6.29,7.73,8.67,14.9,16.57,17.33,19.46,12.84,10.8,5.34,0.66
Willich,51.26371,6.54734,DE,51843,2808559,Willich,5.12,7.54,8.27,8.54,14.55,15.89,17.42,19.73,13.01,12.68,6.18,3.11
Wilhelmstadt,52.52462,13.17707,DE,40463,2808662,Wilhelmstadt,3.72,6.47,7.88,8.78,14.96,16.65,17.41,19.51,12.92,10.95,5.45,0.85
Wilhelmshaven,53.52998,8.11253,DE,84393,2808720,Wilhelmshaven,4.79,6.86,7.64,8.17,13.26,15.05,15.94,17.76,12.71,11.55,5.82,3.34
Wilhelmsburg,53.50669,9.98715,DE,53064,2808747,Wilhelmsburg,4.35,6.65,7.54,8.24,13.8,15.45,16.46,18.46,12.64,11.26,5.35,2.29
Wildeshausen,52.89446,8.43375,DE,18114,2808893,Wildeshausen,4.71,7.1,7.92,8.36,13.84,15.49,16.55,18.61,12.64,11.86,5.71,2.98
Wiesloch,49.29504,8.69846,DE,26605,2809138,Wiesloch,2.89,7.06,8.33,8.64,15.94,16.82,19.07,21.39,13.8,12.23,5.73,1.41
Wiesbaden,50.08258,8.24932,DE,278609,2809346,Wiesbaden,2.78,6.55,8.0,8.45,15.72,16.9,18.64,21.04,13.3,11.74,5.69,1.39
Wiehl,50.9495,7.55062,DE,26291,2809517,Wiehl,3.28,5.94,7.12,7.64,14.09,15.23,16.63,19.06,11.84,11.45,5.16,1.3
Wetzlar,50.56109,8.50495,DE,52656,2809889,Wetzlar,2.93,5.81,7.55,7.88,14.58,15.91,17.32,19.67,12.47,11.23,5.4,1.24
Wetter,51.38747,7.39277,DE,29146,2809984,Wetter,4.42,7.02,7.86,8.14,14.24,15.62,16.95,19.46,12.49,12.37,5.74,2.29
Westerstede,53.25682,7.92737,DE,21902,2810188,Westerstede,4.79,6.92,7.73,8.18,13.36,15.09,15.98,17.75,12.54,11.61,5.66,3.19
Westend,52.51708,13.27636,DE,41328,2810538,Westend,3.45,6.14,7.58,8.53,14.74,16.42,17.18,19.31,12.69,10.65,5.19,0.51
Wesseling,50.82709,6.9747,DE,35665,2810612,Wesseling,4.78,7.46,8.17,8.33,14.59,16.06,17.68,20.07,12.98,12.51,6.14,2.7
Wesel,51.6669,6.62037,DE,61685,2810678,Wesel,5.11,7.42,8.18,8.52,14.32,15.73,17.15,19.42,12.96,12.49,6.07,3.24
Wertheim,49.759,9.50852,DE,24869,2810716,Wertheim,2.74,6.35,7.88,8.35,15.26,16.41,18.15,20.51,13.15,11.37,5.5,1.17
Wersten,51.18459,6.81249,DE,27151,2810730,Wersten,4.94,7.44,8.25,8.57,14.69,16.06,17.56,19.99,13.02,12.67,6.15,2.93
Wernigerode,51.83652,10.78216,DE,34463,2810808,Wernigerode,2.68,5.3,6.6,7.13,13.32,15.19,16.19,18.58,11.72,10.12,4.41,0.25
Werne,51.66446,7.63421,DE,30810,2810833,Werne,4.66,7.2,7.91,8.14,14.07,15.73,17.07,19.51,12.57,12.25,5.7,2.61
Wermelskirchen,51.1397,7.21583,DE,36816,2810855,Wermelskirchen,3.22,5.74,6.74,7.06,13.36,14.58,16.03,18.51,11.39,11.18,4.7,1.22
Werl,51.55493,7.91403,DE,32149,2810878,Werl,4.52,7.13,7.8,7.95,13.92,15.61,16.89,19.34,12.42,12.26,5.64,2.28
Werdohl,51.26011,7.76608,DE,20366,2810919,Werdohl,3.89,6.44,7.3,7.51,13.58,15.05,16.37,18.8,11.89,11.83,5.21,1.62
Werder,52.37874,12.934,DE,22384,2810945,Werder,3.83,6.67,8.02,8.83,15.01,16.71,17.51,19.57,13.02,11.08,5.58,1.05
Werdau,50.73604,12.37534,DE,24424,2810969,Werdau,2.48,6.1,7.17,7.37,13.79,15.97,16.85,19.24,12.07,10.75,4.74,-0.14
Wendlingen am Neckar,48.67124,9.37632,DE,15728,2811204,Wendlingen am Neckar,2.0,6.45,7.67,7.93,15.07,15.89,17.95,20.0,13.28,11.71,4.95,-0.13
Wenden,50.96667,7.86667,DE,19924,2811278,Wenden,2.0,4.56,5.88,6.44,12.84,13.94,15.31,17.71,10.61,10.3,3.86,-0.03
Wendelstein,49.3523,11.15069,DE,16220,2811292,Wendelstein,1.39,5.14,7.07,7.44,14.88,15.85,17.53,19.57,12.4,10.68,4.53,-0.15
Weiterstadt,49.9039,8.58874,DE,24253,2811644,Weiterstadt,3.07,6.78,8.06,8.53,15.82,16.99,18.82,21.22,13.37,11.86,5.77,1.54
Weißwasser,51.50403,14.64017,DE,22099,2811698,Weißwasser,2.98,6.15,7.75,8.4,14.65,16.8,17.72,19.69,12.91,10.88,5.16,0.62
Weißenfels,51.20148,11.96843,DE,29792,2811899,Weißenfels,3.44,7.04,8.08,8.47,14.67,16.91,18.01,20.39,13.25,11.42,5.77,1.45
Weißenburg in Bayern,49.03095,10.97221,DE,18578,2811909,Weißenburg in Bayern,1.25,5.16,7.34,7.27,14.58,15.55,17.48,19.38,12.48,10.89,4.51,-0.01
Weinstadt-Endersbach,48.81311,9.36387,DE,26166,2812145,Weinstadt-Endersbach,2.2,6.58,7.73,8.08,15.15,15.96,18.07,20.08,13.29,11.83,5.2,0.28
Weinheim,49.54887,8.66697,DE,43325,2812174,Weinheim,2.89,7.09,8.32,8.66,15.97,16.96,19.04,21.38,13.79,12.19,5.8,1.44
Weingarten,47.81009,9.63863,DE,23802,2812204,Weingarten,0.07,4.77,7.12,7.06,14.77,15.45,17.64,19.05,13.39,11.66,4.44,-0.85
Weimar,50.9803,11.32903,DE,64727,2812482,Weimar,2.77,6.19,7.23,7.49,13.67,15.93,17.09,19.48,12.33,10.62,5.03,0.76
Weilheim,47.84147,11.15484,DE,21401,2812515,Weilheim,-2.37,4.1,6.32,6.25,13.42,14.7,16.8,17.96,12.34,10.59,2.99,-2.88
Weilerswist,50.75292,6.84585,DE,16321,2812522,Weilerswist,4.55,7.12,7.75,7.83,13.99,15.54,17.2,19.66,12.58,12.17,5.69,2.31
Weil der Stadt,48.74953,8.87176,DE,19338,2812625,Weil der Stadt,2.08,6.11,7.1,7.08,14.04,15.13,17.31,19.16,12.57,11.41,4.29,-0.42
Weil am Rhein,47.59331,7.62082,DE,29548,2812636,Weil am Rhein,1.41,6.54,7.91,7.93,15.58,16.18,18.83,20.31,14.18,12.07,4.87,0.6
Weiden,49.67682,12.15613,DE,42550,2813040,Weiden,0.46,4.15,6.63,7.12,14.41,15.76,17.25,19.31,12.06,9.82,4.07,-0.94
Weißensee,52.55632,13.46649,DE,47693,2813187,Weißensee,3.5,6.15,7.6,8.53,14.66,16.43,17.13,19.22,12.67,10.67,5.2,0.53
Wegberg,51.14221,6.28436,DE,29622,2813390,Wegberg,5.19,7.71,8.28,8.43,14.5,15.83,17.47,19.89,13.08,12.77,6.2,3.11
Weener,53.16332,7.35052,DE,15718,2813433,Weener,4.85,6.95,7.74,8.28,13.37,15.11,16.01,17.74,12.61,11.65,5.71,3.3
Wedel,53.58374,9.69835,DE,31995,2813464,Wedel,4.39,6.67,7.55,8.17,13.66,15.29,16.26,18.23,12.6,11.3,5.33,2.46
Wedding,52.54734,13.35594,DE,85275,2813472,Wedding,3.57,6.22,7.71,8.67,14.92,16.59,17.36,19.49,12.86,10.76,5.34,0.55
Wassenberg,51.10009,6.15484,DE,16641,2813786,Wassenberg,5.29,7.84,8.4,8.59,14.68,15.94,17.61,20.03,13.23,12.89,6.32,3.24
Warstein,51.44488,8.34851,DE,28532,2814005,Warstein,2.97,5.45,6.33,6.6,12.71,14.2,15.4,17.81,11.0,10.83,4.28,0.58
Warendorf,51.95109,7.98756,DE,38707,2814127,Warendorf,4.52,7.15,7.86,8.31,14.3,15.9,17.15,19.61,12.59,12.17,5.66,2.64
Waren,53.5204,12.67985,DE,21470,2814131,Waren,3.59,5.69,6.95,8.03,13.63,15.72,16.37,18.12,12.16,10.52,4.88,1.12
Wardenburg,53.06667,8.2,DE,16019,2814146,Wardenburg,4.75,7.04,7.85,8.32,13.63,15.34,16.28,18.18,12.58,11.74,5.63,3.03
Warburg,51.49011,9.14641,DE,24317,2814153,Warburg,3.41,6.15,7.15,7.48,13.56,15.24,16.37,18.76,11.94,11.15,5.07,1.37
Wangen,47.6895,9.83247,DE,27045,2814270,Wangen,-0.88,4.1,6.2,6.26,13.83,14.57,16.79,17.99,12.48,10.85,3.47,-1.93
Wandlitz,52.74196,13.45799,DE,19888,2814305,Wandlitz,3.5,6.14,7.57,8.49,14.57,16.38,17.05,19.12,12.58,10.66,5.15,0.56
Waltrop,51.62125,7.40238,DE,30220,2814362,Waltrop,4.78,7.35,8.08,8.27,14.23,15.85,17.18,19.7,12.71,12.43,5.84,2.7
Walsrode,52.86147,9.5926,DE,24448,2814462,Walsrode,4.36,6.82,7.7,8.26,14.1,15.63,16.73,19.0,12.54,11.54,5.54,2.36
Wallenhorst,52.35,8.01667,DE,24201,2814632,Wallenhorst,4.36,6.87,7.61,8.06,13.89,15.45,16.6,18.89,12.28,11.79,5.39,2.62
Waldshut-Tiengen,47.62323,8.21717,DE,22404,2814791,Waldshut-Tiengen,2.05,6.77,7.98,7.68,15.27,16.05,18.53,19.79,14.05,12.5,4.92,0.16
Waldkraiburg,48.20854,12.39893,DE,24676,2814874,Waldkraiburg,-1.81,4.79,7.69,7.57,14.77,15.81,17.61,19.07,12.76,10.88,4.36,-1.34
Waldkirch,48.09585,7.96371,DE,20155,2814883,Waldkirch,2.48,7.14,7.94,7.99,15.4,16.37,18.7,20.48,13.87,12.37,5.11,0.66
Waldbröl,50.87576,7.61688,DE,19533,2815137,Waldbröl,2.83,5.49,6.67,7.18,13.64,14.78,16.18,18.6,11.39,11.0,4.71,0.85
Waiblingen,48.83241,9.31641,DE,52945,2815330,Waiblingen,2.28,6.57,7.75,8.03,15.08,15.95,18.08,20.09,13.33,11.85,5.18,0.43
Waghäusel,49.24991,8.51257,DE,20178,2815487,Waghäusel,2.93,7.21,8.32,8.44,15.76,16.71,19.05,21.33,13.79,12.32,5.73,1.36
Wadgassen,49.26667,6.78333,DE,18464,2815559,Wadgassen,2.72,6.79,7.63,8.02,15.22,15.91,18.45,20.29,13.06,11.76,5.42,1.39
Wadern,49.54122,6.88774,DE,17282,2815565,Wadern,2.57,6.39,7.25,7.59,14.69,15.48,17.86,19.69,12.58,11.38,5.09,1.03
Wachtberg,50.63333,7.1,DE,20032,2815678,Wachtberg,3.94,6.65,7.49,7.63,13.89,15.39,17.07,19.36,12.34,11.74,5.51,1.78
Vreden,52.03792,6.828,DE,22412,2815824,Vreden,4.96,7.33,8.02,8.47,14.26,15.64,16.97,19.3,12.82,12.34,5.8,3.21
Volksdorf,53.64972,10.18417,DE,20685,2816607,Volksdorf,4.08,6.34,7.26,7.91,13.45,15.15,16.18,18.13,12.36,10.97,5.11,2.06
Völklingen,49.25162,6.85873,DE,41132,2816630,Völklingen,2.94,6.94,7.83,8.15,15.37,16.07,18.63,20.5,13.21,11.96,5.59,1.53
Voerde,51.59703,6.6863,DE,36047,2817065,Voerde,5.16,7.49,8.27,8.56,14.38,15.85,17.29,19.59,13.01,12.62,6.19,3.24
Vlotho,52.1653,8.85996,DE,20214,2817105,Vlotho,4.43,7.11,7.83,8.15,14.02,15.81,17.0,19.24,12.5,11.93,5.67,2.43
Vilshofen,48.62695,13.19222,DE,16695,2817202,Vilshofen,-1.1,4.19,7.67,7.81,15.01,15.91,17.59,19.1,12.44,10.71,4.25,-1.04
Villingen-Schwenningen,48.06226,8.49358,DE,81770,2817220,Villingen-Schwenningen,0.39,4.42,5.51,5.31,12.76,13.62,15.85,17.34,11.26,10.0,2.15,-2.51
Viersen,51.25435,6.39441,DE,76153,2817311,Viersen,5.19,7.61,8.31,8.55,14.56,15.9,17.44,19.72,13.05,12.71,6.21,3.16
Viernheim,49.54033,8.5782,DE,32620,2817324,Viernheim,3.06,7.16,8.41,8.79,16.1,17.12,19.14,21.5,13.87,12.21,5.94,1.59
Versmold,52.04009,8.15272,DE,20996,2817537,Versmold,4.4,6.96,7.67,8.11,14.07,15.8,17.07,19.44,12.43,11.91,5.54,2.48
Verl,51.88333,8.51667,DE,24002,2817576,Verl,4.28,6.83,7.57,7.98,14.03,15.75,17.03,19.41,12.33,11.83,5.51,2.28
Verden,52.92343,9.23491,DE,26924,2817599,Verden,4.47,6.92,7.7,8.24,13.86,15.55,16.66,18.77,12.57,11.62,5.58,2.53
Velbert,51.33537,7.04348,DE,87669,2817724,Velbert,3.75,6.24,7.08,7.33,13.46,14.74,16.15,18.63,11.72,11.59,4.98,1.74
Vegesack,53.16667,8.61667,DE,34757,2817783,Vegesack,4.71,6.99,7.75,8.26,13.57,15.33,16.27,18.16,12.59,11.68,5.65,2.95
Vechta,52.72632,8.28598,DE,29729,2817812,Vechta,4.63,7.12,7.91,8.37,14.02,15.63,16.73,18.86,12.58,11.88,5.63,2.86
Vechelde,52.26038,10.36491,DE,16219,2817813,Vechelde,3.96,6.56,7.63,7.99,13.88,15.69,16.78,19.12,12.38,11.19,5.35,1.58
Vaterstetten,48.10537,11.76825,DE,21007,2817818,Vaterstetten,-1.62,4.23,6.77,6.58,13.58,14.72,16.6,18.03,11.96,10.22,3.49,-1.98
Varel,53.39693,8.13621,DE,25212,2817873,Varel,4.75,6.86,7.63,8.12,13.26,15.07,15.98,17.75,12.59,11.53,5.67,3.18
Vaihingen an der Enz,48.93563,8.96045,DE,28867,2817927,Vaihingen an der Enz,2.8,7.05,8.12,8.27,15.34,16.22,18.5,20.48,13.61,12.2,5.47,1.0
Uetersen,53.68769,9.66394,DE,17921,2818067,Uetersen,4.36,6.59,7.46,8.11,13.61,15.24,16.23,18.14,12.59,11.24,5.28,2.49
Uslar,51.6569,9.63501,DE,15951,2818094,Uslar,3.58,6.33,7.38,7.6,13.76,15.51,16.65,18.99,12.1,11.16,5.29,1.62
Unterschleißheim,48.28038,11.57684,DE,25567,2818766,Unterschleißheim,-0.88,5.08,7.52,7.35,14.5,15.52,17.42,18.96,12.68,10.77,4.28,-0.95
Unterhaching,48.06598,11.61564,DE,20852,2819465,Unterhaching,-1.74,4.11,6.6,6.42,13.42,14.6,16.48,17.91,11.89,10.14,3.4,-2.04
Unterkrozingen,47.91933,7.69045,DE,15908,2819974,Unterkrozingen,1.94,7.03,8.15,8.35,16.06,16.86,19.52,21.27,14.48,12.63,5.27,0.91
Unna,51.53795,7.68969,DE,66734,2820087,Unna,4.48,7.09,7.83,8.01,13.99,15.61,16.9,19.37,12.45,12.29,5.67,2.25
Ulm,48.39841,9.99155,DE,120451,2820256,Ulm,0.27,5.49,6.94,6.8,14.13,15.05,17.1,18.87,12.49,10.82,3.89,-0.94
Uerdingen,51.35478,6.63918,DE,17888,2820447,Uerdingen,5.14,7.53,8.29,8.57,14.51,15.91,17.39,19.72,13.04,12.68,6.21,3.15
Uelzen,52.96572,10.56111,DE,34996,2820456,Uelzen,4.23,6.68,7.73,8.41,14.28,15.92,16.94,19.18,12.74,11.3,5.52,2.0
Überlingen,47.76977,9.17136,DE,21507,2820577,Überlingen,0.69,5.39,7.43,7.55,15.21,15.97,18.21,19.62,13.84,12.07,4.76,0.05
Übach-Palenberg,50.91775,6.12336,DE,25544,2820621,Übach-Palenberg,4.82,7.43,7.9,8.01,14.15,15.42,17.15,19.62,12.75,12.49,5.88,2.72
Tuttlingen,47.98464,8.8177,DE,34847,2820693,Tuttlingen,0.49,4.91,6.28,6.02,13.52,14.3,16.7,18.04,11.98,10.48,2.77,-1.94
Tübingen,48.52266,9.05222,DE,83416,2820860,Tübingen,1.86,6.21,7.3,7.39,14.5,15.45,17.54,19.56,12.94,11.46,4.38,-0.56
Trossingen,48.07667,8.64409,DE,15040,2820973,Trossingen,0.68,4.75,5.92,5.63,13.06,13.96,16.17,17.68,11.6,10.27,2.49,-2.21
Troisdorf,50.80901,7.14968,DE,74749,2821029,Troisdorf,4.64,7.34,8.13,8.34,14.64,16.05,17.65,20.01,12.92,12.43,6.1,2.62
Trier,49.75565,6.63935,DE,100129,2821164,Trier,3.15,6.57,7.56,7.87,14.8,15.83,18.1,20.16,12.83,11.56,5.64,1.84
Traunstein,47.86825,12.64335,DE,18422,2821515,Traunstein,-1.94,3.6,6.29,6.36,13.42,14.69,16.47,17.74,11.77,10.26,2.94,-2.79
Traunreut,47.96269,12.59231,DE,21244,2821517,Traunreut,-2.19,3.27,6.13,6.21,13.2,14.47,16.24,17.52,11.53,9.85,2.98,-2.85
Torgau,51.56016,12.99617,DE,18746,2821807,Torgau,3.34,6.67,7.91,8.58,14.86,16.95,17.89,20.22,13.21,11.2,5.61,1.1
Tönisvorst,51.32092,6.49412,DE,30296,2821899,Tönisvorst,5.12,7.54,8.27,8.54,14.55,15.89,17.42,19.73,13.01,12.68,6.18,3.11
Tettnang,47.66857,9.59132,DE,18135,2823368,Tettnang,-0.03,4.67,7.02,6.96,14.67,15.35,17.54,18.95,13.29,11.56,4.34,-0.95
Templin,53.11865,13.5022,DE,17634,2823533,Templin,3.53,5.93,7.28,8.32,14.11,16.15,16.78,18.65,12.38,10.55,5.02,0.63
Tempelhof,52.46667,13.4,DE,61769,2823538,Tempelhof,3.53,6.17,7.66,8.63,14.87,16.53,17.31,19.44,12.81,10.71,5.29,0.52
Teltow,52.4031,13.26014,DE,19530,2823567,Teltow,3.6,6.34,7.77,8.71,15.02,16.62,17.4,19.56,12.89,10.83,5.39,0.72
Telgte,51.97995,7.78293,DE,19389,2823590,Telgte,4.62,7.22,7.95,8.39,14.39,15.92,17.18,19.7,12.66,12.26,5.7,2.76
Tegel,52.57601,13.29389,DE,36764,2823708,Tegel,3.69,6.36,7.78,8.69,14.82,16.56,17.3,19.38,12.83,10.86,5.38,0.77
Taunusstein,50.14993,8.15206,DE,29501,2823799,Taunusstein,1.89,5.25,6.8,7.02,14.11,15.3,17.1,19.4,11.85,10.56,4.42,0.21
Taufkirchen,48.0486,11.61701,DE,17791,2823812,Taufkirchen,-1.62,4.42,6.82,6.53,13.46,14.66,16.64,18.02,12.12,10.51,3.53,-1.92
Syke,52.91345,8.82209,DE,24274,2824461,Syke,4.64,7.07,7.78,8.24,13.71,15.48,16.59,18.65,12.6,11.75,5.66,2.78
Sundern,51.3281,8.00369,DE,27554,2824655,Sundern,3.5,5.97,6.83,7.03,13.09,14.62,15.93,18.32,11.44,11.39,4.79,1.12
Sulzbach-Rosenberg,49.50126,11.74598,DE,19252,2824801,Sulzbach-Rosenberg,1.04,4.54,6.96,7.17,14.49,15.61,17.32,19.27,12.15,10.33,4.36,-0.36
Sulzbach,49.29882,7.05696,DE,18364,2824841,Sulzbach,2.76,6.78,7.79,7.91,15.19,15.84,18.52,20.45,13.03,11.91,5.34,1.25
Suhl,50.60911,10.69401,DE,43509,2824948,Suhl,0.74,3.98,5.98,6.44,13.36,14.68,16.05,18.4,11.04,9.53,3.45,-1.33
Stuttgart,48.78232,9.17702,DE,630305,2825297,Stuttgart,2.44,6.67,7.82,8.02,15.03,15.96,18.12,20.11,13.37,11.93,5.22,0.57
Stuhr,53.03333,8.75,DE,32507,2825422,Stuhr,4.71,7.11,7.83,8.34,13.76,15.54,16.59,18.62,12.69,11.79,5.7,2.86
Strausberg,52.57859,13.88741,DE,26649,2826082,Strausberg,3.46,6.15,7.61,8.52,14.6,16.45,17.12,19.14,12.62,10.65,5.19,0.53
Straubing,48.88126,12.57385,DE,44580,2826099,Straubing,-0.89,4.08,7.29,7.7,14.92,15.95,17.62,19.43,12.48,10.11,4.13,-1.34
Stralsund,54.30911,13.0818,DE,58976,2826287,Stralsund,4.01,6.09,7.08,8.07,13.31,16.13,16.89,18.28,12.57,10.71,5.18,1.89
Straelen,51.4419,6.26639,DE,15325,2826304,Straelen,5.16,7.52,8.22,8.48,14.4,15.76,17.3,19.53,13.0,12.58,6.13,3.18
Stolberg,50.77368,6.22595,DE,56377,2826595,Stolberg,4.55,7.12,7.64,7.63,13.83,15.05,16.77,19.26,12.41,12.29,5.63,2.28
Stockelsdorf,53.8922,10.64713,DE,16562,2826861,Stockelsdorf,4.09,6.24,7.19,7.89,13.32,15.28,16.26,18.0,12.37,10.88,5.17,2.13
Stockach,47.85105,9.0091,DE,16844,2826909,Stockach,1.02,5.63,7.29,7.07,14.72,15.4,17.72,19.07,13.16,11.4,4.04,-0.71
Stendal,52.6069,11.85867,DE,37722,2827479,Stendal,3.97,6.61,7.94,8.58,14.77,16.51,17.43,19.51,12.94,11.17,5.56,1.46
Stellingen,53.5922,9.9287,DE,23472,2827552,Stellingen,4.21,6.47,7.33,8.02,13.56,15.21,16.21,18.16,12.46,11.1,5.17,2.21
Steinhagen,52.0,8.4,DE,19869,2828050,Steinhagen,4.3,6.86,7.57,7.97,13.95,15.71,16.97,19.32,12.32,11.83,5.48,2.36
Steinfurt,52.15045,7.33664,DE,34601,2828105,Steinfurt,4.63,7.05,7.79,8.26,14.09,15.49,16.72,19.16,12.5,12.08,5.5,2.9
Steilshoop,53.61028,10.05917,DE,19343,2828994,Steilshoop,4.18,6.43,7.32,8.0,13.56,15.24,16.26,18.2,12.46,11.06,5.17,2.15
Steglitz,52.45606,13.332,DE,72464,2829109,Steglitz,3.55,6.24,7.68,8.63,14.84,16.52,17.28,19.41,12.79,10.75,5.29,0.61
Staßfurt,51.85186,11.58508,DE,22960,2829422,Staßfurt,3.83,6.81,7.98,8.33,14.54,16.48,17.61,19.96,13.03,11.2,5.72,1.57
Starnberg,48.00193,11.34416,DE,23086,2829457,Starnberg,-1.46,4.29,6.58,6.32,13.44,14.63,16.61,17.97,12.07,10.47,3.44,-1.67
Stadtlohn,51.99399,6.91918,DE,20602,2829758,Stadtlohn,4.91,7.29,8.03,8.47,14.32,15.66,17.01,19.4,12.78,12.34,5.77,3.16
Stadthagen,52.32333,9.20311,DE,23076,2829777,Stadthagen,4.35,6.98,7.65,8.01,13.73,15.65,16.87,19.03,12.39,11.65,5.55,2.26
Stadtallendorf,50.82261,9.01294,DE,21720,2829804,Stadtallendorf,2.32,5.34,6.87,7.24,13.7,15.22,16.55,19.0,11.74,10.55,4.71,0.68
Stade,53.59337,9.47629,DE,45634,2829901,Stade,4.4,6.67,7.5,8.1,13.56,15.2,16.17,18.11,12.54,11.3,5.3,2.51
Staaken,52.53661,13.15057,DE,46369,2829962,Staaken,3.73,6.48,7.88,8.78,14.96,16.65,17.41,19.51,12.92,10.95,5.45,0.87
Sprockhövel,51.34669,7.24343,DE,26400,2829998,Sprockhövel,3.86,6.31,7.24,7.47,13.64,14.91,16.31,18.81,11.83,11.78,5.15,1.77
Springe,52.20845,9.55416,DE,29828,2830035,Springe,4.15,6.76,7.52,7.81,13.58,15.54,16.72,18.92,12.26,11.43,5.39,1.87
Speyer,49.32083,8.43111,DE,50343,2830582,Speyer,2.86,7.25,8.41,8.61,16.02,17.05,19.35,21.69,13.93,12.3,5.82,1.44
Spenge,52.14021,8.48475,DE,15625,2830637,Spenge,4.29,6.9,7.58,7.96,13.84,15.64,16.84,19.14,12.3,11.82,5.48,2.36
Sonthofen,47.51821,10.28262,DE,21285,2831088,Sonthofen,-2.04,3.41,5.1,5.3,12.81,13.85,16.06,16.9,11.75,10.37,1.92,-3.49
Sonneberg,50.3592,11.17463,DE,23908,2831250,Sonneberg,0.73,4.32,6.12,6.8,13.93,15.18,16.51,18.84,11.41,9.8,3.61,-1.31
Sondershausen,51.36973,10.87011,DE,21802,2831276,Sondershausen,2.59,5.71,7.2,7.47,13.88,15.66,16.79,19.37,12.13,10.41,4.83,0.62
Sömmerda,51.15914,11.11524,DE,20853,2831403,Sömmerda,2.69,6.09,7.39,7.7,14.04,16.0,17.23,19.74,12.5,10.61,5.09,0.83
Soltau,52.98638,9.84338,DE,21945,2831486,Soltau,4.22,6.66,7.56,8.18,14.06,15.57,16.62,18.92,12.48,11.39,5.4,2.18
Solingen,51.17343,7.0845,DE,164359,2831580,Solingen,3.91,6.4,7.33,7.6,13.84,15.06,16.5,19.02,11.96,11.82,5.25,1.92
Soest,51.57558,8.10619,DE,48037,2831708,Soest,4.42,7.02,7.65,7.84,13.83,15.53,16.79,19.27,12.34,12.12,5.56,2.12
Sinzig,50.54384,7.24639,DE,17880,2831852,Sinzig,4.55,7.27,8.16,8.33,14.64,16.11,17.76,20.03,13.0,12.35,6.2,2.44
Sinsheim,49.2529,8.87867,DE,35219,2831872,Sinsheim,2.88,6.93,8.29,8.65,15.89,16.73,18.92,21.26,13.75,12.19,5.75,1.39
Singen,47.75935,8.8403,DE,48033,2831924,Singen,1.14,5.94,7.56,7.39,14.98,15.72,17.97,19.38,13.57,11.68,4.4,-0.38
Sindelfingen,48.7,9.01667,DE,61311,2831948,Sindelfingen,1.46,5.48,6.54,6.53,13.49,14.55,16.73,18.6,12.01,10.8,3.75,-0.97
Simmerath,50.6,6.3,DE,15646,2832023,Simmerath,2.64,5.11,5.85,5.73,12.01,13.12,15.04,17.32,10.55,10.46,3.87,0.35
Sigmaringen,48.08829,9.23033,DE,16592,2832232,Sigmaringen,1.19,5.56,6.99,6.61,14.03,14.88,17.12,18.56,12.5,11.04,3.37,-1.32
Siegen,50.87481,8.02431,DE,107242,2832495,Siegen,2.75,5.42,6.68,7.34,13.85,14.96,16.37,18.63,11.58,10.9,4.81,0.8
Siegburg,50.80019,7.20769,DE,39135,2832521,Siegburg,4.44,7.12,8.02,8.25,14.61,15.96,17.53,19.88,12.78,12.3,6.0,2.47
Langenhorn,53.66667,10.01667,DE,46272,2832561,Langenhorn,4.26,6.49,7.35,8.03,13.57,15.24,16.25,18.16,12.52,11.13,5.23,2.32
Senftenberg,51.52517,14.00164,DE,28988,2833073,Senftenberg,3.23,6.42,7.93,8.59,14.85,17.0,17.88,20.1,13.18,11.12,5.48,0.85
Senden,51.85645,7.48327,DE,20363,2833079,Senden,4.77,7.21,7.92,8.29,14.24,15.85,17.19,19.72,12.67,12.23,5.71,2.88
Senden,48.32441,10.04442,DE,22275,2833080,Senden,0.13,5.39,6.82,6.71,14.0,14.96,16.96,18.68,12.45,10.77,3.79,-0.99
Selm,51.69689,7.46809,DE,27540,2833170,Selm,4.71,7.26,7.98,8.22,14.15,15.77,17.11,19.56,12.63,12.32,5.75,2.68
Seligenstadt,50.0432,8.97394,DE,19569,2833242,Seligenstadt,2.83,6.53,7.81,8.43,15.49,16.7,18.3,20.78,13.14,11.47,5.6,1.2
Selb,50.17058,12.13054,DE,17132,2833296,Selb,0.28,3.41,5.26,5.81,12.66,14.37,15.43,17.64,10.58,8.78,3.1,-1.97
Sehnde,52.31394,9.9682,DE,23060,2833475,Sehnde,4.15,6.8,7.74,8.04,13.89,15.69,16.85,19.15,12.43,11.42,5.47,1.86
Seevetal,53.4,9.96667,DE,41266,2833564,Seevetal,4.17,6.51,7.41,8.04,13.63,15.28,16.28,18.33,12.45,11.14,5.22,2.12
Seesen,51.89095,10.17847,DE,21909,2833592,Seesen,3.11,5.74,6.89,7.29,13.41,15.34,16.27,18.68,11.69,10.76,4.73,0.83
Seelze,52.39635,9.59727,DE,32899,2833641,Seelze,4.45,7.06,7.83,8.26,14.04,15.87,17.1,19.29,12.64,11.64,5.66,2.24
Schwetzingen,49.38217,8.5823,DE,22593,2834240,Schwetzingen,2.99,7.19,8.42,8.76,16.07,17.06,19.14,21.48,13.89,12.29,5.9,1.54
Schwerte,51.44387,7.5675,DE,50399,2834265,Schwerte,4.34,6.91,7.78,8.01,14.1,15.53,16.84,19.31,12.38,12.3,5.67,2.11
Schwerin,53.62937,11.41316,DE,96641,2834282,Schwerin,3.94,6.13,7.23,8.03,13.48,15.53,16.46,18.18,12.33,10.84,5.13,1.69
Schwelm,51.28635,7.29388,DE,30235,2834372,Schwelm,3.85,6.3,7.25,7.49,13.66,14.94,16.32,18.81,11.84,11.81,5.18,1.69
Schweinfurt,50.04937,10.22175,DE,54012,2834498,Schweinfurt,1.9,5.41,7.22,7.75,14.68,15.91,17.53,19.82,12.5,10.49,4.86,0.54
Schwedt (Oder),53.05963,14.28154,DE,30189,2834629,Schwedt (Oder),3.72,6.13,7.64,8.72,14.31,16.55,17.18,18.98,12.68,10.69,5.22,0.76
Schwarzenberg,50.53791,12.78522,DE,16168,2834978,Schwarzenberg,1.35,4.71,5.97,6.49,13.07,15.17,15.91,18.23,11.18,9.51,3.65,-1.41
Schwanewede,53.23333,8.6,DE,20015,2835260,Schwanewede,4.66,6.94,7.7,8.21,13.52,15.28,16.23,18.12,12.54,11.63,5.6,2.9
Schwandorf in Bayern,49.32534,12.1098,DE,28235,2835297,Schwandorf in Bayern,0.28,4.29,7.09,7.38,14.77,15.92,17.7,19.61,12.51,10.21,4.42,-0.38
Schwalmtal,51.21667,6.26667,DE,19435,2835342,Schwalmtal,5.15,7.61,8.24,8.43,14.47,15.79,17.39,19.71,13.0,12.68,6.14,3.1
Schwalmstadt,50.93333,9.21667,DE,19279,2835345,Schwalmstadt,2.51,5.51,6.98,7.29,13.62,15.27,16.57,18.97,11.77,10.6,4.79,0.8
Schwalbach,49.3,6.81667,DE,18708,2835382,Schwalbach,2.82,6.89,7.73,8.12,15.32,16.01,18.55,20.39,13.16,11.86,5.52,1.49
Schwäbisch Hall,49.11127,9.73908,DE,36543,2835481,Schwäbisch Hall,1.98,5.94,7.3,7.68,14.83,15.64,17.77,20.1,12.76,11.32,4.85,0.24
Schwäbisch Gmünd,48.79947,9.79809,DE,61216,2835482,Schwäbisch Gmünd,1.94,6.37,7.55,7.84,15.03,15.78,17.9,19.87,13.03,11.6,4.94,-0.13
Schwabach,49.33047,11.02346,DE,38554,2835537,Schwabach,1.73,5.51,7.43,7.6,15.05,16.02,17.78,19.84,12.7,11.03,4.76,0.19
Schrobenhausen,48.56067,11.26071,DE,16143,2836084,Schrobenhausen,0.35,5.36,7.53,7.5,14.78,15.66,17.6,19.35,12.72,10.84,4.53,0.02
Schramberg,48.22399,8.38583,DE,18565,2836203,Schramberg,2.44,6.62,7.41,7.44,14.84,15.68,18.0,19.62,13.14,12.03,4.38,-0.48
Schortens,53.53333,7.95,DE,21357,2836282,Schortens,4.79,6.85,7.6,8.1,13.18,15.02,15.92,17.69,12.68,11.51,5.78,3.33
Schorndorf,48.80537,9.52721,DE,39697,2836320,Schorndorf,2.07,6.48,7.61,8.0,15.1,15.87,17.95,19.95,13.16,11.73,5.12,0.06
Schopfheim,47.65105,7.82089,DE,19386,2836413,Schopfheim,1.46,6.56,7.79,7.7,15.37,15.97,18.58,19.88,13.86,12.03,4.56,0.21
Schöneberg,52.46667,13.35,DE,122658,2836788,Schöneberg,3.53,6.17,7.66,8.63,14.87,16.53,17.31,19.44,12.81,10.71,5.29,0.52
Schönebeck,52.01682,11.7307,DE,30387,2836809,Schönebeck,3.77,6.7,7.96,8.42,14.7,16.53,17.64,19.94,13.01,11.14,5.69,1.49
Schneverdingen,53.11685,9.79524,DE,19199,2837291,Schneverdingen,3.96,6.38,7.25,7.89,13.66,15.23,16.27,18.51,12.21,11.09,5.11,1.92
Schnelsen,53.6374,9.91829,DE,30100,2837343,Schnelsen,4.26,6.52,7.38,8.07,13.61,15.26,16.26,18.21,12.51,11.15,5.22,2.26
Schneeberg,50.59465,12.64139,DE,16784,2837470,Schneeberg,1.2,4.61,5.8,6.3,12.83,14.97,15.69,18.05,10.98,9.38,3.49,-1.54
Schmelz,49.43333,6.85,DE,17596,2837954,Schmelz,2.83,6.78,7.66,8.06,15.24,15.99,18.43,20.29,13.08,11.79,5.47,1.39
Schmargendorf,52.47517,13.29071,DE,22733,2838009,Schmargendorf,3.55,6.24,7.68,8.63,14.84,16.52,17.28,19.41,12.79,10.75,5.29,0.61
Schmallenberg,51.15473,8.28505,DE,26132,2838053,Schmallenberg,2.39,4.78,5.79,6.19,12.3,13.76,14.98,17.31,10.54,10.31,3.8,-0.05
Schmalkalden,50.72136,10.44386,DE,19553,2838059,Schmalkalden,2.03,5.25,6.73,7.01,13.49,15.22,16.36,18.86,11.67,10.33,4.39,-0.27
Schlüchtern,50.34891,9.52532,DE,17260,2838201,Schlüchtern,2.47,5.84,7.4,7.98,14.87,16.05,17.56,20.04,12.54,11.07,5.21,0.85
Schleswig,54.52156,9.5586,DE,24114,2838634,Schleswig,4.27,6.14,6.8,7.68,13.05,14.84,15.73,17.26,12.4,10.84,4.94,2.65
Schkeuditz,51.39678,12.22141,DE,18487,2839050,Schkeuditz,3.29,6.72,7.82,8.28,14.49,16.68,17.78,20.19,13.05,11.19,5.56,1.24
Schiffweiler,49.36667,7.13333,DE,15780,2839316,Schiffweiler,2.39,6.28,7.24,7.51,14.68,15.45,17.92,19.79,12.56,11.36,4.95,0.82
Schifferstadt,49.38417,8.3775,DE,19209,2839335,Schifferstadt,2.87,7.25,8.46,8.73,16.16,17.22,19.41,21.79,13.98,12.29,5.89,1.52
Bad Saulgau,48.01676,9.50064,DE,17911,2841125,Bad Saulgau,0.18,4.92,6.62,6.45,13.88,14.73,16.83,18.3,12.38,10.81,3.3,-1.43
Sasel,53.65385,10.11184,DE,23131,2841374,Sasel,4.16,6.38,7.27,7.93,13.46,15.17,16.18,18.08,12.42,11.03,5.15,2.2
Sarstedt,52.23495,9.85411,DE,18718,2841386,Sarstedt,4.2,6.85,7.72,8.01,13.8,15.75,16.87,19.15,12.46,11.48,5.51,1.85
Sankt Wendel,49.46633,7.16814,DE,26904,2841463,Sankt Wendel,2.57,6.42,7.4,7.61,14.77,15.56,17.91,19.86,12.64,11.47,5.03,0.91
Sankt Ingbert,49.27697,7.11672,DE,38697,2841590,Sankt Ingbert,2.86,6.88,7.89,8.01,15.29,15.94,18.62,20.55,13.13,12.01,5.44,1.35
Sankt Augustin,50.77538,7.197,DE,56094,2841648,Sankt Augustin,4.44,7.12,8.02,8.25,14.61,15.96,17.53,19.88,12.78,12.3,6.0,2.47
Sangerhausen,51.47221,11.29533,DE,23347,2841693,Sangerhausen,3.13,6.2,7.53,7.92,14.29,16.19,17.38,19.83,12.61,10.76,5.2,1.1
Salzwedel,52.85435,11.1525,DE,21058,2842112,Salzwedel,4.19,6.69,7.91,8.62,14.57,16.34,17.34,19.39,12.97,11.33,5.62,1.88
Salzkotten,51.6717,8.60092,DE,24561,2842131,Salzkotten,4.03,6.69,7.4,7.8,13.85,15.51,16.66,19.09,12.2,11.67,5.36,1.85
Salzgitter,52.15705,10.4154,DE,103866,2842150,Salzgitter,3.91,6.54,7.6,7.92,13.74,15.67,16.71,19.08,12.37,11.2,5.34,1.5
Saarlouis,49.31366,6.75154,DE,38333,2842632,Saarlouis,2.97,7.04,7.89,8.27,15.47,16.15,18.7,20.54,13.31,12.01,5.67,1.64
Saarbrücken,49.23262,7.00982,DE,179349,2842647,Saarbrücken,3.1,7.13,7.96,8.12,15.31,16.06,18.68,20.57,13.29,12.11,5.65,1.55
Saalfeld,50.64826,11.36536,DE,28023,2842688,Saalfeld,2.53,6.21,7.33,7.67,14.26,16.24,17.31,19.66,12.44,10.96,4.84,-0.11
Rüsselsheim,49.98955,8.42251,DE,59730,2842884,Rüsselsheim,2.9,6.69,8.14,8.61,15.89,17.05,18.79,21.22,13.44,11.86,5.82,1.51
Rummelsburg,52.50146,13.4934,DE,25697,2843106,Rummelsburg,3.51,6.18,7.67,8.65,14.89,16.56,17.31,19.43,12.82,10.7,5.28,0.51
Rudow,52.42407,13.48529,DE,42631,2843350,Rudow,3.57,6.28,7.75,8.72,15.06,16.66,17.43,19.55,12.92,10.79,5.38,0.64
Rudolstadt,50.72043,11.34046,DE,25476,2843355,Rudolstadt,2.68,6.34,7.49,7.85,14.45,16.39,17.46,19.81,12.61,11.12,4.98,0.07
Rottweil,48.16783,8.62719,DE,25510,2843636,Rottweil,0.9,4.95,6.06,5.89,13.27,14.25,16.38,17.95,11.79,10.36,2.74,-2.08
Rottenburg,48.47629,8.93528,DE,42721,2843729,Rottenburg,2.05,6.38,7.33,7.28,14.54,15.51,17.65,19.62,12.99,11.59,4.26,-0.66
Rotherbaum,53.56999,9.99449,DE,17114,2843965,Rotherbaum,4.21,6.44,7.3,8.03,13.59,15.27,16.29,18.22,12.49,11.08,5.17,2.18
Roth,49.24762,11.09111,DE,25083,2844265,Roth,1.57,5.48,7.54,7.72,15.2,16.11,17.97,19.93,12.82,11.1,4.8,0.13
Rotenburg,53.11125,9.41082,DE,22139,2844437,Rotenburg,4.46,6.89,7.74,8.33,13.99,15.56,16.59,18.79,12.62,11.62,5.55,2.54
Rostock,54.0887,12.14049,DE,198293,2844588,Rostock,4.07,6.13,7.12,8.06,13.4,15.77,16.58,18.19,12.52,10.79,5.29,1.93
Rösrath,50.89559,7.18175,DE,26868,2844862,Rösrath,4.24,6.87,7.8,8.13,14.5,15.79,17.32,19.74,12.54,12.14,5.8,2.31
Rosenheim,47.85637,12.12247,DE,60167,2844988,Rosenheim,-1.92,4.27,7.21,7.1,14.08,15.44,17.33,18.53,12.68,10.61,3.55,-2.33
Ronnenberg,52.31939,9.65544,DE,23416,2845222,Ronnenberg,4.29,6.91,7.7,8.06,13.84,15.72,16.91,19.12,12.47,11.51,5.53,2.03
Rissen,53.58453,9.76594,DE,16051,2846455,Rissen,4.26,6.54,7.4,8.05,13.57,15.2,16.18,18.14,12.49,11.16,5.2,2.29
Rinteln,52.18604,9.07917,DE,27843,2846523,Rinteln,4.55,7.21,7.97,8.25,14.14,15.93,17.13,19.36,12.62,12.02,5.79,2.5
Rietberg,51.80924,8.42841,DE,28672,2846843,Rietberg,4.23,6.81,7.52,7.92,13.98,15.68,16.97,19.39,12.3,11.82,5.46,2.17
Riesa,51.30777,13.29168,DE,37156,2846939,Riesa,3.36,6.79,8.01,8.45,14.68,16.91,17.85,20.15,13.2,11.24,5.54,1.07
Riegelsberg,49.3,6.93333,DE,15647,2847033,Riegelsberg,2.29,6.29,7.19,7.5,14.71,15.43,17.98,19.85,12.56,11.31,4.94,0.88
Ribnitz-Damgarten,54.2422,12.45666,DE,17152,2847524,Ribnitz-Damgarten,4.12,6.15,7.09,8.05,13.35,15.9,16.66,18.15,12.52,10.76,5.28,1.98
Rheinhausen,51.40055,6.71187,DE,78203,2847631,Rheinhausen,5.11,7.52,8.3,8.59,14.54,15.96,17.42,19.78,13.04,12.7,6.21,3.13
Rheinfelden,47.56013,7.78715,DE,32535,2847639,Rheinfelden,1.51,6.68,8.03,8.02,15.65,16.31,18.88,20.23,14.22,12.2,4.94,0.66
Rheine,52.28509,7.44055,DE,76491,2847645,Rheine,4.71,7.11,7.78,8.29,14.02,15.53,16.68,19.08,12.54,12.08,5.56,2.99
Rheinberg,51.54649,6.59525,DE,32188,2847662,Rheinberg,5.18,7.48,8.26,8.53,14.39,15.88,17.36,19.66,13.02,12.6,6.18,3.21
Rheinbach,50.62562,6.94911,DE,26262,2847666,Rheinbach,4.3,6.95,7.75,7.81,14.03,15.49,17.26,19.63,12.57,12.1,5.7,2.02
Rhede,51.83537,6.69602,DE,19140,2847689,Rhede,5.04,7.37,8.15,8.54,14.43,15.76,17.17,19.5,12.89,12.46,5.96,3.22
Rheda-Wiedenbrück,51.84967,8.30017,DE,46123,2847690,Rheda-Wiedenbrück,4.36,6.9,7.61,7.98,14.01,15.73,17.05,19.47,12.38,11.92,5.56,2.31
Reutlingen,48.49144,9.20427,DE,112627,2847736,Reutlingen,1.61,5.97,7.05,7.14,14.25,15.2,17.29,19.31,12.69,11.2,4.14,-0.81
Renningen,48.76974,8.93871,DE,17442,2848175,Renningen,2.11,6.25,7.21,7.21,14.22,15.24,17.46,19.36,12.66,11.46,4.48,-0.31
Rendsburg,54.30663,9.66313,DE,28323,2848245,Rendsburg,4.35,6.34,7.06,7.85,13.3,15.05,15.92,17.53,12.53,11.02,5.13,2.69
Remscheid,51.17983,7.1925,DE,117118,2848273,Remscheid,3.14,5.57,6.56,6.8,13.05,14.28,15.72,18.2,11.16,11.06,4.49,1.07
Remagen,50.57879,7.22703,DE,16280,2848335,Remagen,4.73,7.44,8.2,8.39,14.64,16.17,17.78,20.14,13.04,12.46,6.21,2.63
Reinickendorf,52.56667,13.33333,DE,83972,2848756,Reinickendorf,3.63,6.31,7.73,8.64,14.77,16.52,17.25,19.33,12.78,10.82,5.33,0.7
Reinheim,49.82923,8.83572,DE,17841,2848762,Reinheim,3.16,6.86,7.95,8.41,15.55,16.69,18.49,20.89,13.23,11.83,5.72,1.46
Reinbek,53.51703,10.2488,DE,25261,2848845,Reinbek,4.12,6.43,7.36,8.03,13.61,15.26,16.28,18.29,12.45,11.05,5.18,2.07
Reichenbach/Vogtland,50.62279,12.30344,DE,22530,2849156,Reichenbach/Vogtland,1.61,5.17,6.35,6.69,13.12,15.31,16.12,18.51,11.38,9.94,3.99,-0.92
Regensburg,49.01513,12.10161,DE,129151,2849483,Regensburg,-0.0,4.46,7.4,7.68,14.97,16.03,17.84,19.65,12.79,10.35,4.61,-0.34
Rees,51.76263,6.39778,DE,22544,2849548,Rees,5.14,7.41,8.11,8.51,14.22,15.61,17.01,19.2,13.0,12.41,6.05,3.35
Recklinghausen,51.61379,7.19738,DE,122438,2849647,Recklinghausen,4.72,7.23,7.99,8.21,14.17,15.73,17.11,19.63,12.63,12.34,5.76,2.69
Ravensburg,47.78198,9.61062,DE,48825,2849802,Ravensburg,0.21,4.89,7.28,7.15,14.94,15.54,17.81,19.32,13.52,11.76,4.54,-0.63
Ratingen,51.29724,6.84929,DE,91606,2850174,Ratingen,4.82,7.31,8.1,8.42,14.49,15.81,17.25,19.68,12.83,12.56,6.01,2.82
Rathenow,52.60659,12.33696,DE,27115,2850213,Rathenow,3.91,6.56,7.9,8.63,14.73,16.53,17.4,19.43,12.92,11.1,5.52,1.27
Ratekau,53.95,10.73333,DE,15921,2850235,Ratekau,4.19,6.32,7.25,7.96,13.36,15.41,16.37,18.07,12.54,11.01,5.36,2.33
Rastede,53.25,8.2,DE,20046,2850253,Rastede,4.69,6.87,7.65,8.12,13.33,15.09,16.0,17.79,12.49,11.55,5.58,3.03
Rastatt,48.85851,8.20965,DE,47906,2850257,Rastatt,2.85,7.5,8.35,8.53,15.93,16.76,19.13,21.26,14.05,12.51,5.62,0.95
Rahlstedt,53.60194,10.15667,DE,92511,2850872,Rahlstedt,4.23,6.49,7.41,8.06,13.6,15.29,16.32,18.27,12.51,11.12,5.26,2.21
Rahden,52.43367,8.61263,DE,16140,2850887,Rahden,4.53,7.15,7.91,8.28,14.11,15.79,17.02,19.21,12.57,11.93,5.69,2.68
Radolfzell,47.74194,8.97098,DE,30096,2850954,Radolfzell,1.5,6.14,7.85,7.7,15.27,16.05,18.26,19.67,13.89,12.07,4.79,0.06
Radevormwald,51.20219,7.36027,DE,24100,2850995,Radevormwald,2.99,5.37,6.41,6.68,12.88,14.18,15.61,18.0,11.02,10.94,4.42,0.77
Radebeul,51.10654,13.66047,DE,32643,2851077,Radebeul,2.97,6.2,7.67,8.04,14.35,16.64,17.56,19.71,12.89,10.82,5.24,0.31
Radeberg,51.11112,13.91199,DE,18747,2851079,Radeberg,2.24,5.38,6.94,7.35,13.63,15.9,16.77,18.94,12.1,10.12,4.52,-0.31
Quickborn,53.72831,9.90934,DE,20410,2851343,Quickborn,4.21,6.44,7.32,7.98,13.5,15.15,16.16,18.08,12.46,11.09,5.17,2.29
Quedlinburg,51.78843,11.15006,DE,22814,2851465,Quedlinburg,3.47,6.4,7.6,7.94,14.13,16.05,17.17,19.61,12.66,10.86,5.26,1.2
Püttlingen,49.2855,6.88723,DE,21052,2851584,Püttlingen,2.79,6.79,7.69,8.0,15.21,15.93,18.48,20.35,13.06,11.81,5.44,1.38
Pulheim,50.99965,6.80632,DE,53762,2851746,Pulheim,4.94,7.45,8.22,8.39,14.63,16.02,17.67,20.16,13.0,12.64,6.14,2.9
Puchheim,48.15,11.35,DE,19357,2851782,Puchheim,-1.38,4.61,6.99,6.73,13.82,14.94,16.91,18.35,12.31,10.67,3.82,-1.48
Prenzlauer Berg,52.53878,13.42443,DE,148878,2852217,Prenzlauer Berg,3.48,6.12,7.61,8.57,14.82,16.49,17.26,19.39,12.76,10.66,5.24,0.47
Prenzlau,53.31625,13.86261,DE,20899,2852218,Prenzlau,3.65,5.94,7.35,8.37,13.89,16.22,16.94,18.74,12.42,10.53,5.04,0.66
Preetz,54.2354,10.27795,DE,15768,2852280,Preetz,4.15,6.17,6.92,7.73,13.14,15.12,16.08,17.66,12.33,10.81,5.09,2.32
Potsdam,52.39886,13.06566,DE,182112,2852458,Potsdam,3.78,6.62,8.0,8.86,15.09,16.74,17.52,19.63,13.01,11.06,5.55,0.99
Porz am Rhein,50.88637,7.0583,DE,113415,2852566,Porz am Rhein,4.52,7.19,8.04,8.32,14.68,15.99,17.56,19.99,12.8,12.38,6.01,2.57
Porta Westfalica,52.22961,8.91612,DE,36364,2852577,Porta Westfalica,4.38,7.06,7.77,8.1,13.97,15.76,16.96,19.19,12.45,11.88,5.61,2.38
Poppenbüttel,53.65917,10.08472,DE,24135,2852673,Poppenbüttel,4.21,6.43,7.32,7.98,13.52,15.22,16.23,18.13,12.47,11.08,5.2,2.25
Plettenberg,51.20949,7.87261,DE,28206,2853209,Plettenberg,3.67,6.07,7.0,7.33,13.41,14.91,16.21,18.56,11.7,11.58,5.07,1.2
Plauen,50.4973,12.13782,DE,66412,2853292,Plauen,1.63,5.18,6.47,6.84,13.32,15.48,16.28,18.69,11.57,10.11,4.15,-0.73
Pirna,50.95843,13.93702,DE,40322,2853572,Pirna,2.84,6.09,7.7,8.16,14.56,16.79,17.66,19.72,12.98,10.68,5.24,0.31
Pirmasens,49.20145,7.60529,DE,43582,2853574,Pirmasens,1.84,6.03,7.0,7.19,14.35,15.18,17.63,19.73,12.38,11.06,4.46,0.15
Pinneberg,53.66732,9.78936,DE,40577,2853658,Pinneberg,4.31,6.55,7.41,8.05,13.55,15.21,16.2,18.11,12.54,11.19,5.25,2.41
Pfungstadt,49.80557,8.60307,DE,25084,2853924,Pfungstadt,3.05,6.81,8.05,8.49,15.77,16.9,18.77,21.16,13.38,11.85,5.75,1.53
Pfullingen,48.46458,9.22796,DE,18269,2853928,Pfullingen,1.65,5.99,6.97,6.95,14.11,15.05,17.15,19.15,12.57,11.19,3.95,-1.0
Pforzheim,48.88436,8.69892,DE,119313,2853969,Pforzheim,2.73,7.08,7.99,8.16,15.24,16.18,18.43,20.56,13.48,12.08,5.41,0.93
Pfaffenhofen an der Ilm,48.53053,11.505,DE,23192,2854386,Pfaffenhofen an der Ilm,0.25,5.51,7.7,7.64,14.81,15.74,17.68,19.34,12.84,11.1,4.65,-0.1
Petershagen,52.37513,8.96538,DE,27090,2854655,Petershagen,4.45,7.08,7.75,8.17,13.87,15.77,17.01,19.13,12.53,11.71,5.63,2.45
Penzberg,47.75293,11.377,DE,16079,2854923,Penzberg,-2.16,3.9,6.21,6.14,13.23,14.6,16.61,17.8,12.12,10.55,2.78,-2.65
Peine,52.31928,10.2352,DE,49953,2855047,Peine,4.12,6.75,7.76,8.06,13.95,15.73,16.86,19.2,12.45,11.39,5.47,1.78
Passau,48.5665,13.43122,DE,50560,2855328,Passau,-1.15,4.08,7.32,7.5,14.82,15.7,17.34,18.88,12.17,10.42,3.93,-1.28
Pasing,48.14146,11.45599,DE,35728,2855334,Pasing,-1.47,4.51,6.89,6.66,13.7,14.84,16.77,18.22,12.17,10.49,3.69,-1.67
Parchim,53.42631,11.84875,DE,19161,2855441,Parchim,3.86,6.08,7.28,8.11,13.74,15.71,16.55,18.38,12.33,10.86,5.1,1.47
Papenburg,53.07738,7.40444,DE,34117,2855525,Papenburg,4.9,7.03,7.82,8.36,13.48,15.2,16.1,17.89,12.64,11.76,5.74,3.32
Pankow,52.56926,13.40186,DE,65375,2855598,Pankow,3.59,6.24,7.68,8.61,14.75,16.49,17.21,19.31,12.74,10.76,5.29,0.64
Paderborn,51.71905,8.75439,DE,142161,2855745,Paderborn,3.98,6.58,7.33,7.76,13.84,15.52,16.71,19.09,12.09,11.58,5.3,1.89
Oyten,53.05,9.01667,DE,15286,2855794,Oyten,4.49,6.9,7.72,8.23,13.76,15.41,16.42,18.44,12.52,11.59,5.46,2.62
Overath,50.93275,7.28389,DE,27203,2855859,Overath,4.12,6.71,7.72,8.09,14.46,15.74,17.24,19.64,12.45,12.05,5.76,2.13
Ottweiler,49.40133,7.16424,DE,15503,2855917,Ottweiler,2.61,6.53,7.48,7.74,14.91,15.69,18.13,20.07,12.79,11.6,5.14,1.0
Ottobrunn bei München,48.06489,11.66327,DE,19204,2855935,Ottobrunn bei München,-1.77,4.08,6.63,6.44,13.41,14.59,16.46,17.88,11.86,10.09,3.39,-2.05
Ottensen,53.55,9.91667,DE,35136,2856075,Ottensen,4.11,6.37,7.23,7.92,13.46,15.11,16.11,18.06,12.36,11.0,5.07,2.11
Othmarschen,53.55173,9.88632,DE,16009,2856163,Othmarschen,4.26,6.52,7.38,8.07,13.61,15.26,16.26,18.21,12.51,11.15,5.22,2.26
Osterholz-Scharmbeck,53.22698,8.79528,DE,31405,2856500,Osterholz-Scharmbeck,4.5,6.84,7.66,8.15,13.6,15.26,16.22,18.18,12.44,11.53,5.45,2.71
Osnabrück,52.27264,8.0498,DE,166462,2856883,Osnabrück,4.52,7.04,7.74,8.18,14.03,15.63,16.82,19.13,12.42,11.97,5.54,2.73
Osdorf,53.57982,9.85826,DE,26420,2856915,Osdorf,4.16,6.42,7.28,7.97,13.51,15.16,16.16,18.11,12.41,11.05,5.12,2.16
Oschersleben,52.03039,11.22898,DE,19396,2856930,Oschersleben,3.75,6.46,7.71,8.03,14.14,16.01,17.13,19.5,12.68,10.96,5.46,1.45
Oschatz,51.30001,13.10984,DE,16000,2856944,Oschatz,3.4,6.85,7.99,8.42,14.59,16.85,17.78,20.11,13.13,11.28,5.57,1.13
Oranienburg,52.75577,13.24197,DE,40793,2857129,Oranienburg,3.71,6.33,7.72,8.64,14.71,16.5,17.2,19.17,12.71,10.86,5.29,0.87
Opladen,51.06863,7.00387,DE,23000,2857185,Opladen,4.75,7.37,8.23,8.58,14.86,16.09,17.58,20.09,12.97,12.65,6.15,2.82
Olsberg,51.35613,8.48899,DE,15814,2857291,Olsberg,3.16,5.67,6.51,6.67,12.76,14.31,15.55,18.04,11.14,10.9,4.44,0.84
Olpe,51.02899,7.85139,DE,25686,2857306,Olpe,2.45,5.0,6.34,6.89,13.29,14.39,15.76,18.15,11.06,10.75,4.32,0.42
Oldenburg,53.14118,8.21467,DE,159218,2857458,Oldenburg,4.75,7.04,7.85,8.32,13.63,15.34,16.28,18.18,12.58,11.74,5.63,3.03
Olching,48.2,11.33333,DE,23978,2857472,Olching,-0.85,5.06,7.3,7.04,14.27,15.28,17.21,18.79,12.55,10.9,4.16,-0.83
Öhringen,49.19884,9.5072,DE,22765,2857565,Öhringen,2.41,6.31,7.72,8.16,15.28,16.09,18.2,20.51,13.23,11.73,5.33,0.84
Offenburg,48.47377,7.94495,DE,59238,2857798,Offenburg,2.73,7.32,8.16,8.25,15.59,16.5,18.78,20.97,13.97,12.51,5.35,0.95
Offenbach,50.10061,8.76647,DE,119192,2857807,Offenbach,2.87,6.48,7.93,8.42,15.59,16.83,18.51,21.03,13.25,11.63,5.69,1.32
Oerlinghausen,51.95453,8.6622,DE,17403,2857900,Oerlinghausen,3.38,6.0,6.75,7.09,13.15,14.81,16.05,18.4,11.43,10.99,4.64,1.38
Oer-Erkenschwick,51.64198,7.26451,DE,30409,2857904,Oer-Erkenschwick,4.73,7.28,8.03,8.23,14.19,15.77,17.12,19.65,12.66,12.39,5.79,2.68
Oelde,51.8289,8.14724,DE,29297,2857943,Oelde,4.39,6.87,7.57,7.86,13.84,15.59,16.96,19.37,12.31,11.91,5.48,2.34
Odenthal,51.03333,7.11667,DE,15619,2858103,Odenthal,4.41,7.08,7.99,8.37,14.75,15.95,17.44,19.97,12.72,12.38,5.95,2.53
Ochtrup,52.20802,7.18988,DE,19441,2858245,Ochtrup,4.65,7.05,7.76,8.23,14.01,15.43,16.64,19.06,12.49,12.06,5.48,2.92
Oberursel,50.20731,8.57747,DE,46678,2858738,Oberursel,2.62,5.9,7.51,7.73,14.76,16.07,17.74,20.14,12.61,11.27,5.28,1.03
Obertshausen,50.07139,8.85123,DE,24459,2858763,Obertshausen,2.68,6.28,7.72,8.26,15.39,16.61,18.25,20.77,13.05,11.4,5.5,1.12
Oberschöneweide,52.46106,13.52108,DE,23638,2859103,Oberschöneweide,3.57,6.23,7.72,8.69,14.94,16.61,17.36,19.48,12.87,10.76,5.33,0.56
Ober-Ramstadt,49.83078,8.74887,DE,15367,2859380,Ober-Ramstadt,2.67,6.39,7.52,7.97,15.17,16.31,18.14,20.54,12.82,11.4,5.27,1.04
Oberkirch,48.53241,8.07864,DE,20375,2860080,Oberkirch,2.72,7.22,8.04,8.25,15.58,16.45,18.76,20.85,13.86,12.36,5.31,0.83
Oberhausen,51.47805,6.8625,DE,219176,2860410,Oberhausen,4.93,7.35,8.16,8.43,14.38,15.86,17.31,19.75,12.86,12.53,6.01,2.94
Oberasbach,49.42275,10.95766,DE,17306,2861402,Oberasbach,1.63,5.33,7.22,7.5,14.88,15.92,17.59,19.69,12.55,10.81,4.66,0.01
Nürtingen,48.62565,9.34203,DE,40210,2861632,Nürtingen,1.9,6.35,7.57,7.83,14.97,15.79,17.85,19.9,13.18,11.61,4.85,-0.23
Nürnberg,49.45421,11.07752,DE,515543,2861650,Nürnberg,1.52,5.15,7.07,7.52,14.88,15.93,17.56,19.63,12.47,10.67,4.62,-0.01
Nümbrecht,50.90427,7.54063,DE,17427,2861677,Nümbrecht,2.87,5.49,6.64,7.08,13.51,14.7,16.12,18.56,11.32,10.96,4.67,0.86
Nottuln,51.93333,7.35,DE,20427,2861733,Nottuln,4.5,6.89,7.6,7.95,13.86,15.49,16.82,19.32,12.35,11.9,5.39,2.62
Northeim,51.70662,9.99997,DE,30894,2861814,Northeim,3.26,6.26,7.41,7.81,14.1,15.86,16.82,19.27,12.17,11.1,5.15,1.25
Nördlingen,48.85122,10.48868,DE,19492,2861914,Nördlingen,0.93,5.2,7.05,7.06,14.41,15.34,17.31,19.29,12.36,10.63,4.25,-0.51
Nordhorn,52.43081,7.06833,DE,52803,2861934,Nordhorn,4.88,7.14,7.81,8.35,13.94,15.44,16.56,18.88,12.63,12.09,5.62,3.21
Nordhausen,51.5018,10.7957,DE,43912,2861982,Nordhausen,2.34,5.36,6.96,7.36,13.86,15.55,16.59,19.18,11.92,10.22,4.56,0.31
Norderstedt,53.6859,9.98041,DE,71439,2862026,Norderstedt,4.21,6.44,7.31,7.98,13.52,15.19,16.2,18.1,12.47,11.08,5.18,2.27
Nordenham,53.4861,8.48093,DE,27714,2862104,Nordenham,4.64,6.83,7.65,8.2,13.39,15.1,15.98,17.84,12.71,11.53,5.7,3.11
Norden,53.59552,7.20639,DE,24767,2862118,Norden,5.1,6.93,7.61,8.18,12.8,14.77,15.73,17.55,13.29,11.8,6.65,4.16
Nippes,50.96545,6.95314,DE,113487,2862375,Nippes,4.64,7.29,8.15,8.49,14.83,16.08,17.62,20.14,12.91,12.54,6.09,2.73
Niendorf,53.61769,9.95032,DE,40906,2862606,Niendorf,4.21,6.44,7.3,8.03,13.59,15.27,16.29,18.22,12.49,11.08,5.17,2.18
Nienburg,52.6461,9.22086,DE,32629,2862620,Nienburg,4.53,7.08,7.81,8.26,14.0,15.76,16.95,19.09,12.61,11.73,5.68,2.51
Niederschönhausen,52.58483,13.40272,DE,32037,2862888,Niederschönhausen,3.54,6.19,7.63,8.56,14.7,16.45,17.16,19.26,12.69,10.71,5.23,0.59
Niederkrüchten,51.2,6.21667,DE,15487,2863199,Niederkrüchten,5.21,7.67,8.29,8.51,14.57,15.86,17.48,19.81,13.09,12.73,6.2,3.17
Niederkassel,50.81503,7.03777,DE,36480,2863223,Niederkassel,4.73,7.4,8.12,8.28,14.54,16.01,17.63,20.02,12.93,12.46,6.09,2.65
Nieder-Ingelheim,49.97756,8.07246,DE,24596,2863240,Nieder-Ingelheim,3.09,6.75,8.1,8.42,15.57,16.79,18.53,20.93,13.29,11.88,5.79,1.55
Nidderau,50.23805,8.86704,DE,20090,2863712,Nidderau,2.62,6.15,7.72,8.22,15.29,16.56,18.15,20.72,13.04,11.38,5.55,1.11
Nidda,50.4133,9.00638,DE,18241,2863716,Nidda,2.71,6.09,7.6,8.11,14.98,16.25,17.73,20.24,12.75,11.31,5.49,1.16
Neu Wulmstorf,53.46667,9.8,DE,20150,2863795,Neu Wulmstorf,4.42,6.73,7.58,8.2,13.74,15.37,16.36,18.37,12.61,11.35,5.38,2.42
Neuwied,50.4336,7.47057,DE,66805,2863840,Neuwied,3.88,6.86,7.9,8.33,14.93,16.32,17.84,20.16,13.02,11.86,6.06,1.9
Neu-Ulm,48.39279,10.01112,DE,51389,2863941,Neu-Ulm,0.33,5.54,6.99,6.86,14.18,15.1,17.15,18.92,12.54,10.87,3.94,-0.89
Neustrelitz,53.3613,13.07292,DE,22291,2864005,Neustrelitz,3.56,5.82,7.12,8.18,13.82,15.91,16.53,18.35,12.25,10.56,4.93,0.9
Neustadt in Holstein,54.10707,10.8145,DE,16176,2864034,Neustadt in Holstein,4.3,6.34,7.24,7.99,13.37,15.55,16.5,18.18,12.76,11.15,5.6,2.59
Neustadt bei Coburg,50.32975,11.12058,DE,16715,2864053,Neustadt bei Coburg,0.82,4.37,6.28,6.97,14.03,15.29,16.66,18.97,11.57,9.83,3.79,-1.03
Neustadt,49.35009,8.13886,DE,53984,2864054,Neustadt,3.09,7.13,8.38,8.51,15.82,16.9,19.04,21.38,13.73,12.16,5.82,1.64
Neustadt am Rübenberge,52.50462,9.45871,DE,45942,2864058,Neustadt am Rübenberge,4.42,6.98,7.74,8.22,14.0,15.81,17.04,19.22,12.59,11.58,5.61,2.28
Neue Neustadt,52.15,11.63333,DE,226851,2864072,Neue Neustadt,3.75,6.49,7.88,8.4,14.73,16.49,17.62,19.86,12.95,11.03,5.64,1.43
Neuss,51.19807,6.68504,DE,152457,2864118,Neuss,4.99,7.46,8.24,8.52,14.6,15.99,17.52,19.94,13.01,12.66,6.13,2.96
Neuruppin,52.92815,12.80311,DE,31901,2864276,Neuruppin,3.71,6.16,7.5,8.42,14.36,16.26,16.99,18.83,12.58,10.75,5.21,0.91
Neunkirchen,49.34449,7.18045,DE,49843,2864435,Neunkirchen,2.39,6.41,7.38,7.57,14.8,15.51,18.1,20.06,12.68,11.51,4.96,0.83
Neumünster,54.07477,9.98195,DE,80196,2864475,Neumünster,4.22,6.3,7.07,7.81,13.3,15.07,16.02,17.69,12.37,10.94,5.09,2.4
Neumarkt in der Oberpfalz,49.28028,11.46278,DE,39557,2864549,Neumarkt in der Oberpfalz,1.29,4.99,7.21,7.31,14.7,15.7,17.48,19.42,12.34,10.68,4.51,-0.2
Neukölln,52.47719,13.43126,DE,164636,2864695,Neukölln,3.48,6.12,7.61,8.57,14.82,16.49,17.26,19.39,12.76,10.66,5.24,0.47
Neu-Isenburg,50.04832,8.69406,DE,35293,2864820,Neu-Isenburg,2.91,6.58,7.89,8.38,15.57,16.76,18.47,20.93,13.17,11.64,5.62,1.36
Neugraben-Fischbek,53.46579,9.84344,DE,32054,2865260,Neugraben-Fischbek,4.22,6.53,7.38,8.0,13.54,15.17,16.16,18.17,12.41,11.15,5.19,2.22
Neufahrn bei Freising,48.31588,11.66316,DE,18255,2865376,Neufahrn bei Freising,-0.82,5.19,7.72,7.52,14.71,15.66,17.62,19.15,12.8,10.87,4.33,-0.97
Neuenhagen,52.52985,13.68914,DE,16170,2865716,Neuenhagen,3.44,6.16,7.65,8.62,14.84,16.55,17.25,19.33,12.76,10.64,5.2,0.49
Neuburg an der Donau,48.73218,11.18709,DE,28370,2866070,Neuburg an der Donau,0.52,5.35,7.61,7.61,14.96,15.85,17.84,19.64,12.9,10.86,4.65,0.24
Neubrück,51.13434,6.63857,DE,51109,2866110,Neubrück,5.13,7.55,8.29,8.43,14.54,15.97,17.61,20.05,13.07,12.72,6.19,3.06
Neubrandenburg,53.56414,13.27532,DE,68082,2866135,Neubrandenburg,3.85,6.04,7.31,8.28,13.73,16.1,16.75,18.51,12.39,10.68,5.06,1.15
Neu-Anspach,50.31667,8.5,DE,15276,2866280,Neu-Anspach,2.59,5.46,7.12,7.11,13.98,15.28,17.0,19.24,11.97,10.97,4.91,0.86
Nettetal,51.31667,6.28333,DE,42417,2866333,Nettetal,5.16,7.57,8.26,8.49,14.5,15.83,17.4,19.65,13.01,12.64,6.15,3.14
Netphen,50.91667,8.1,DE,25163,2866375,Netphen,2.55,5.11,6.52,7.13,13.61,14.78,16.14,18.41,11.4,10.65,4.58,0.55
Neckarsulm,49.18912,9.22527,DE,27413,2866758,Neckarsulm,2.58,6.76,8.13,8.53,15.73,16.46,18.71,20.96,13.64,12.03,5.55,1.15
Naumburg,51.14987,11.80979,DE,29722,2866906,Naumburg,3.34,6.9,7.88,8.26,14.42,16.72,17.8,20.18,13.05,11.23,5.58,1.36
Nauen,52.60701,12.87374,DE,16600,2866930,Nauen,3.73,6.51,7.89,8.72,14.84,16.57,17.36,19.35,12.84,10.98,5.37,1.0
Nagold,48.5498,8.72366,DE,22912,2867164,Nagold,1.96,6.33,7.16,7.12,14.42,15.4,17.55,19.47,12.85,11.49,4.15,-0.77
Munster,52.98569,10.08756,DE,17746,2867542,Munster,4.06,6.48,7.37,8.03,13.86,15.48,16.5,18.82,12.38,11.17,5.26,1.9
Münster,51.96236,7.62571,DE,270184,2867543,Münster,4.66,7.16,7.83,8.28,14.19,15.8,17.03,19.56,12.59,12.17,5.62,2.8
Hannoversch Münden,51.41505,9.65046,DE,25073,2867613,Hannoversch Münden,3.62,6.5,7.6,7.82,14.06,15.78,16.91,19.3,12.32,11.29,5.47,1.74
Munich,48.13743,11.57549,DE,1260391,2867714,Munich,-1.54,4.31,6.8,6.62,13.62,14.8,16.68,18.11,12.09,10.34,3.6,-1.84
Müllheim,47.8082,7.63035,DE,18097,2867770,Müllheim,1.88,6.78,7.88,8.03,15.62,16.37,19.2,20.78,14.27,12.38,5.25,1.13
Mülheim,51.43218,6.87967,DE,170921,2867838,Mülheim,4.99,7.46,8.25,8.53,14.57,15.93,17.35,19.81,12.94,12.71,6.15,3.0
Mühlheim am Main,50.11667,8.83333,DE,28534,2867985,Mühlheim am Main,2.87,6.48,7.93,8.42,15.59,16.83,18.51,21.03,13.25,11.63,5.69,1.32
Stuttgart Mühlhausen,48.84232,9.23028,DE,26111,2867993,Stuttgart Mühlhausen,2.53,6.83,8.01,8.31,15.4,16.22,18.46,20.51,13.56,12.06,5.41,0.88
Mühlhausen,51.20896,10.45275,DE,38108,2867996,Mühlhausen,2.42,5.61,7.02,7.24,13.51,15.4,16.46,18.98,11.88,10.24,4.66,0.31
Mühldorf,48.2467,12.52155,DE,17622,2868506,Mühldorf,-1.74,4.9,7.83,7.73,14.92,15.96,17.73,19.18,12.88,10.98,4.48,-1.25
Mühlacker,48.94754,8.83675,DE,26375,2868788,Mühlacker,2.93,7.28,8.19,8.36,15.44,16.38,18.63,20.76,13.68,12.28,5.61,1.13
Much,50.90383,7.40306,DE,15231,2868936,Much,3.22,5.77,6.83,7.25,13.63,14.92,16.37,18.76,11.57,11.15,4.93,1.13
Mössingen,48.40567,9.05419,DE,20010,2869019,Mössingen,1.21,5.51,6.55,6.48,13.69,14.66,16.79,18.8,12.19,10.75,3.42,-1.48
Mosbach,49.35357,9.15106,DE,25106,2869120,Mosbach,2.54,6.64,8.05,8.52,15.69,16.47,18.61,20.95,13.56,11.94,5.52,1.1
Moosburg,48.47089,11.93811,DE,17363,2869449,Moosburg,-0.02,5.44,7.8,7.77,14.98,15.88,17.82,19.43,12.91,11.09,4.63,-0.39
Monheim am Rhein,51.09162,6.89217,DE,43038,2869791,Monheim am Rhein,4.81,7.41,8.22,8.56,14.8,16.07,17.6,20.08,13.0,12.64,6.14,2.85
Mönchengladbach,51.18539,6.44172,DE,261742,2869894,Mönchengladbach,5.13,7.55,8.24,8.42,14.48,15.82,17.43,19.77,12.99,12.66,6.13,3.07
Mölln,53.61702,10.68742,DE,18469,2869994,Mölln,4.07,6.31,7.3,8.0,13.49,15.34,16.35,18.25,12.37,10.94,5.17,1.96
Moers,51.45342,6.6326,DE,103487,2870221,Moers,5.13,7.43,8.22,8.48,14.34,15.83,17.32,19.61,12.97,12.55,6.14,3.16
Moabit,52.52635,13.33903,DE,81021,2870310,Moabit,3.64,6.34,7.78,8.72,14.94,16.62,17.38,19.51,12.89,10.85,5.39,0.69
Mittweida,50.98622,12.97537,DE,16619,2870318,Mittweida,2.77,6.29,7.3,7.55,13.84,16.01,16.98,19.27,12.16,10.84,4.84,0.03
Minden,52.28953,8.91455,DE,82879,2871039,Minden,4.38,7.06,7.71,8.09,13.83,15.69,16.89,19.08,12.43,11.78,5.58,2.4
Michelstadt,49.67569,9.00373,DE,17279,2871284,Michelstadt,2.67,6.54,7.7,8.32,15.35,16.44,18.15,20.56,13.03,11.36,5.42,0.98
Metzingen,48.53695,9.2833,DE,22112,2871486,Metzingen,1.81,6.17,7.25,7.34,14.45,15.4,17.49,19.51,12.89,11.4,4.34,-0.61
Mettmann,51.2504,6.97536,DE,39550,2871535,Mettmann,4.45,6.94,7.78,8.03,14.16,15.44,16.85,19.33,12.42,12.29,5.68,2.44
Meschede,51.3502,8.28332,DE,32224,2871668,Meschede,3.47,5.95,6.71,6.92,12.97,14.58,15.77,18.25,11.38,11.2,4.68,1.08
Merzig,49.44331,6.63874,DE,31118,2871675,Merzig,3.17,7.04,7.81,8.22,15.28,16.04,18.53,20.3,13.24,11.96,5.77,1.86
Merseburg,51.35478,11.98923,DE,34780,2871736,Merseburg,3.33,6.79,7.88,8.36,14.61,16.75,17.9,20.31,13.13,11.21,5.59,1.31
Meppen,52.69064,7.29097,DE,34198,2871845,Meppen,4.85,7.1,7.85,8.41,13.73,15.36,16.31,18.35,12.6,11.94,5.65,3.19
Menden,51.44337,7.77825,DE,52452,2871983,Menden,4.09,6.6,7.46,7.64,13.72,15.21,16.54,18.94,12.04,12.01,5.39,1.77
Memmingen,47.98372,10.18527,DE,41135,2871992,Memmingen,-0.66,5.1,6.62,6.28,13.57,14.57,16.55,17.96,12.14,10.53,3.35,-1.44
Melle,52.20197,8.33826,DE,46514,2872079,Melle,4.45,6.98,7.64,8.01,13.82,15.61,16.8,19.08,12.34,11.87,5.53,2.58
Meissen,51.16158,13.4737,DE,28492,2872155,Meissen,3.27,6.58,7.88,8.23,14.43,16.72,17.67,19.92,13.01,11.15,5.44,0.69
Meiningen,50.56787,10.41521,DE,21580,2872225,Meiningen,1.43,4.71,6.65,7.19,14.01,15.42,16.74,19.08,11.83,10.04,4.23,-0.5
Meinerzhagen,51.1074,7.64838,DE,21982,2872237,Meinerzhagen,2.49,4.91,6.04,6.44,12.75,13.99,15.4,17.76,10.71,10.54,4.11,0.34
Meiderich,51.46667,6.76667,DE,45297,2872347,Meiderich,5.09,7.46,8.27,8.54,14.45,15.95,17.41,19.78,12.99,12.63,6.15,3.11
Meerbusch,51.25268,6.68807,DE,54826,2872504,Meerbusch,5.02,7.48,8.26,8.57,14.59,15.95,17.41,19.8,13.0,12.69,6.17,3.01
Meerane,50.84688,12.46473,DE,17325,2872519,Meerane,2.51,6.13,7.12,7.27,13.55,15.83,16.73,19.06,12.0,10.68,4.72,-0.09
Meckenheim,50.62388,7.02942,DE,25515,2872582,Meckenheim,4.18,6.85,7.66,7.76,13.99,15.48,17.2,19.52,12.5,11.97,5.65,1.95
Mechernich,50.59304,6.65224,DE,27537,2872611,Mechernich,3.74,6.32,7.1,7.14,13.33,14.74,16.54,18.96,11.93,11.55,5.04,1.38
Mayen,50.32797,7.22277,DE,19414,2872649,Mayen,3.09,6.0,7.0,7.25,13.76,15.18,16.84,19.17,12.01,10.98,5.08,1.03
Marzahn,52.54525,13.56983,DE,111508,2873074,Marzahn,3.4,6.08,7.58,8.56,14.79,16.47,17.21,19.3,12.72,10.59,5.16,0.4
Marsberg,51.46171,8.84949,DE,21914,2873211,Marsberg,3.4,5.88,6.69,6.94,12.97,14.68,15.8,18.23,11.44,10.95,4.7,1.14
Marl,51.65671,7.09038,DE,91398,2873263,Marl,4.8,7.25,8.01,8.28,14.23,15.71,17.12,19.57,12.66,12.37,5.79,2.86
Marktredwitz,50.00443,12.08593,DE,18204,2873289,Marktredwitz,-0.02,3.16,5.33,5.84,12.76,14.36,15.58,17.67,10.69,8.72,3.13,-1.82
Marktoberdorf,47.77964,10.61713,DE,18505,2873291,Marktoberdorf,-2.18,3.63,5.41,5.29,12.47,13.68,15.76,16.85,11.36,9.86,2.37,-3.12
Markkleeberg,51.2755,12.36906,DE,24664,2873352,Markkleeberg,3.22,6.71,7.8,8.3,14.44,16.76,17.83,20.23,13.09,11.16,5.47,1.11
Märkisches Viertel,52.59841,13.35766,DE,40119,2873356,Märkisches Viertel,3.54,6.19,7.63,8.56,14.7,16.45,17.16,19.26,12.69,10.71,5.23,0.59
Marienfelde,52.41868,13.36723,DE,32270,2873589,Marienfelde,3.54,6.23,7.7,8.67,15.01,16.59,17.38,19.53,12.87,10.76,5.35,0.62
Mariendorf,52.4378,13.38109,DE,52734,2873606,Mariendorf,3.54,6.23,7.7,8.67,15.01,16.59,17.38,19.53,12.87,10.76,5.35,0.62
Marienberg,50.65051,13.16122,DE,16716,2873632,Marienberg,0.49,3.58,5.0,5.42,11.99,14.04,14.85,17.08,10.12,8.33,2.68,-2.35
Marburg an der Lahn,50.80904,8.77069,DE,78895,2873759,Marburg an der Lahn,2.35,5.22,6.97,7.28,13.77,15.3,16.61,19.07,11.82,10.58,4.76,0.57
Marbach am Neckar,48.93964,9.25995,DE,15604,2873776,Marbach am Neckar,2.13,6.34,7.6,7.96,15.02,15.85,17.99,20.02,13.14,11.62,5.09,0.51
Mannheim,49.4891,8.46694,DE,307960,2873891,Mannheim,2.82,7.05,8.32,8.67,16.05,17.1,19.15,21.54,13.82,12.11,5.8,1.43
Mainz,49.98419,8.2791,DE,217123,2874225,Mainz,2.78,6.55,8.0,8.45,15.72,16.9,18.64,21.04,13.3,11.74,5.69,1.39
Maintal,50.15,8.83333,DE,38313,2874230,Maintal,2.81,6.43,7.88,8.38,15.54,16.78,18.46,20.98,13.2,11.58,5.64,1.27
Mahlsdorf,52.50935,13.61373,DE,29757,2874455,Mahlsdorf,3.45,6.13,7.63,8.6,14.84,16.52,17.26,19.35,12.77,10.64,5.21,0.46
Magdeburg,52.12773,11.62916,DE,235775,2874545,Magdeburg,3.8,6.54,7.93,8.45,14.78,16.53,17.67,19.92,13.01,11.08,5.69,1.48
Lurup,53.59266,9.87697,DE,36521,2875023,Lurup,4.21,6.47,7.33,8.02,13.56,15.21,16.21,18.16,12.46,11.1,5.17,2.21
Lünen,51.61634,7.52872,DE,91009,2875107,Lünen,4.83,7.43,8.15,8.32,14.27,15.91,17.22,19.74,12.77,12.51,5.91,2.73
Lüneburg,53.2509,10.41409,DE,71260,2875115,Lüneburg,4.25,6.61,7.54,8.26,13.95,15.64,16.66,18.79,12.69,11.22,5.41,2.11
Ludwigshafen am Rhein,49.48121,8.44641,DE,163196,2875376,Ludwigshafen am Rhein,2.79,7.07,8.36,8.69,16.13,17.24,19.34,21.75,13.91,12.15,5.84,1.43
Ludwigsfelde,52.30322,13.25405,DE,24164,2875379,Ludwigsfelde,3.6,6.55,7.92,8.8,15.12,16.74,17.52,19.66,12.94,10.98,5.44,0.87
Ludwigsburg,48.89731,9.19161,DE,87603,2875392,Ludwigsburg,1.98,6.29,7.47,7.76,14.85,15.67,17.91,19.96,13.01,11.5,4.86,0.33
Lüdinghausen,51.7683,7.44379,DE,24094,2875417,Lüdinghausen,4.8,7.29,8.0,8.33,14.27,15.84,17.19,19.68,12.72,12.35,5.79,2.87
Lüdenscheid,51.21977,7.6273,DE,79386,2875457,Lüdenscheid,2.67,5.08,6.13,6.4,12.62,13.9,15.31,17.65,10.73,10.72,4.16,0.48
Luckenwalde,52.09029,13.16772,DE,21616,2875484,Luckenwalde,3.66,6.76,8.09,8.91,15.21,16.93,17.76,19.84,13.17,11.16,5.63,1.01
Lübeck,53.86893,10.68729,DE,212207,2875601,Lübeck,4.2,6.36,7.33,8.06,13.47,15.46,16.42,18.16,12.51,11.01,5.31,2.24
Lubnjow,51.86217,13.95168,DE,17461,2875623,Lubnjow,3.52,6.68,8.17,9.02,15.38,17.22,18.0,20.01,13.28,11.14,5.58,0.96
Lübbecke,52.30699,8.61423,DE,25573,2875626,Lübbecke,4.35,6.96,7.61,8.0,13.77,15.59,16.81,18.99,12.33,11.73,5.49,2.45
Loxstedt,53.46667,8.65,DE,16382,2875645,Loxstedt,4.62,6.82,7.66,8.23,13.43,15.13,16.01,17.88,12.7,11.53,5.67,3.06
Losheim,49.5099,6.74549,DE,16660,2875831,Losheim,2.54,6.3,7.1,7.48,14.53,15.34,17.73,19.53,12.46,11.25,5.06,1.09
Loschwitz,51.05386,13.81393,DE,20696,2875846,Loschwitz,3.0,6.2,7.71,8.1,14.41,16.67,17.57,19.74,12.9,10.85,5.28,0.41
Lörrach,47.61497,7.66457,DE,47002,2875881,Lörrach,1.41,6.58,7.93,7.92,15.55,16.21,18.78,20.13,14.12,12.1,4.84,0.56
Lohr am Main,49.98922,9.57223,DE,16127,2876147,Lohr am Main,2.63,6.17,7.79,8.31,15.2,16.36,18.02,20.33,13.03,11.16,5.45,1.15
Lohne,52.66625,8.2375,DE,27259,2876185,Lohne,4.56,7.02,7.8,8.29,13.92,15.52,16.61,18.75,12.47,11.79,5.54,2.8
Löhne,52.18848,8.6922,DE,39521,2876187,Löhne,4.39,7.03,7.69,8.06,13.86,15.71,16.92,19.14,12.42,11.85,5.59,2.45
Lohmar,50.83868,7.21399,DE,31339,2876218,Lohmar,4.39,7.07,7.96,8.21,14.56,15.91,17.48,19.83,12.73,12.25,5.94,2.42
Löbtau,51.04358,13.69444,DE,21205,2876683,Löbtau,2.84,6.06,7.59,7.99,14.44,16.68,17.59,19.64,12.89,10.62,5.2,0.15
Löbau,51.09954,14.66738,DE,18374,2876755,Löbau,1.97,5.08,6.78,7.27,13.51,15.75,16.57,18.44,11.85,10.04,4.35,-0.37
Lippstadt,51.67369,8.34482,DE,67219,2876865,Lippstadt,4.27,6.87,7.53,7.85,13.89,15.56,16.83,19.28,12.28,11.92,5.47,2.07
Lingen,52.52143,7.31845,DE,51310,2877088,Lingen,4.81,7.08,7.73,8.33,13.83,15.47,16.52,18.77,12.58,11.96,5.57,3.12
Lindlar,51.01959,7.37758,DE,22723,2877142,Lindlar,3.28,5.8,6.93,7.38,13.8,14.99,16.41,18.88,11.63,11.34,4.99,1.25
Lindau,47.54612,9.68431,DE,24518,2877550,Lindau,0.05,4.58,7.13,7.53,15.36,16.09,18.38,19.59,14.02,12.3,4.88,-0.57
Limburg an der Lahn,50.3836,8.0503,DE,33820,2877648,Limburg an der Lahn,2.98,5.98,7.62,8.08,14.9,16.23,17.61,20.01,12.71,11.29,5.49,1.08
Limbach-Oberfrohna,50.85882,12.76165,DE,23711,2877673,Limbach-Oberfrohna,1.92,5.39,6.4,6.59,12.86,15.08,16.01,18.32,11.25,9.98,4.01,-0.82
Lilienthal,53.14193,8.90338,DE,18293,2877709,Lilienthal,4.62,7.01,7.76,8.29,13.73,15.47,16.47,18.45,12.61,11.69,5.59,2.76
Lichterfelde,52.4333,13.30762,DE,85885,2878018,Lichterfelde,3.55,6.29,7.72,8.66,14.97,16.57,17.35,19.51,12.85,10.79,5.35,0.67
Lichtenrade,52.39844,13.40637,DE,52110,2878044,Lichtenrade,3.54,6.23,7.7,8.67,15.01,16.59,17.38,19.53,12.87,10.76,5.35,0.62
Lichtenfels,50.14567,11.05928,DE,21336,2878074,Lichtenfels,1.43,4.92,6.91,7.53,14.65,15.79,17.3,19.56,12.17,10.42,4.47,-0.17
Lichtenberg,52.51395,13.49975,DE,41359,2878102,Lichtenberg,3.47,6.13,7.62,8.59,14.84,16.51,17.26,19.38,12.77,10.66,5.23,0.46
Leverkusen,51.0303,6.98432,DE,162738,2878234,Leverkusen,4.69,7.34,8.2,8.54,14.88,16.13,17.67,20.19,12.96,12.59,6.14,2.78
Leutkirch,47.82672,10.0205,DE,22362,2878270,Leutkirch,-1.19,4.21,5.98,5.87,13.28,14.14,16.28,17.41,11.87,10.38,2.84,-2.27
Leuben,51.01122,13.82029,DE,38353,2878396,Leuben,2.86,6.13,7.68,8.11,14.54,16.76,17.66,19.72,12.97,10.67,5.23,0.26
Leopoldshöhe,52.01246,8.69834,DE,16219,2878673,Leopoldshöhe,4.03,6.65,7.4,7.74,13.8,15.46,16.7,19.05,12.08,11.64,5.29,2.03
Leonberg,48.8,9.01667,DE,45711,2878695,Leonberg,2.0,6.12,7.15,7.18,14.18,15.17,17.4,19.32,12.61,11.35,4.44,-0.31
Lennestadt,51.11721,8.06707,DE,28102,2878784,Lennestadt,3.27,5.76,6.81,7.31,13.51,14.83,16.14,18.48,11.58,11.34,4.86,0.99
Lengerich,52.18661,7.86043,DE,22697,2878840,Lengerich,4.5,7.02,7.71,8.12,13.98,15.58,16.76,19.12,12.36,11.98,5.5,2.69
Lemgo,52.02786,8.89901,DE,41943,2878943,Lemgo,4.31,6.92,7.65,7.98,13.9,15.7,16.89,19.18,12.36,11.86,5.58,2.26
Leipzig,51.33962,12.37129,DE,504971,2879139,Leipzig,3.32,6.81,7.9,8.4,14.54,16.86,17.93,20.33,13.19,11.26,5.57,1.21
Leinfelden-Echterdingen,48.69406,9.16809,DE,36672,2879185,Leinfelden-Echterdingen,1.44,5.69,6.79,6.9,13.92,14.87,17.01,18.97,12.33,10.94,4.07,-0.8
Leimen,49.34737,8.68733,DE,27190,2879241,Leimen,3.05,7.21,8.48,8.79,16.09,16.97,19.21,21.54,13.95,12.38,5.88,1.56
Leichlingen,51.10628,7.01873,DE,27885,2879315,Leichlingen,4.7,7.32,8.17,8.53,14.81,16.05,17.53,20.04,12.92,12.6,6.1,2.77
Lehrte,52.37193,9.97919,DE,43920,2879367,Lehrte,4.35,6.95,7.88,8.25,14.17,15.87,17.07,19.36,12.61,11.56,5.61,2.08
Leer,53.23157,7.461,DE,33886,2879697,Leer,4.84,6.95,7.75,8.26,13.38,15.13,16.01,17.75,12.59,11.65,5.68,3.27
Lebach,49.41122,6.90988,DE,21583,2879832,Lebach,2.73,6.68,7.56,7.96,15.14,15.89,18.33,20.19,12.98,11.69,5.37,1.29
Laupheim,48.22786,9.87874,DE,19012,2880077,Laupheim,0.12,5.31,6.72,6.59,13.87,14.85,16.85,18.5,12.42,10.72,3.62,-1.14
Lauf an der Pegnitz,49.51386,11.28247,DE,26403,2880144,Lauf an der Pegnitz,1.69,5.36,7.34,7.64,15.06,16.03,17.73,19.73,12.55,10.92,4.76,0.11
Lauchhammer,51.48813,13.76623,DE,18990,2880221,Lauchhammer,3.25,6.49,7.94,8.58,14.88,17.0,17.89,20.19,13.2,11.16,5.5,0.92
Lankwitz,52.43623,13.3459,DE,43558,2880498,Lankwitz,3.6,6.34,7.77,8.71,15.02,16.62,17.4,19.56,12.89,10.83,5.39,0.72
Langenhagen,52.44758,9.73741,DE,50439,2881062,Langenhagen,4.36,6.94,7.75,8.19,13.99,15.82,17.05,19.27,12.58,11.53,5.58,2.12
Langenfeld,51.10821,6.94831,DE,59112,2881085,Langenfeld,4.76,7.36,8.17,8.51,14.75,16.03,17.55,20.03,12.96,12.59,6.09,2.8
Langen,53.60554,8.59509,DE,18863,2881276,Langen,4.68,6.84,7.67,8.29,13.38,15.1,15.99,17.91,12.92,11.6,5.87,3.28
Langen,49.98955,8.66852,DE,35416,2881279,Langen,2.86,6.52,7.84,8.32,15.52,16.71,18.42,20.88,13.12,11.59,5.57,1.31
Landshut,48.52961,12.16179,DE,60488,2881485,Landshut,-0.75,4.86,7.47,7.43,14.59,15.56,17.47,19.09,12.54,10.59,4.14,-1.06
Landsberg am Lech,48.04819,10.88282,DE,27017,2881509,Landsberg am Lech,-1.59,4.41,6.44,6.1,13.21,14.41,16.43,17.76,11.93,10.36,3.27,-1.89
Landau in der Pfalz,49.19844,8.11692,DE,41612,2881646,Landau in der Pfalz,3.06,7.43,8.45,8.48,15.79,16.8,19.21,21.46,13.9,12.46,5.83,1.48
Lampertheim,49.59786,8.4725,DE,31635,2881695,Lampertheim,2.86,6.94,8.19,8.62,16.01,17.02,19.01,21.42,13.67,11.92,5.76,1.46
Lahr,48.34042,7.86886,DE,47551,2881885,Lahr,2.48,7.11,8.03,8.03,15.38,16.38,18.67,20.8,13.89,12.43,5.26,0.93
Lahnstein,50.3,7.61667,DE,18749,2881889,Lahnstein,3.44,6.62,7.66,7.97,14.63,16.0,17.57,19.84,12.7,11.56,5.68,1.48
Lage,51.99223,8.79301,DE,34885,2881956,Lage,4.28,6.9,7.65,7.98,13.99,15.7,16.92,19.25,12.33,11.87,5.55,2.26
Laatzen,52.31506,9.79739,DE,40038,2882087,Laatzen,4.18,6.82,7.65,8.01,13.81,15.66,16.85,19.08,12.42,11.41,5.45,1.91
Bad Laasphe,50.93139,8.42502,DE,15184,2882091,Bad Laasphe,2.25,4.86,6.59,6.86,13.38,14.75,16.12,18.43,11.39,10.41,4.49,0.44
Kürten,51.05,7.26667,DE,20103,2882318,Kürten,4.07,6.53,7.59,7.91,14.22,15.45,16.89,19.34,12.22,12.05,5.58,2.01
Künzelsau,49.2818,9.68352,DE,15070,2882439,Künzelsau,2.62,6.53,7.9,8.28,15.35,16.23,18.32,20.71,13.33,11.88,5.46,0.92
Künzell,50.5442,9.71792,DE,16124,2882440,Künzell,1.87,5.22,6.74,7.31,14.11,15.38,16.77,19.28,11.83,10.44,4.45,0.04
Kulmbach,50.10068,11.45032,DE,27565,2882588,Kulmbach,1.14,4.68,6.58,7.33,14.5,15.72,17.11,19.28,12.0,10.15,4.18,-0.71
Kronberg,50.18424,8.5232,DE,17730,2883754,Kronberg,2.67,5.83,7.47,7.58,14.55,15.85,17.53,19.85,12.45,11.24,5.2,1.04
Kronach,50.23963,11.33308,DE,18248,2883784,Kronach,1.12,4.73,6.6,7.38,14.6,15.74,17.16,19.42,11.98,10.22,4.17,-0.68
Kreuztal,50.96775,7.98848,DE,31772,2884050,Kreuztal,2.4,4.97,6.34,6.89,13.32,14.41,15.79,18.18,11.08,10.68,4.28,0.39
Kreuzberg,52.49973,13.40338,DE,153135,2884161,Kreuzberg,3.58,6.22,7.71,8.67,14.92,16.59,17.36,19.49,12.86,10.76,5.34,0.57
Kreuzau,50.74699,6.49069,DE,18400,2884245,Kreuzau,4.68,7.23,7.78,7.84,13.95,15.43,17.1,19.62,12.62,12.31,5.73,2.36
Krefeld,51.33645,6.55381,DE,237984,2884509,Krefeld,5.07,7.51,8.26,8.55,14.56,15.93,17.42,19.77,13.01,12.68,6.17,3.06
Köthen,51.75185,11.97093,DE,28710,2885237,Köthen,3.57,6.83,8.06,8.6,14.94,16.79,17.86,20.27,13.12,11.31,5.7,1.43
Korschenbroich,51.19139,6.51352,DE,33406,2885397,Korschenbroich,5.17,7.59,8.32,8.51,14.58,15.95,17.55,19.91,13.07,12.74,6.21,3.12
Kornwestheim,48.86158,9.18569,DE,31040,2885408,Kornwestheim,1.93,6.23,7.41,7.71,14.8,15.62,17.86,19.91,12.96,11.46,4.81,0.28
Korntal,48.83218,9.1214,DE,18081,2885412,Korntal,2.31,6.47,7.56,7.67,14.66,15.63,17.83,19.78,13.06,11.72,4.9,0.24
Korbach,51.27561,8.873,DE,24481,2885536,Korbach,2.23,4.81,5.96,6.32,12.53,14.17,15.26,17.67,10.86,10.01,3.96,0.12
Köpenick,52.4455,13.57455,DE,67148,2885656,Köpenick,3.57,6.34,7.82,8.8,15.11,16.73,17.46,19.57,12.95,10.82,5.38,0.67
Berlin Köpenick,52.44254,13.58228,DE,59561,2885657,Berlin Köpenick,3.57,6.34,7.82,8.8,15.11,16.73,17.46,19.57,12.95,10.82,5.38,0.67
Konz,49.70045,6.57652,DE,17879,2885672,Konz,3.27,6.72,7.66,7.95,14.87,15.87,18.17,20.14,12.94,11.69,5.73,1.98
Konstanz,47.66033,9.17582,DE,81275,2885679,Konstanz,0.92,5.43,7.61,8.05,15.73,16.49,18.87,20.25,14.34,12.58,5.21,0.65
Königs Wusterhausen,52.30141,13.633,DE,32513,2885732,Königs Wusterhausen,3.67,6.6,8.04,8.94,15.22,16.87,17.61,19.7,13.08,11.02,5.53,0.9
Königswinter,50.67734,7.19245,DE,41164,2885734,Königswinter,4.66,7.35,8.2,8.41,14.72,16.18,17.77,20.08,13.02,12.44,6.23,2.6
Königstein im Taunus,50.17943,8.47132,DE,15661,2885760,Königstein im Taunus,1.92,5.09,6.72,6.83,13.8,15.1,16.78,19.1,11.7,10.49,4.45,0.29
Königslutter am Elm,52.25116,10.81683,DE,16419,2885800,Königslutter am Elm,3.65,6.2,7.4,7.8,13.77,15.54,16.61,18.95,12.18,10.87,5.14,1.31
Königsbrunn,48.27506,10.89178,DE,27494,2885908,Königsbrunn,-0.31,5.32,7.19,6.98,14.26,15.25,17.21,18.87,12.54,10.83,4.12,-0.7
Köln,50.93333,6.95,DE,963395,2886242,Köln,4.63,7.27,8.06,8.29,14.59,15.97,17.59,20.02,12.84,12.41,6.02,2.63
Kolbermoor,47.84965,12.06696,DE,17941,2886446,Kolbermoor,-1.98,4.12,7.08,7.05,14.03,15.37,17.27,18.48,12.59,10.63,3.56,-2.34
Koblenz,50.35357,7.57883,DE,107319,2886946,Koblenz,3.83,6.8,7.85,8.28,14.88,16.27,17.79,20.1,12.98,11.81,6.01,1.85
Klotzsche,51.11053,13.76862,DE,21064,2887366,Klotzsche,2.4,5.6,7.11,7.5,13.81,16.07,16.97,19.14,12.3,10.25,4.68,-0.19
Klingenstein,48.41849,9.90812,DE,15643,2887716,Klingenstein,0.53,5.58,6.98,6.81,14.12,15.04,17.13,18.86,12.49,10.9,3.9,-0.96
Kleve,51.78826,6.13865,DE,49072,2887835,Kleve,5.18,7.39,8.07,8.5,14.09,15.46,16.92,19.06,13.05,12.36,6.07,3.42
Kleinzschocher,51.31568,12.31979,DE,597493,2887933,Kleinzschocher,3.24,6.73,7.82,8.31,14.45,16.76,17.85,20.24,13.11,11.16,5.49,1.14
Kleinmachnow,52.40786,13.22514,DE,17892,2888523,Kleinmachnow,3.67,6.51,7.9,8.79,15.04,16.67,17.43,19.58,12.92,10.95,5.45,0.87
Kladow,52.45423,13.14445,DE,16368,2890136,Kladow,3.63,6.42,7.81,8.68,14.85,16.54,17.31,19.4,12.8,10.87,5.34,0.83
Kitzingen,49.73973,10.15072,DE,21387,2890158,Kitzingen,2.48,6.23,7.73,8.13,15.12,16.36,17.98,20.43,13.09,11.23,5.33,0.91
Kirchlengern,52.2,8.63333,DE,16338,2890425,Kirchlengern,4.4,7.01,7.67,8.06,13.86,15.71,16.91,19.15,12.41,11.85,5.58,2.5
Kirchheim unter Teck,48.64683,9.45378,DE,40206,2890473,Kirchheim unter Teck,1.7,6.15,7.37,7.63,14.77,15.59,17.65,19.7,12.98,11.41,4.65,-0.43
Kirchhain,50.8272,8.92806,DE,16381,2890504,Kirchhain,2.44,5.39,7.03,7.37,13.85,15.37,16.69,19.14,11.89,10.67,4.84,0.74
Kierspe,51.13403,7.59075,DE,18188,2891014,Kierspe,2.49,4.91,6.04,6.44,12.75,13.99,15.4,17.76,10.71,10.54,4.11,0.34
Kiel,54.32133,10.13489,DE,246601,2891122,Kiel,4.28,6.27,7.0,7.83,13.22,15.16,16.1,17.68,12.5,10.97,5.22,2.57
Kevelaer,51.58243,6.24603,DE,28064,2891258,Kevelaer,5.27,7.54,8.22,8.54,14.29,15.71,17.2,19.41,13.1,12.54,6.19,3.39
Kerpen,50.86991,6.69691,DE,64226,2891524,Kerpen,4.83,7.33,7.98,8.03,14.2,15.69,17.4,19.87,12.79,12.43,5.9,2.64
Kempten (Allgäu),47.72674,10.31389,DE,61399,2891621,Kempten (Allgäu),-1.42,4.12,5.82,5.67,13.01,14.02,16.08,17.2,11.71,10.2,2.62,-2.59
Kempen,51.36432,6.41858,DE,36312,2891643,Kempen,5.18,7.55,8.27,8.53,14.46,15.83,17.35,19.6,13.03,12.64,6.18,3.2
Kelkheim,50.13703,8.4502,DE,29162,2891832,Kelkheim,2.39,5.97,7.52,7.87,15.01,16.24,17.92,20.35,12.7,11.22,5.21,0.9
Kelheim,48.91725,11.88618,DE,15723,2891834,Kelheim,0.59,5.06,7.8,7.88,15.23,16.16,18.14,19.9,13.03,10.93,4.88,0.17
Kehl,48.57297,7.81523,DE,34009,2891951,Kehl,2.75,7.24,8.22,8.24,15.6,16.51,18.82,21.06,13.94,12.5,5.43,1.06
Kaulsdorf,52.51732,13.58871,DE,19408,2892051,Kaulsdorf,3.4,6.08,7.58,8.56,14.79,16.47,17.21,19.3,12.72,10.59,5.16,0.4
Kaufbeuren,47.88238,10.62192,DE,42505,2892080,Kaufbeuren,-1.43,4.47,6.24,5.88,13.07,14.21,16.25,17.48,11.82,10.32,2.98,-2.1
Kassel,51.31667,9.5,DE,194501,2892518,Kassel,2.94,5.99,7.26,7.71,13.98,15.73,16.81,19.21,12.17,10.78,5.1,1.14
Karow,52.60904,13.48117,DE,18817,2892705,Karow,3.5,6.15,7.6,8.53,14.66,16.43,17.13,19.22,12.67,10.67,5.2,0.53
Karlstadt,49.96034,9.77239,DE,15272,2892786,Karlstadt,2.51,6.04,7.76,8.28,15.27,16.37,18.03,20.35,12.96,11.14,5.38,1.07
Karlsruhe,49.00937,8.40444,DE,283799,2892794,Karlsruhe,3.2,7.67,8.55,8.71,15.99,16.96,19.38,21.54,14.23,12.63,5.98,1.41
Karlshorst,52.48419,13.53185,DE,28206,2892811,Karlshorst,3.57,6.23,7.72,8.69,14.94,16.61,17.36,19.48,12.87,10.76,5.33,0.56
Karlsfeld,48.22697,11.47573,DE,17920,2892874,Karlsfeld,-1.25,4.77,7.2,7.03,14.19,15.25,17.07,18.63,12.43,10.61,3.97,-1.39
Karben,50.23019,8.77155,DE,21642,2892980,Karben,2.72,6.24,7.83,8.26,15.34,16.65,18.27,20.83,13.12,11.51,5.64,1.22
Kamp-Lintfort,51.50467,6.54587,DE,39490,2893264,Kamp-Lintfort,5.19,7.47,8.24,8.49,14.35,15.83,17.33,19.6,13.01,12.57,6.17,3.23
Kamenz,51.26798,14.09374,DE,18270,2893437,Kamenz,2.76,5.86,7.45,7.99,14.16,16.43,17.39,19.62,12.62,10.75,5.0,0.28
Kamen,51.59231,7.6638,DE,45927,2893438,Kamen,4.76,7.36,8.05,8.2,14.16,15.83,17.13,19.6,12.66,12.47,5.85,2.6
Kaltenkirchen,53.83292,9.9581,DE,19747,2893544,Kaltenkirchen,4.19,6.38,7.29,7.97,13.49,15.18,16.18,18.06,12.49,11.06,5.17,2.32
Kaiserslautern,49.443,7.77161,DE,98732,2894003,Kaiserslautern,2.83,6.88,7.94,8.04,15.19,16.18,18.31,20.63,13.13,11.82,5.33,1.14
Kaarst,51.22929,6.61883,DE,42112,2894375,Kaarst,5.15,7.58,8.34,8.57,14.63,16.03,17.6,19.99,13.1,12.76,6.23,3.11
Jülich,50.92149,6.36267,DE,33911,2894553,Jülich,4.95,7.51,8.05,8.14,14.24,15.7,17.37,19.88,12.92,12.56,5.99,2.75
Jüchen,51.1,6.5,DE,22562,2894637,Jüchen,5.06,7.48,8.19,8.31,14.41,15.83,17.49,19.91,12.97,12.62,6.09,2.97
Johannisthal,52.44653,13.5066,DE,19960,2894755,Johannisthal,3.57,6.28,7.75,8.72,15.06,16.66,17.43,19.55,12.92,10.79,5.38,0.64
Jena,50.92878,11.5899,DE,104712,2895044,Jena,3.11,6.67,7.69,8.01,14.17,16.49,17.56,19.95,12.81,11.03,5.4,1.15
Itzehoe,53.92099,9.51529,DE,33047,2895569,Itzehoe,4.39,6.54,7.28,7.98,13.41,15.11,16.07,17.83,12.56,11.15,5.2,2.61
Isernhagen Farster Bauerschaft,52.47093,9.84179,DE,22601,2895664,Isernhagen Farster Bauerschaft,4.23,6.76,7.59,8.06,13.91,15.66,16.87,19.12,12.44,11.37,5.44,1.99
Iserlohn,51.37547,7.70281,DE,97910,2895669,Iserlohn,3.54,6.08,6.95,7.16,13.23,14.7,16.02,18.45,11.54,11.48,4.86,1.27
Ingolstadt,48.76508,11.42372,DE,120658,2895992,Ingolstadt,0.51,5.07,7.5,7.61,14.96,15.85,17.81,19.6,12.8,10.74,4.63,0.07
Ingelheim am Rhein,49.97078,8.05883,DE,24998,2896020,Ingelheim am Rhein,3.24,6.9,8.24,8.58,15.71,16.94,18.68,21.08,13.44,12.03,5.94,1.7
Ilmenau,50.68322,10.91858,DE,27055,2896514,Ilmenau,1.06,4.22,5.64,5.89,12.29,14.25,15.4,17.73,10.68,9.26,3.32,-1.58
Illingen,49.37362,7.04758,DE,18488,2896538,Illingen,2.31,6.24,7.16,7.49,14.67,15.43,17.87,19.74,12.53,11.28,4.92,0.81
Illertissen,48.22336,10.10347,DE,16522,2896546,Illertissen,-0.08,5.28,6.76,6.66,13.87,14.88,16.86,18.54,12.43,10.73,3.78,-0.97
Idstein,50.21773,8.26679,DE,22810,2896736,Idstein,2.76,5.85,7.52,7.59,14.49,15.78,17.48,19.71,12.41,11.27,5.19,1.07
Idar-Oberstein,49.71443,7.30776,DE,31610,2896753,Idar-Oberstein,2.73,6.57,7.57,7.67,14.78,15.66,17.87,20.02,12.68,11.53,5.08,0.97
Ibbenbüren,52.27964,7.71457,DE,50577,2896817,Ibbenbüren,4.51,6.97,7.64,8.11,13.88,15.46,16.6,18.97,12.34,11.92,5.44,2.76
Husum,54.4858,9.05239,DE,20841,2897132,Husum,4.5,6.18,6.79,7.68,12.84,14.69,15.57,17.16,12.59,10.9,4.99,3.0
Hürth,50.87079,6.86761,DE,54678,2897216,Hürth,4.44,7.02,7.77,7.92,14.2,15.61,17.28,19.72,12.55,12.16,5.71,2.37
Hünfeld,50.67966,9.76727,DE,16323,2897436,Hünfeld,2.34,5.69,7.03,7.35,13.88,15.39,16.63,19.23,11.9,10.76,4.71,0.47
Hummelsbüttel,53.64773,10.04149,DE,17365,2897674,Hummelsbüttel,4.21,6.44,7.3,8.03,13.59,15.27,16.29,18.22,12.49,11.08,5.17,2.18
Humboldtkolonie,50.93182,6.99469,DE,15108,2897732,Humboldtkolonie,4.63,7.27,8.06,8.29,14.59,15.97,17.59,20.02,12.84,12.41,6.02,2.63
Hude,53.10766,8.46322,DE,15567,2898079,Hude,4.68,7.0,7.76,8.24,13.54,15.31,16.29,18.23,12.57,11.69,5.64,2.93
Hückeswagen,51.14979,7.34471,DE,16369,2898098,Hückeswagen,3.52,5.98,7.04,7.36,13.67,14.9,16.34,18.79,11.67,11.49,5.03,1.46
Hückelhoven,51.0555,6.22658,DE,39828,2898111,Hückelhoven,5.19,7.74,8.3,8.49,14.58,15.84,17.51,19.93,13.13,12.79,6.22,3.14
Hoyerswerda,51.43787,14.23549,DE,43681,2898304,Hoyerswerda,3.12,6.32,7.89,8.55,14.78,16.95,17.87,20.04,13.09,11.08,5.38,0.75
Höxter,51.77501,9.38155,DE,32713,2898321,Höxter,4.13,6.83,7.76,8.11,14.2,15.9,17.07,19.35,12.46,11.75,5.61,2.07
Hövelhof,51.81667,8.65,DE,15962,2898364,Hövelhof,4.04,6.66,7.39,7.83,13.9,15.58,16.8,19.2,12.17,11.65,5.35,1.95
Hörstel,52.29763,7.58382,DE,19894,2898603,Hörstel,4.68,7.12,7.8,8.27,14.04,15.59,16.73,19.13,12.51,12.08,5.58,2.93
Horn,53.55406,10.08989,DE,37903,2898917,Horn,4.28,6.53,7.42,8.1,13.66,15.34,16.36,18.3,12.56,11.16,5.27,2.25
Horb am Neckar,48.44423,8.6913,DE,25092,2899101,Horb am Neckar,1.9,6.28,7.11,7.07,14.37,15.35,17.5,19.43,12.8,11.44,4.09,-0.82
Homburg,49.32637,7.33867,DE,44607,2899449,Homburg,2.58,6.62,7.56,7.81,15.0,15.75,18.28,20.28,12.91,11.7,5.16,0.97
Holzwickede,51.5,7.63333,DE,17821,2899538,Holzwickede,4.27,6.89,7.64,7.84,13.83,15.43,16.71,19.22,12.27,12.08,5.46,2.1
Holzminden,51.82798,9.4455,DE,20998,2899601,Holzminden,4.18,6.88,7.81,8.16,14.25,15.96,17.12,19.4,12.51,11.8,5.66,2.12
Holzkirchen,47.87663,11.70181,DE,16770,2899676,Holzkirchen,-2.24,3.82,6.19,5.81,12.74,14.02,15.98,17.32,11.5,9.88,2.67,-2.92
Hohenstein-Ernstthal,50.80064,12.71287,DE,16542,2901420,Hohenstein-Ernstthal,1.97,5.45,6.46,6.64,13.0,15.17,16.07,18.4,11.3,10.07,4.07,-0.71
Hohen Neuendorf,52.67631,13.27775,DE,21893,2901588,Hohen Neuendorf,3.56,6.24,7.64,8.55,14.67,16.42,17.13,19.19,12.63,10.75,5.2,0.7
Hofheim am Taunus,50.09019,8.4493,DE,37750,2902533,Hofheim am Taunus,2.85,6.33,7.95,8.26,15.43,16.63,18.37,20.73,13.09,11.66,5.6,1.31
Hofgeismar,51.49607,9.385,DE,16444,2902559,Hofgeismar,3.48,6.27,7.32,7.61,13.73,15.51,16.6,18.95,12.13,11.1,5.26,1.53
Hof,50.31297,11.91261,DE,49239,2902768,Hof,0.8,4.05,5.64,6.21,12.95,14.76,15.75,18.0,11.0,9.31,3.46,-1.52
Hockenheim,49.32334,8.55194,DE,20614,2902852,Hockenheim,2.95,7.2,8.43,8.7,16.06,16.97,19.23,21.57,13.91,12.35,5.81,1.48
Hochheim am Main,50.01436,8.35218,DE,17027,2903175,Hochheim am Main,2.65,6.44,7.88,8.36,15.64,16.8,18.54,20.97,13.19,11.61,5.57,1.26
Hochfeld,51.41943,6.75462,DE,16292,2903237,Hochfeld,5.05,7.49,8.28,8.58,14.57,15.95,17.4,19.81,13.0,12.71,6.19,3.06
Hille,52.33333,8.75,DE,16567,2904725,Hille,4.39,7.06,7.72,8.09,13.86,15.68,16.89,19.08,12.42,11.81,5.58,2.44
Hildesheim,52.15077,9.95112,DE,103052,2904789,Hildesheim,4.0,6.66,7.56,7.84,13.63,15.58,16.7,18.99,12.29,11.3,5.34,1.63
Hilden,51.16818,6.93093,DE,56565,2904795,Hilden,4.84,7.38,8.2,8.53,14.7,16.0,17.47,19.94,12.94,12.66,6.11,2.86
Hilchenbach,50.99687,8.11062,DE,16467,2904808,Hilchenbach,2.15,4.76,6.06,6.76,13.22,14.35,15.72,17.99,10.96,10.26,4.17,0.14
Hiddenhausen,52.16667,8.61667,DE,20771,2904886,Hiddenhausen,4.3,6.91,7.58,7.96,13.76,15.61,16.81,19.05,12.31,11.75,5.48,2.4
Heusweiler,49.33632,6.93036,DE,20006,2904985,Heusweiler,2.74,6.74,7.63,7.95,15.17,15.87,18.43,20.3,13.01,11.76,5.39,1.33
Heusenstamm,50.05553,8.80076,DE,19012,2904992,Heusenstamm,2.71,6.33,7.78,8.28,15.44,16.68,18.36,20.88,13.1,11.48,5.54,1.17
Hettstedt,51.6503,11.51146,DE,15949,2905206,Hettstedt,3.14,6.24,7.4,7.72,13.96,15.93,17.08,19.45,12.44,10.66,5.1,1.01
Hessisch Oldendorf,52.17269,9.24913,DE,20129,2905290,Hessisch Oldendorf,4.42,7.06,7.82,8.1,13.96,15.78,16.98,19.2,12.48,11.84,5.65,2.32
Herzogenrath,50.86874,6.09317,DE,47381,2905455,Herzogenrath,4.92,7.53,8.0,8.11,14.25,15.52,17.25,19.72,12.85,12.59,5.98,2.82
Herzogenaurach,49.56798,10.88565,DE,23319,2905457,Herzogenaurach,1.71,5.27,7.08,7.52,14.75,15.92,17.53,19.68,12.47,10.66,4.71,0.16
Herten,51.59638,7.14387,DE,65306,2905560,Herten,4.8,7.26,8.03,8.26,14.21,15.77,17.17,19.67,12.69,12.37,5.82,2.79
Herrenberg,48.59523,8.86648,DE,31338,2905826,Herrenberg,1.72,5.88,6.91,6.85,13.94,14.99,17.15,19.05,12.46,11.18,3.93,-0.86
Herne,51.5388,7.22572,DE,172108,2905891,Herne,4.73,7.29,8.06,8.33,14.33,15.83,17.2,19.75,12.73,12.46,5.87,2.69
Hermsdorf,52.61421,13.30587,DE,16726,2905904,Hermsdorf,3.64,6.31,7.73,8.64,14.77,16.52,17.25,19.33,12.78,10.82,5.33,0.72
Herford,52.11457,8.67343,DE,64879,2906121,Herford,4.37,7.01,7.69,8.06,13.93,15.75,16.94,19.22,12.42,11.91,5.6,2.41
Herdecke,51.39999,7.43584,DE,25618,2906152,Herdecke,4.57,7.17,8.01,8.29,14.39,15.77,17.1,19.61,12.64,12.52,5.88,2.44
Herborn,50.68135,8.30369,DE,20473,2906199,Herborn,2.7,5.49,7.24,7.54,14.21,15.55,16.95,19.27,12.12,10.92,5.1,0.96
Heppenheim an der Bergstrasse,49.64145,8.63206,DE,25442,2906268,Heppenheim an der Bergstrasse,3.05,7.05,8.23,8.66,15.98,16.97,18.93,21.32,13.65,12.0,5.84,1.55
Hennigsdorf,52.63598,13.20419,DE,26122,2906331,Hennigsdorf,3.71,6.41,7.81,8.7,14.82,16.56,17.31,19.38,12.83,10.91,5.38,0.85
Hennef,50.77555,7.28308,DE,45409,2906376,Hennef,4.36,6.99,7.94,8.22,14.59,15.93,17.47,19.81,12.68,12.22,5.98,2.35
Hemmingen,52.31425,9.72359,DE,18470,2906530,Hemmingen,4.33,6.96,7.75,8.11,13.89,15.77,16.96,19.16,12.52,11.56,5.58,2.08
Hemer,51.38707,7.77019,DE,37502,2906595,Hemer,3.74,6.25,7.11,7.29,13.37,14.86,16.18,18.59,11.69,11.66,5.04,1.42
Helmstedt,52.2279,11.00985,DE,25515,2906676,Helmstedt,3.66,6.13,7.39,7.77,13.79,15.62,16.72,19.03,12.31,10.78,5.23,1.28
Hellersdorf,52.53319,13.6088,DE,84103,2906809,Hellersdorf,3.4,6.08,7.58,8.56,14.79,16.47,17.21,19.3,12.72,10.59,5.16,0.4
Heinsberg,51.06358,6.0998,DE,41505,2907201,Heinsberg,5.34,7.91,8.49,8.72,14.84,16.01,17.72,20.12,13.33,12.98,6.4,3.33
Heilbad Heiligenstadt,51.37819,10.13744,DE,17230,2907545,Heilbad Heiligenstadt,2.59,5.55,6.79,7.02,13.28,15.06,16.11,18.55,11.51,10.33,4.58,0.61
Heiligensee,52.61449,13.24501,DE,18099,2907551,Heiligensee,3.61,6.31,7.71,8.6,14.72,16.47,17.21,19.28,12.73,10.81,5.28,0.75
Heiligenhaus,51.32662,6.97106,DE,27700,2907585,Heiligenhaus,4.1,6.59,7.43,7.69,13.81,15.09,16.5,18.98,12.07,11.94,5.33,2.09
Heilbronn,49.13995,9.22054,DE,120733,2907669,Heilbronn,2.7,6.89,8.21,8.59,15.75,16.47,18.76,20.88,13.73,12.13,5.66,1.29
Heidenheim an der Brenz,48.67798,10.15162,DE,50067,2907851,Heidenheim an der Brenz,0.83,5.32,6.98,6.89,14.14,15.05,17.17,19.03,12.29,10.75,4.13,-0.69
Heidenau,50.97221,13.86741,DE,16756,2907887,Heidenau,2.84,6.09,7.7,8.16,14.56,16.79,17.66,19.72,12.98,10.68,5.24,0.31
Heidelberg,49.40768,8.69079,DE,143345,2907911,Heidelberg,3.14,7.21,8.45,8.82,16.08,17.04,19.11,21.43,13.9,12.32,5.97,1.62
Heide,54.19579,9.0988,DE,20599,2908032,Heide,4.43,6.36,6.98,7.71,12.92,14.74,15.63,17.29,12.61,10.98,5.11,2.91
Hechingen,48.35149,8.96317,DE,19400,2908495,Hechingen,1.07,5.25,6.4,6.19,13.44,14.43,16.55,18.44,11.98,10.56,3.14,-1.7
Hausbruch,53.47424,9.88289,DE,16927,2908942,Hausbruch,4.41,6.72,7.58,8.24,13.8,15.44,16.44,18.44,12.65,11.33,5.39,2.38
Hattingen,51.39894,7.18557,DE,56866,2909230,Hattingen,4.64,7.19,8.01,8.29,14.38,15.73,17.09,19.63,12.65,12.51,5.89,2.58
Hattersheim,50.06906,8.48632,DE,25035,2909240,Hattersheim,2.99,6.57,8.12,8.47,15.61,16.84,18.52,20.95,13.3,11.82,5.81,1.5
Haßloch,49.36278,8.25806,DE,20779,2909313,Haßloch,3.04,7.37,8.56,8.78,16.18,17.24,19.48,21.83,14.04,12.38,5.99,1.68
Haselhorst,52.54409,13.23743,DE,16471,2909794,Haselhorst,3.68,6.43,7.83,8.73,14.91,16.6,17.35,19.46,12.87,10.9,5.4,0.82
Harvestehude,53.58333,9.98333,DE,17666,2909972,Harvestehude,4.26,6.5,7.35,8.08,13.64,15.32,16.34,18.27,12.53,11.13,5.22,2.23
Harsewinkel,51.96224,8.22766,DE,24207,2910278,Harsewinkel,4.45,7.02,7.72,8.16,14.12,15.85,17.12,19.49,12.48,11.96,5.59,2.53
Haren,52.79262,7.24142,DE,22545,2910514,Haren,4.89,7.08,7.83,8.41,13.61,15.27,16.2,18.16,12.62,11.88,5.66,3.26
Harburg,53.46057,9.98388,DE,169221,2910685,Harburg,4.35,6.65,7.54,8.24,13.8,15.45,16.46,18.46,12.64,11.26,5.35,2.29
Hannover,52.37052,9.73322,DE,515140,2910831,Hannover,4.36,6.94,7.75,8.19,13.99,15.82,17.05,19.27,12.58,11.53,5.58,2.12
Hanau am Main,50.13423,8.91418,DE,88648,2911007,Hanau am Main,2.78,6.38,7.82,8.36,15.49,16.71,18.35,20.87,13.15,11.5,5.6,1.22
Hamminkeln,51.73262,6.59031,DE,27433,2911051,Hamminkeln,5.16,7.47,8.23,8.57,14.37,15.78,17.2,19.47,13.01,12.54,6.12,3.28
Hamm,53.55487,10.05742,DE,37989,2911234,Hamm,4.32,6.58,7.47,8.15,13.71,15.39,16.41,18.35,12.61,11.21,5.32,2.31
Hamm,51.68033,7.82089,DE,178967,2911240,Hamm,4.63,7.15,7.85,8.06,14.01,15.72,17.08,19.49,12.52,12.23,5.67,2.52
Hameln,52.10397,9.35623,DE,58666,2911271,Hameln,4.39,7.08,7.87,8.19,14.06,15.94,17.1,19.33,12.59,11.84,5.71,2.2
Wandsbek,53.58334,10.08305,DE,411422,2911285,Wandsbek,4.22,6.48,7.37,8.05,13.61,15.29,16.31,18.25,12.51,11.11,5.22,2.21
Marienthal,53.56667,10.08333,DE,287101,2911287,Marienthal,4.28,6.53,7.42,8.1,13.66,15.34,16.36,18.3,12.56,11.16,5.27,2.25
Hamburg-Mitte,53.55,10.01667,DE,301231,2911288,Hamburg-Mitte,4.26,6.5,7.35,8.08,13.64,15.32,16.34,18.27,12.53,11.13,5.22,2.23
Eimsbüttel,53.57416,9.95679,DE,269118,2911293,Eimsbüttel,4.21,6.44,7.3,8.03,13.59,15.27,16.29,18.22,12.49,11.08,5.17,2.18
Altona,53.55,9.93333,DE,250192,2911296,Altona,4.16,6.42,7.28,7.97,13.51,15.16,16.16,18.11,12.41,11.05,5.12,2.16
Hamburg,53.55073,9.99302,DE,1845229,2911298,Hamburg,4.31,6.54,7.4,8.13,13.69,15.37,16.39,18.32,12.59,11.18,5.27,2.28
Halver,51.18612,7.49817,DE,17650,2911384,Halver,2.66,5.03,6.07,6.36,12.55,13.88,15.29,17.65,10.69,10.62,4.11,0.4
Haltern am See,51.74297,7.18163,DE,37845,2911395,Haltern am See,4.88,7.36,8.11,8.38,14.34,15.85,17.25,19.71,12.76,12.46,5.88,2.92
Halstenbek,53.63333,9.85,DE,16212,2911408,Halstenbek,4.26,6.52,7.38,8.07,13.61,15.26,16.26,18.21,12.51,11.15,5.22,2.26
Halle,52.06007,8.36083,DE,21448,2911520,Halle,4.08,6.67,7.36,7.75,13.63,15.41,16.61,18.93,12.07,11.6,5.25,2.17
Halle (Saale),51.48158,11.97947,DE,237865,2911522,Halle (Saale),3.33,6.72,7.86,8.35,14.69,16.7,17.86,20.29,13.05,11.19,5.53,1.29
Haldensleben I,52.28906,11.40982,DE,20294,2911584,Haldensleben I,4.11,6.79,8.12,8.62,14.86,16.57,17.62,19.89,13.07,11.41,5.8,1.81
Halberstadt,51.89562,11.05622,DE,39729,2911665,Halberstadt,3.34,6.19,7.43,7.83,13.95,15.84,16.92,19.35,12.47,10.7,5.1,1.01
Hakenfelde,52.55877,13.20831,DE,31327,2911710,Hakenfelde,3.71,6.41,7.81,8.7,14.82,16.56,17.31,19.38,12.83,10.91,5.38,0.85
Haiger,50.74162,8.20778,DE,20218,2911964,Haiger,2.48,5.21,6.96,7.25,13.94,15.23,16.69,18.97,11.8,10.71,4.8,0.66
Hagen,51.36081,7.47168,DE,198972,2912621,Hagen,4.44,7.03,7.9,8.16,14.27,15.67,16.98,19.47,12.52,12.41,5.77,2.26
Haar,48.10881,11.72653,DE,17560,2913192,Haar,-1.67,4.18,6.73,6.54,13.51,14.69,16.56,17.98,11.96,10.19,3.49,-1.95
Haan,51.19382,7.0133,DE,29431,2913195,Haan,4.2,6.75,7.6,7.91,14.12,15.36,16.81,19.31,12.3,12.09,5.52,2.23
Gütersloh,51.90693,8.37853,DE,96180,2913366,Gütersloh,4.34,6.87,7.61,8.01,14.05,15.8,17.11,19.49,12.37,11.86,5.54,2.37
Güstrow,53.7972,12.17337,DE,31217,2913433,Güstrow,3.99,6.03,7.23,8.13,13.55,15.82,16.56,18.16,12.31,10.78,5.06,1.47
Gunzenhausen,49.11663,10.75971,DE,16477,2913537,Gunzenhausen,1.17,5.07,7.02,7.08,14.44,15.43,17.29,19.26,12.29,10.65,4.28,-0.33
Günzburg,48.45599,10.27695,DE,19737,2913555,Günzburg,0.02,5.39,7.1,7.04,14.41,15.27,17.35,19.25,12.65,10.8,4.08,-0.51
Gummersbach,51.02608,7.56473,DE,53131,2913761,Gummersbach,3.04,5.57,6.81,7.29,13.7,14.84,16.22,18.66,11.48,11.24,4.84,1.03
Guben,51.94987,14.71447,DE,21608,2913922,Guben,3.42,6.48,8.13,8.86,15.15,17.16,17.98,19.88,13.28,11.05,5.48,0.89
Großzschocher,51.30147,12.32322,DE,597493,2914796,Großzschocher,3.18,6.68,7.77,8.25,14.4,16.72,17.8,20.19,13.06,11.11,5.44,1.07
Groß-Umstadt,49.86899,8.9321,DE,21758,2914929,Groß-Umstadt,2.91,6.69,7.8,8.37,15.46,16.65,18.33,20.76,13.11,11.56,5.56,1.24
Großostheim,49.91985,9.07596,DE,16346,2915196,Großostheim,2.91,6.76,7.91,8.59,15.57,16.74,18.36,20.79,13.25,11.54,5.67,1.22
Groß-Gerau,49.92139,8.48255,DE,23641,2915613,Groß-Gerau,3.05,6.83,8.16,8.64,15.99,17.11,18.97,21.38,13.5,11.96,5.86,1.63
Großenhain,51.28951,13.5335,DE,16573,2916630,Großenhain,3.25,6.58,7.91,8.34,14.58,16.81,17.76,20.07,13.1,11.16,5.44,0.94
Gronau,52.21099,7.02238,DE,46161,2917138,Gronau,4.85,7.2,7.87,8.35,14.08,15.5,16.73,19.08,12.66,12.18,5.63,3.14
Gröbenzell,48.2,11.36667,DE,19110,2917221,Gröbenzell,-1.08,4.83,7.19,6.96,14.12,15.19,17.03,18.59,12.43,10.72,4.05,-1.16
Grimma,51.23367,12.71959,DE,17991,2917325,Grimma,3.19,6.75,7.81,8.21,14.34,16.63,17.61,19.95,12.89,11.19,5.45,0.97
Griesheim,49.86085,8.5725,DE,25287,2917412,Griesheim,3.12,6.83,8.11,8.58,15.87,17.04,18.87,21.28,13.42,11.91,5.83,1.59
Grevenbroich,51.09102,6.5827,DE,64779,2917540,Grevenbroich,5.13,7.55,8.29,8.43,14.54,15.97,17.61,20.05,13.07,12.72,6.19,3.06
Greven,52.09364,7.59396,DE,35080,2917544,Greven,4.69,7.23,7.92,8.41,14.31,15.82,17.02,19.53,12.64,12.23,5.66,2.89
Greiz,50.65778,12.19918,DE,24147,2917737,Greiz,2.62,6.26,7.35,7.48,13.92,16.05,17.03,19.39,12.23,10.95,4.93,0.1
Greifswald,54.09311,13.38786,DE,52731,2917788,Greifswald,4.04,6.18,7.28,8.2,13.28,16.18,16.86,18.36,12.57,10.81,5.17,1.74
Grefrath,51.3363,6.34072,DE,16016,2917816,Grefrath,5.26,7.67,8.36,8.59,14.6,15.93,17.5,19.75,13.11,12.74,6.25,3.24
Göttingen,51.53443,9.93228,DE,122149,2918632,Göttingen,3.14,6.06,7.18,7.55,13.76,15.63,16.6,18.94,12.0,10.84,5.08,1.17
Gotha,50.94823,10.70193,DE,46615,2918752,Gotha,2.05,5.18,6.6,6.88,13.2,15.18,16.31,18.74,11.68,10.0,4.3,-0.4
Goslar,51.90425,10.42766,DE,43560,2918840,Goslar,2.64,5.29,6.4,6.83,12.83,14.82,15.75,18.15,11.29,10.14,4.23,0.25
Görlitz,51.15518,14.98853,DE,57751,2918987,Görlitz,2.31,5.47,7.09,7.61,13.84,16.03,16.95,18.72,12.12,10.23,4.57,-0.05
Gorbitz,51.0455,13.66108,DE,21599,2919039,Gorbitz,2.39,5.61,7.14,7.54,13.99,16.23,17.14,19.19,12.44,10.17,4.75,-0.3
Göppingen,48.70354,9.65209,DE,58040,2919054,Göppingen,1.79,6.28,7.36,7.71,14.88,15.61,17.73,19.74,12.9,11.49,4.78,-0.32
Gohlis,51.36667,12.35,DE,45924,2919502,Gohlis,3.25,6.66,7.77,8.29,14.45,16.7,17.76,20.18,13.05,11.15,5.52,1.14
Goch,51.67873,6.15895,DE,33706,2919625,Goch,5.29,7.55,8.22,8.58,14.24,15.64,17.11,19.31,13.13,12.53,6.2,3.46
Glinde,53.5441,10.20048,DE,16210,2919880,Glinde,4.17,6.49,7.41,8.08,13.66,15.32,16.33,18.34,12.51,11.09,5.23,2.12
Glauchau,50.81987,12.54493,DE,26473,2920020,Glauchau,2.46,6.07,7.06,7.22,13.5,15.77,16.68,19.01,11.95,10.63,4.67,-0.14
Gladbeck,51.57077,6.98593,DE,76940,2920236,Gladbeck,4.81,7.25,8.02,8.27,14.2,15.72,17.14,19.61,12.69,12.37,5.83,2.83
Ginsheim-Gustavsburg,49.9711,8.34532,DE,16043,2920329,Ginsheim-Gustavsburg,3.03,6.8,8.24,8.7,15.97,17.15,18.89,21.29,13.55,11.99,5.95,1.65
Gilching,48.10755,11.2936,DE,16859,2920433,Gilching,-1.44,4.51,6.8,6.53,13.66,14.79,16.75,18.2,12.17,10.55,3.66,-1.52
Gifhorn,52.47774,10.5511,DE,43000,2920478,Gifhorn,4.13,6.71,7.83,8.38,14.36,16.04,17.16,19.44,12.71,11.34,5.55,1.81
Gießen,50.58727,8.67554,DE,74411,2920512,Gießen,2.8,5.8,7.52,7.82,14.54,15.93,17.34,19.8,12.46,11.12,5.37,1.19
Giengen an der Brenz,48.62219,10.24312,DE,20201,2920620,Giengen an der Brenz,0.59,5.53,7.17,7.09,14.42,15.29,17.41,19.28,12.61,10.9,4.22,-0.55
Gevelsberg,51.31971,7.3392,DE,32664,2920757,Gevelsberg,4.15,6.73,7.57,7.85,13.94,15.3,16.65,19.18,12.2,12.07,5.44,2.06
Gesundbrunnen,52.55035,13.39139,DE,93862,2920789,Gesundbrunnen,3.54,6.19,7.63,8.56,14.7,16.45,17.16,19.26,12.69,10.71,5.23,0.59
Geseke,51.64091,8.5109,DE,20602,2920834,Geseke,4.36,6.93,7.64,7.93,13.96,15.62,16.79,19.29,12.4,12.0,5.62,2.06
Gescher,51.954,7.00481,DE,17115,2920842,Gescher,4.83,7.22,7.94,8.37,14.22,15.61,16.93,19.35,12.69,12.27,5.69,3.06
Gersthofen,48.42432,10.87273,DE,20254,2920891,Gersthofen,0.0,5.33,7.26,7.16,14.38,15.36,17.23,18.95,12.6,10.81,4.29,-0.33
Germersheim,49.2144,8.36687,DE,20972,2921034,Germersheim,2.93,7.28,8.35,8.45,15.82,16.81,19.2,21.49,13.86,12.35,5.75,1.38
Germering,48.13392,11.3765,DE,40511,2921039,Germering,-1.48,4.51,6.89,6.63,13.72,14.84,16.81,18.25,12.21,10.57,3.72,-1.58
Gerlingen,48.79954,9.06316,DE,19050,2921061,Gerlingen,2.16,6.32,7.41,7.52,14.52,15.48,17.68,19.63,12.91,11.57,4.75,0.09
Geretsried,47.85775,11.48054,DE,23364,2921139,Geretsried,-1.71,4.31,6.62,6.31,13.32,14.57,16.54,17.87,12.08,10.49,3.23,-2.46
Gera,50.88029,12.08187,DE,104659,2921232,Gera,2.97,6.57,7.62,7.79,14.1,16.28,17.33,19.69,12.52,11.09,5.18,0.7
Georgsmarienhütte,52.20296,8.0448,DE,32580,2921242,Georgsmarienhütte,4.28,6.8,7.49,7.89,13.74,15.38,16.55,18.9,12.14,11.76,5.29,2.45
Gelsenkirchen,51.50508,7.09654,DE,270028,2921466,Gelsenkirchen,4.9,7.41,8.2,8.47,14.45,15.95,17.35,19.87,12.87,12.58,6.02,2.88
Gelnhausen,50.20164,9.18742,DE,21881,2921473,Gelnhausen,2.75,6.23,7.66,8.27,15.28,16.48,18.05,20.59,12.98,11.37,5.52,1.11
Geldern,51.51908,6.32363,DE,34013,2921528,Geldern,5.27,7.58,8.29,8.56,14.4,15.81,17.32,19.55,13.1,12.62,6.23,3.34
Geislingen an der Steige,48.62423,9.82736,DE,27962,2921653,Geislingen an der Steige,1.28,5.77,7.07,7.33,14.5,15.29,17.3,19.26,12.53,11.05,4.3,-0.77
Geilenkirchen,50.96745,6.11763,DE,28334,2921837,Geilenkirchen,5.05,7.67,8.16,8.32,14.45,15.65,17.38,19.86,13.02,12.72,6.11,3.0
Geesthacht,53.43575,10.3779,DE,29487,2922102,Geesthacht,4.18,6.52,7.48,8.17,13.8,15.47,16.49,18.56,12.59,11.12,5.31,2.07
Gauting,48.06919,11.37703,DE,19216,2922230,Gauting,-1.73,4.26,6.63,6.38,13.47,14.6,16.56,18.0,11.96,10.32,3.47,-1.83
Garmisch-Partenkirchen,47.49209,11.09576,DE,26022,2922530,Garmisch-Partenkirchen,-4.24,2.59,4.54,4.79,12.13,13.7,16.03,16.75,11.53,9.96,1.41,-4.55
Garching,48.24896,11.65101,DE,15303,2922582,Garching,-1.23,4.9,7.52,7.26,14.44,15.39,17.34,18.87,12.58,10.7,4.03,-1.4
Garbsen,52.41371,9.5899,DE,63355,2922586,Garbsen,4.45,7.06,7.83,8.26,14.04,15.87,17.1,19.29,12.64,11.64,5.66,2.24
Ganderkesee,53.03333,8.53333,DE,31141,2922731,Ganderkesee,4.59,6.96,7.72,8.19,13.57,15.3,16.33,18.35,12.52,11.66,5.57,2.84
Gaggenau,48.8,8.33333,DE,29496,2923362,Gaggenau,2.82,7.35,8.16,8.36,15.68,16.54,18.81,20.83,13.83,12.43,5.41,0.65
Füssen,47.57143,10.70171,DE,15608,2923507,Füssen,-3.05,3.02,4.76,4.57,11.96,13.08,15.25,16.28,10.93,9.41,1.39,-4.21
Fürth,49.47593,10.98856,DE,112025,2923544,Fürth,1.54,5.11,7.0,7.45,14.72,15.85,17.45,19.57,12.42,10.62,4.61,0.01
Fürstenwalde,52.36067,14.06185,DE,33539,2923588,Fürstenwalde,3.53,6.34,7.86,8.74,14.93,16.75,17.46,19.49,12.94,10.78,5.36,0.67
Fürstenfeldbruck,48.17904,11.2547,DE,33533,2923625,Fürstenfeldbruck,-0.95,4.96,7.2,6.94,14.17,15.18,17.11,18.69,12.45,10.8,4.06,-0.93
Fulda,50.55162,9.67518,DE,63760,2923822,Fulda,2.06,5.47,6.8,7.41,14.0,15.45,16.67,19.25,11.9,10.46,4.57,0.24
Fröndenberg,51.47563,7.76946,DE,20566,2924206,Fröndenberg,4.09,6.68,7.4,7.57,13.56,15.19,16.48,18.93,12.02,11.89,5.28,1.76
Frohnau,52.63336,13.29024,DE,16689,2924302,Frohnau,3.54,6.21,7.63,8.54,14.67,16.42,17.15,19.23,12.68,10.72,5.23,0.62
Friesoythe,53.0226,7.85764,DE,20311,2924360,Friesoythe,4.85,7.1,7.95,8.45,13.79,15.4,16.37,18.32,12.68,11.9,5.78,3.22
Friedrichshain,52.51559,13.45482,DE,117829,2924573,Friedrichshain,3.57,6.23,7.72,8.69,14.94,16.61,17.36,19.48,12.87,10.76,5.33,0.56
Friedrichshagen,52.45052,13.62463,DE,19009,2924577,Friedrichshagen,3.55,6.23,7.73,8.7,14.94,16.62,17.36,19.45,12.87,10.74,5.31,0.56
Friedrichshafen,47.65689,9.47554,DE,58403,2924585,Friedrichshafen,0.46,5.14,7.53,7.4,15.19,15.79,18.06,19.56,13.76,12.01,4.78,-0.38
Friedrichsfelde,52.50575,13.50812,DE,55423,2924599,Friedrichsfelde,3.57,6.23,7.72,8.69,14.94,16.61,17.36,19.48,12.87,10.76,5.33,0.56
Friedrichsdorf,50.24962,8.64281,DE,24435,2924625,Friedrichsdorf,2.72,6.0,7.61,7.83,14.86,16.17,17.84,20.24,12.71,11.37,5.38,1.13
Friedenau,52.47133,13.32813,DE,27998,2924770,Friedenau,3.6,6.29,7.73,8.67,14.9,16.57,17.33,19.46,12.84,10.8,5.34,0.66
Friedberg,50.33739,8.75591,DE,27484,2924802,Friedberg,2.62,6.0,7.6,7.99,14.96,16.25,17.81,20.32,12.77,11.23,5.41,1.09
Friedberg,48.35693,10.98461,DE,29916,2924803,Friedberg,-0.16,5.13,7.12,6.97,14.22,15.2,17.14,18.85,12.44,10.65,4.1,-0.53
Freudenstadt,48.46695,8.41371,DE,23868,2924894,Freudenstadt,1.1,4.85,5.6,5.57,12.78,13.69,16.04,17.68,11.16,10.4,2.71,-1.96
Freudenberg,50.89741,7.87415,DE,18601,2924915,Freudenberg,2.49,5.09,6.33,7.04,13.48,14.6,15.98,18.25,11.22,10.6,4.47,0.45
Freital,51.00166,13.6488,DE,39027,2925017,Freital,2.92,6.18,7.58,7.96,14.36,16.58,17.49,19.63,12.73,10.74,5.17,0.2
Freising,48.40351,11.74876,DE,42570,2925034,Freising,-0.64,5.23,7.66,7.56,14.72,15.69,17.65,19.19,12.8,10.84,4.43,-0.65
Freilassing,47.84085,12.98114,DE,15909,2925080,Freilassing,-2.03,3.63,6.48,6.97,14.01,15.32,17.02,18.18,12.25,10.48,3.18,-2.6
Freiburg,47.9959,7.85222,DE,215966,2925177,Freiburg,1.77,6.76,7.86,8.04,15.73,16.45,19.02,20.59,14.05,12.3,4.85,0.45
Freiberg am Neckar,48.93196,9.2024,DE,15235,2925189,Freiberg am Neckar,2.28,6.59,7.77,8.06,15.15,15.97,18.21,20.26,13.31,11.8,5.16,0.63
Freiberg,50.91089,13.33881,DE,43670,2925192,Freiberg,1.81,5.14,6.35,6.64,12.99,15.19,16.06,18.29,11.32,9.68,3.94,-0.95
Frechen,50.91485,6.8118,DE,48733,2925259,Frechen,4.79,7.3,8.01,8.09,14.31,15.77,17.47,19.92,12.79,12.42,5.94,2.65
Frankfurt am Main,50.11552,8.68417,DE,650000,2925533,Frankfurt am Main,2.83,6.46,7.94,8.39,15.57,16.8,18.49,20.98,13.21,11.63,5.66,1.31
Frankfurt (Oder),52.34714,14.55062,DE,57015,2925535,Frankfurt (Oder),3.49,6.39,8.03,8.89,15.03,16.97,17.65,19.58,13.08,10.89,5.37,0.75
Frankenthal,49.53414,8.35357,DE,47438,2925550,Frankenthal,2.84,7.12,8.41,8.75,16.18,17.29,19.39,21.8,13.96,12.2,5.89,1.48
Frankenberg,51.0589,8.80077,DE,19276,2925629,Frankenberg,2.45,5.06,6.53,6.86,13.22,14.74,15.95,18.33,11.39,10.43,4.45,0.49
Frankenberg,50.91297,13.04011,DE,16850,2925630,Frankenberg,2.56,6.02,7.07,7.32,13.6,15.82,16.71,19.01,11.95,10.58,4.65,-0.2
Forst,51.73544,14.63971,DE,22843,2925832,Forst,3.33,6.44,8.03,8.73,14.99,17.07,17.92,19.87,13.17,11.12,5.43,0.9
Forchheim,49.71754,11.05877,DE,30442,2925910,Forchheim,2.0,5.54,7.46,7.92,15.18,16.25,17.92,19.98,12.76,10.99,4.98,0.39
Flörsheim,50.01311,8.42779,DE,20023,2926120,Flörsheim,2.85,6.64,8.08,8.56,15.84,17.0,18.74,21.17,13.39,11.81,5.77,1.46
Flensburg,54.78431,9.43961,DE,85838,2926271,Flensburg,4.54,6.2,6.82,7.87,13.14,14.92,15.8,17.31,12.53,10.93,4.91,2.89
Fischeln,51.30353,6.58836,DE,26030,2926565,Fischeln,5.07,7.51,8.26,8.55,14.56,15.93,17.42,19.77,13.01,12.68,6.17,3.06
Finsterwalde,51.63388,13.70662,DE,18922,2926670,Finsterwalde,3.29,6.52,7.94,8.64,14.97,17.02,17.9,20.18,13.17,11.16,5.52,0.92
Stuttgart Feuerbach,48.80867,9.15719,DE,28046,2927043,Stuttgart Feuerbach,2.19,6.42,7.57,7.78,14.78,15.7,17.87,19.87,13.12,11.68,4.97,0.32
Fellbach,48.80912,9.27697,DE,43935,2927268,Fellbach,1.98,6.27,7.45,7.73,14.78,15.65,17.78,19.79,13.03,11.55,4.88,0.13
Falkensee,52.56014,13.0927,DE,37468,2927930,Falkensee,3.77,6.51,7.9,8.75,14.88,16.62,17.38,19.43,12.88,11.0,5.44,0.98
Eving,51.55177,7.48087,DE,38687,2928313,Eving,4.63,7.23,7.95,8.12,14.07,15.71,17.02,19.54,12.57,12.31,5.71,2.53
Eutin,54.14054,10.60751,DE,16984,2928381,Eutin,4.12,6.19,7.06,7.75,13.14,15.2,16.15,17.82,12.39,10.9,5.25,2.33
Euskirchen,50.66057,6.78722,DE,54889,2928396,Euskirchen,4.49,7.1,7.72,7.79,13.91,15.49,17.16,19.63,12.56,12.13,5.67,2.15
Ettlingen,48.94094,8.40763,DE,38942,2928615,Ettlingen,3.1,7.57,8.45,8.61,15.89,16.86,19.28,21.44,14.13,12.53,5.88,1.31
Esslingen,48.73961,9.30473,DE,92390,2928751,Esslingen,2.2,6.58,7.73,8.08,15.15,15.96,18.07,20.08,13.29,11.83,5.2,0.28
Essen,51.45657,7.01228,DE,593085,2928810,Essen,4.67,7.14,7.93,8.21,14.18,15.67,17.09,19.59,12.63,12.32,5.77,2.67
Espelkamp,52.38251,8.62127,DE,26378,2928874,Espelkamp,4.53,7.15,7.91,8.28,14.11,15.79,17.02,19.21,12.57,11.93,5.69,2.68
Eschweiler,50.81854,6.27184,DE,55778,2928963,Eschweiler,4.79,7.35,7.89,7.88,14.07,15.35,17.04,19.55,12.67,12.51,5.86,2.49
Eschwege,51.18386,10.05329,DE,21191,2928967,Eschwege,3.14,6.23,7.45,7.7,13.96,15.73,16.77,19.24,12.19,10.92,5.19,1.19
Eschborn,50.14328,8.57111,DE,21641,2929134,Eschborn,2.82,6.43,7.94,8.33,15.49,16.71,18.4,20.86,13.15,11.63,5.63,1.32
Erwitte,51.6127,8.3384,DE,16081,2929247,Erwitte,4.41,6.93,7.6,7.83,13.83,15.55,16.76,19.26,12.33,12.04,5.58,2.06
Erlangen,49.59099,11.00783,DE,102675,2929567,Erlangen,1.69,5.23,7.1,7.6,14.86,15.99,17.61,19.72,12.52,10.69,4.74,0.14
Erkrath,51.22235,6.90831,DE,47815,2929600,Erkrath,4.84,7.38,8.2,8.53,14.7,16.0,17.47,19.94,12.94,12.66,6.11,2.86
Erkelenz,51.07947,6.31531,DE,44650,2929622,Erkelenz,4.99,7.51,8.08,8.23,14.3,15.63,17.27,19.69,12.88,12.57,6.0,2.91
Erfurt,50.9787,11.03283,DE,213692,2929670,Erfurt,2.62,6.01,7.17,7.53,13.76,15.91,17.1,19.55,12.39,10.48,4.97,0.58
Erftstadt,50.81481,6.79387,DE,51207,2929671,Erftstadt,4.75,7.32,7.95,8.03,14.19,15.74,17.4,19.86,12.78,12.37,5.89,2.51
Erding,48.30603,11.90686,DE,33519,2929715,Erding,-0.81,5.18,7.8,7.61,14.8,15.72,17.67,19.19,12.79,10.91,4.33,-0.91
Eppingen,49.13645,8.91229,DE,21179,2929831,Eppingen,2.98,7.1,8.21,8.44,15.51,16.4,18.68,20.8,13.68,12.23,5.72,1.38
Eppendorf,53.5924,9.98752,DE,24806,2929853,Eppendorf,4.26,6.5,7.35,8.08,13.64,15.32,16.34,18.27,12.53,11.13,5.22,2.23
Eppelborn,49.4,6.96667,DE,18079,2929865,Eppelborn,2.61,6.54,7.46,7.79,14.97,15.73,18.17,20.04,12.83,11.58,5.22,1.11
Ennigerloh,51.83843,8.03093,DE,20713,2930030,Ennigerloh,4.33,6.78,7.5,7.75,13.72,15.49,16.87,19.28,12.23,11.81,5.37,2.28
Ennepetal,51.29848,7.3629,DE,32607,2930043,Ennepetal,3.99,6.43,7.39,7.65,13.79,15.12,16.5,18.94,12.01,11.97,5.35,1.76
Enger,52.14063,8.55772,DE,19852,2930182,Enger,4.18,6.81,7.49,7.88,13.75,15.56,16.75,19.04,12.22,11.72,5.4,2.24
Engelskirchen,50.98854,7.41391,DE,20786,2930216,Engelskirchen,3.92,6.51,7.52,7.89,14.26,15.54,17.04,19.44,12.25,11.85,5.56,1.93
Emsdetten,52.1734,7.52781,DE,35582,2930449,Emsdetten,4.7,7.17,7.83,8.34,14.16,15.67,16.85,19.3,12.58,12.14,5.6,2.94
Emmerich,51.83933,6.24792,DE,30869,2930509,Emmerich,5.25,7.47,8.14,8.56,14.19,15.58,17.01,19.16,13.11,12.45,6.14,3.47
Emmendingen,48.12096,7.85359,DE,27383,2930523,Emmendingen,2.18,7.16,8.19,8.3,15.92,16.77,19.23,20.96,14.31,12.62,5.28,0.83
Emden,53.36745,7.20778,DE,51526,2930596,Emden,4.96,6.95,7.72,8.28,13.21,14.99,15.89,17.68,12.96,11.71,6.17,3.72
Eltville,50.02858,8.11754,DE,16845,2930646,Eltville,3.29,6.95,8.3,8.62,15.77,16.99,18.73,21.13,13.49,12.08,5.99,1.75
