name,latitude,longitude,country,population,id,city,jan,feb,mar,apr,may,jun,jul,aug,sep,oct,nov,dec
Zwickau,50.72724,12.48839,DE,98796,2803560,Zwickau,-3.34,-1.49,0.51,5.43,11.08,16.86,16.79,16.91,14.01,8.93,6.41,-0.04
Zweibrücken,49.24686,7.36977,DE,35221,2803620,Zweibrücken,0.08,0.89,1.57,6.31,12.07,17.44,16.5,18.09,14.97,10.14,6.99,1.03
Zülpich,50.69447,6.65414,DE,20208,2803723,Zülpich,0.83,0.23,2.01,6.03,12.18,16.83,15.92,17.22,14.65,10.44,7.65,1.27
Zossen,52.216,13.44909,DE,17138,2803870,Zossen,-5.06,-2.41,0.93,6.34,12.34,18.44,17.86,18.56,14.32,9.92,6.12,1.55
Zittau,50.89772,14.80764,DE,25785,2804008,Zittau,-4.92,-2.96,-0.23,4.89,10.95,16.87,17.07,17.26,13.09,8.4,5.43,-0.4
Zirndorf,49.4424,10.95414,DE,25734,2804034,Zirndorf,-2.52,-0.66,0.87,6.19,11.46,17.8,17.2,17.72,14.81,9.41,6.08,-0.11
Zerbst,51.9662,12.08517,DE,15680,2804748,Zerbst,-4.28,-1.84,1.12,6.23,12.25,18.32,17.43,17.9,14.27,9.98,6.57,1.69
Zeitz,51.04962,12.1369,DE,29469,2804922,Zeitz,-3.5,-1.39,1.0,6.24,11.51,17.18,16.97,17.19,14.27,9.4,6.72,0.85
Zehlendorf,52.43333,13.25,DE,54328,2805059,Zehlendorf,-5.47,-2.79,0.59,6.02,12.21,18.25,17.59,18.49,14.16,9.86,5.91,1.5
Xanten,51.65877,6.45297,DE,21587,2805385,Xanten,0.74,0.49,2.72,6.26,13.09,18.05,16.32,17.77,14.86,11.09,7.87,2.22
Wurzen,51.3707,12.73939,DE,15233,2805597,Wurzen,-4.0,-1.67,1.18,6.49,11.93,17.94,17.53,17.75,14.37,9.62,6.66,1.33
Würzburg,49.79391,9.95121,DE,133731,2805615,Würzburg,-1.94,0.04,1.5,6.65,12.0,17.97,17.11,18.01,14.94,10.07,6.54,0.85
Würselen,50.81809,6.1347,DE,37074,2805644,Würselen,1.42,0.27,1.78,5.7,12.19,16.81,15.59,17.02,14.6,10.39,7.69,1.27
Wuppertal,51.25627,7.14816,DE,360797,2805753,Wuppertal,0.21,-0.31,1.75,5.76,12.37,17.26,15.75,17.34,14.36,10.44,7.31,1.33
Wunstorf,52.42377,9.43585,DE,42080,2805761,Wunstorf,-2.79,-0.83,1.6,5.77,12.52,17.71,16.46,17.53,14.15,10.3,7.26,2.08
Wülfrath,51.28195,7.03821,DE,21003,2805910,Wülfrath,-0.05,-0.5,1.6,5.51,12.13,17.01,15.49,17.07,14.1,10.16,7.04,1.07
Wörth am Rhein,49.04888,8.25959,DE,17272,2806081,Wörth am Rhein,-0.09,1.75,2.54,7.45,12.69,18.28,17.67,19.05,15.95,10.71,7.69,1.15
Worms,49.63278,8.35916,DE,81099,2806142,Worms,-1.63,1.0,2.21,7.13,12.56,18.03,17.31,18.52,15.27,10.37,6.87,0.85
Wolfsburg,52.42452,10.7815,DE,123064,2806654,Wolfsburg,-4.05,-1.68,1.35,5.87,12.28,17.93,16.82,17.67,14.03,10.05,6.67,1.86
Wolfratshausen,47.91289,11.42166,DE,17191,2806768,Wolfratshausen,-2.2,-0.88,0.02,4.15,9.97,16.51,16.43,16.65,14.15,8.27,4.99,-2.12
Wolfenbüttel,52.16442,10.54095,DE,54740,2806914,Wolfenbüttel,-3.78,-1.62,1.23,5.71,11.97,17.49,16.51,17.34,13.92,9.9,6.76,1.6
Wolfen,51.66122,12.26873,DE,25251,2806919,Wolfen,-4.25,-1.81,1.06,6.33,12.08,18.16,17.51,17.81,14.3,9.77,6.57,1.56
Witzenhausen,51.34103,9.8554,DE,16055,2807184,Witzenhausen,-2.77,-1.21,1.08,5.92,11.87,17.21,16.3,17.3,14.15,9.89,6.61,1.27
Wittstock,53.16118,12.48287,DE,17361,2807201,Wittstock,-5.16,-2.82,0.58,4.93,11.73,17.49,16.58,17.74,13.43,9.53,5.55,1.63
Wittmund,53.57674,7.77839,DE,21355,2807218,Wittmund,-2.06,-0.53,1.91,4.89,11.46,16.53,15.58,16.42,13.77,10.6,7.07,3.35
Wittlich,49.98596,6.89308,DE,17887,2807240,Wittlich,-0.58,0.02,1.4,6.01,12.17,17.04,15.89,17.46,14.42,9.77,6.54,0.96
Wittenberge,53.00543,11.75032,DE,20171,2807344,Wittenberge,-4.75,-2.19,1.21,5.55,12.3,18.16,17.0,18.04,13.84,9.86,5.98,1.89
Wittenau,52.59319,13.32127,DE,24726,2807360,Wittenau,-5.47,-2.9,0.57,5.82,12.12,18.07,17.44,18.48,14.06,9.8,5.79,1.5
Witten,51.44362,7.35258,DE,101247,2807363,Witten,0.23,-0.27,1.89,5.93,12.53,17.38,15.99,17.5,14.43,10.48,7.51,1.43
Wismar,53.89314,11.45286,DE,45255,2807465,Wismar,-4.33,-2.5,0.68,4.5,11.19,17.23,16.46,17.3,13.33,9.54,5.62,2.28
Wipperfürth,51.1161,7.39865,DE,23723,2807594,Wipperfürth,-0.87,-1.23,0.81,4.96,11.56,16.45,15.0,16.67,13.55,9.66,6.43,0.6
Winterhude,53.6,10.0,DE,56382,2807748,Winterhude,-4.26,-2.38,0.82,4.69,11.76,17.34,16.01,16.93,13.2,9.71,6.05,1.97
Winsen,53.35753,10.21282,DE,32662,2807845,Winsen,-4.05,-1.98,1.2,5.14,12.09,17.6,16.28,17.21,13.46,9.91,6.31,2.19
Winnenden,48.87563,9.39819,DE,28334,2807872,Winnenden,-1.03,0.17,0.95,6.27,11.48,17.39,16.83,17.63,14.72,9.52,6.52,0.02
Wilnsdorf,50.81667,8.1,DE,21505,2808461,Wilnsdorf,-2.42,-2.06,-0.09,4.56,10.95,16.01,14.64,16.27,12.95,8.88,5.25,-0.1
Wilmersdorf,52.48333,13.31667,DE,101877,2808473,Wilmersdorf,-5.63,-2.95,0.48,5.91,12.17,18.16,17.53,18.51,14.11,9.82,5.82,1.46
Willich,51.26371,6.54734,DE,51843,2808559,Willich,0.96,0.65,2.78,6.46,13.09,17.97,16.38,17.88,15.01,11.1,7.91,1.99
Wilhelmstadt,52.52462,13.17707,DE,40463,2808662,Wilhelmstadt,-5.28,-2.65,0.75,6.03,12.28,18.26,17.57,18.52,14.19,9.93,5.97,1.61
Wilhelmshaven,53.52998,8.11253,DE,84393,2808720,Wilhelmshaven,-2.58,-0.78,1.76,4.96,11.95,17.05,15.71,16.5,13.61,10.34,6.85,2.85
Wilhelmsburg,53.50669,9.98715,DE,53064,2808747,Wilhelmsburg,-4.11,-2.16,1.02,4.97,12.04,17.56,16.18,17.11,13.4,9.9,6.28,2.14
Wildeshausen,52.89446,8.43375,DE,18114,2808893,Wildeshausen,-2.25,-0.43,2.01,5.41,12.66,17.52,16.07,17.25,13.99,10.46,7.25,2.4
Wiesloch,49.29504,8.69846,DE,26605,2809138,Wiesloch,-0.65,1.24,2.19,7.16,12.64,18.41,17.7,18.94,15.75,10.62,7.16,0.91
Wiesbaden,50.08258,8.24932,DE,278609,2809346,Wiesbaden,-1.76,0.6,2.28,7.0,12.68,17.83,17.04,18.33,15.03,10.37,6.63,1.12
Wiehl,50.9495,7.55062,DE,26291,2809517,Wiehl,-0.92,-0.9,1.18,5.39,11.93,16.87,15.46,17.14,13.83,9.86,6.52,0.84
Wetzlar,50.56109,8.50495,DE,52656,2809889,Wetzlar,-1.82,-0.7,1.38,6.19,12.24,17.42,16.27,17.71,14.32,10.04,6.28,1.02
Wetter,51.38747,7.39277,DE,29146,2809984,Wetter,0.23,-0.27,1.89,5.93,12.53,17.38,15.99,17.5,14.43,10.48,7.51,1.43
Westerstede,53.25682,7.92737,DE,21902,2810188,Westerstede,-2.29,-0.59,1.85,5.1,12.32,17.13,15.69,16.55,13.63,10.32,6.94,2.57
Westend,52.51708,13.27636,DE,41328,2810538,Westend,-5.78,-3.11,0.33,5.76,12.02,18.01,17.37,18.36,13.96,9.67,5.67,1.3
Wesseling,50.82709,6.9747,DE,35665,2810612,Wesseling,0.63,0.65,2.61,6.5,12.67,17.53,16.43,17.8,14.99,10.9,7.82,1.75
Wesel,51.6669,6.62037,DE,61685,2810678,Wesel,0.69,0.43,2.68,6.23,13.06,18.04,16.32,17.78,14.85,11.05,7.85,2.18
Wertheim,49.759,9.50852,DE,24869,2810716,Wertheim,-1.63,0.2,1.52,6.82,12.32,18.14,17.24,18.2,15.15,10.25,6.7,0.99
Wersten,51.18459,6.81249,DE,27151,2810730,Wersten,0.65,0.47,2.69,6.52,13.02,17.89,16.47,17.94,14.97,10.97,7.83,1.79
Wernigerode,51.83652,10.78216,DE,34463,2810808,Wernigerode,-4.84,-2.35,0.05,4.8,11.06,16.72,15.84,16.65,13.14,8.91,5.81,0.42
Werne,51.66446,7.63421,DE,30810,2810833,Werne,-0.09,-0.2,2.08,5.93,12.52,17.52,16.15,17.48,14.48,10.49,7.59,1.6
Wermelskirchen,51.1397,7.21583,DE,36816,2810855,Wermelskirchen,-0.98,-1.18,0.79,4.87,11.42,16.29,14.87,16.49,13.42,9.49,6.28,0.41
Werl,51.55493,7.91403,DE,32149,2810878,Werl,-0.14,-0.3,1.79,5.81,12.31,17.25,16.03,17.35,14.37,10.32,7.52,1.37
Werdohl,51.26011,7.76608,DE,20366,2810919,Werdohl,-0.35,-0.89,1.22,5.26,11.84,16.73,15.42,16.92,13.9,9.94,6.99,0.83
Werder,52.37874,12.934,DE,22384,2810945,Werder,-4.92,-2.31,0.91,6.18,12.41,18.38,17.59,18.4,14.23,10.06,6.2,1.76
Werdau,50.73604,12.37534,DE,24424,2810969,Werdau,-3.34,-1.53,0.48,5.42,11.03,16.82,16.72,16.89,14.0,8.92,6.36,0.0
Wendlingen am Neckar,48.67124,9.37632,DE,15728,2811204,Wendlingen am Neckar,-0.86,0.3,1.18,6.53,11.71,17.65,17.17,17.84,14.96,9.6,6.78,-0.03
Wenden,50.96667,7.86667,DE,19924,2811278,Wenden,-2.04,-2.22,-0.3,3.7,10.71,15.77,14.18,16.04,12.62,8.62,5.22,-0.41
Wendelstein,49.3523,11.15069,DE,16220,2811292,Wendelstein,-2.74,-0.98,0.75,6.02,11.29,17.75,17.12,17.56,14.58,9.19,5.84,-0.38
Weiterstadt,49.9039,8.58874,DE,24253,2811644,Weiterstadt,-1.25,0.82,2.14,6.99,12.65,18.0,17.14,18.48,15.34,10.61,6.88,1.2
Weißwasser,51.50403,14.64017,DE,22099,2811698,Weißwasser,-4.81,-2.68,0.47,6.39,11.8,17.94,17.9,18.12,13.91,9.28,6.09,0.68
Weißenfels,51.20148,11.96843,DE,29792,2811899,Weißenfels,-3.45,-1.16,1.52,6.7,12.03,17.78,17.45,17.72,14.66,9.83,7.07,1.49
Weißenburg in Bayern,49.03095,10.97221,DE,18578,2811909,Weißenburg in Bayern,-2.41,-0.86,0.83,5.95,11.12,17.38,16.86,17.42,14.65,9.22,5.87,-0.22
Weinstadt-Endersbach,48.81311,9.36387,DE,26166,2812145,Weinstadt-Endersbach,-0.65,0.51,1.31,6.67,11.85,17.76,17.22,17.94,15.07,9.77,6.95,0.16
Weinheim,49.54887,8.66697,DE,43325,2812174,Weinheim,-0.87,1.25,2.31,7.24,12.7,18.37,17.66,18.85,15.64,10.61,7.13,1.0
Weingarten,47.81009,9.63863,DE,23802,2812204,Weingarten,-1.72,-0.36,0.18,4.32,10.6,17.32,16.89,17.49,15.03,8.87,5.32,-0.92
Weimar,50.9803,11.32903,DE,64727,2812482,Weimar,-3.63,-1.48,0.73,5.94,11.19,16.8,16.37,16.91,14.02,9.43,6.39,0.88
Weilheim,47.84147,11.15484,DE,21401,2812515,Weilheim,-2.36,-0.85,-0.01,3.64,9.32,16.34,16.3,16.43,14.18,7.97,4.48,-3.21
Weilerswist,50.75292,6.84585,DE,16321,2812522,Weilerswist,0.59,0.26,2.17,6.04,12.22,16.97,15.95,17.26,14.63,10.5,7.53,1.31
Weil der Stadt,48.74953,8.87176,DE,19338,2812625,Weil der Stadt,-0.82,-0.51,0.39,5.64,10.96,16.72,16.27,17.16,14.48,9.29,6.49,-0.34
Weil am Rhein,47.59331,7.62082,DE,29548,2812636,Weil am Rhein,-0.91,1.44,1.44,6.63,11.97,17.52,17.53,18.26,15.16,9.36,6.17,0.29
Weiden,49.67682,12.15613,DE,42550,2813040,Weiden,-3.69,-1.56,0.23,5.12,10.9,17.25,16.85,17.15,13.87,8.53,5.31,-0.76
Weißensee,52.55632,13.46649,DE,47693,2813187,Weißensee,-5.74,-3.14,0.41,5.7,11.98,17.91,17.37,18.43,13.96,9.65,5.64,1.34
Wegberg,51.14221,6.28436,DE,29622,2813390,Wegberg,1.47,0.9,2.78,6.47,12.99,17.74,16.39,17.8,15.14,11.13,8.07,1.95
Weener,53.16332,7.35052,DE,15718,2813433,Weener,-1.84,-0.4,2.08,5.25,12.46,17.1,15.66,16.63,13.79,10.46,7.05,2.54
Wedel,53.58374,9.69835,DE,31995,2813464,Wedel,-3.78,-2.05,1.09,4.81,11.86,17.36,16.0,16.96,13.34,9.91,6.36,2.22
Wedding,52.54734,13.35594,DE,85275,2813472,Wedding,-5.94,-3.23,0.25,5.88,12.17,18.16,17.57,18.59,14.13,9.8,5.78,1.39
Wassenberg,51.10009,6.15484,DE,16641,2813786,Wassenberg,1.67,1.06,2.92,6.6,13.16,17.91,16.51,17.94,15.28,11.26,8.22,2.08
Warstein,51.44488,8.34851,DE,28532,2814005,Warstein,-1.7,-1.92,0.12,4.19,10.84,15.92,14.63,16.17,13.08,8.99,5.99,-0.05
Warendorf,51.95109,7.98756,DE,38707,2814127,Warendorf,-0.94,-0.36,1.99,5.87,12.72,17.91,16.33,17.72,14.43,10.45,7.49,1.68
Waren,53.5204,12.67985,DE,21470,2814131,Waren,-5.35,-3.12,0.02,4.35,11.4,17.14,16.32,17.43,13.11,9.25,5.21,1.54
Wardenburg,53.06667,8.2,DE,16019,2814146,Wardenburg,-2.32,-0.52,1.88,5.25,12.59,17.38,15.9,16.9,13.8,10.36,7.1,2.45
Warburg,51.49011,9.14641,DE,24317,2814153,Warburg,-2.33,-1.42,0.91,5.49,11.68,16.82,15.78,17.04,13.81,9.61,6.47,0.75
Wangen,47.6895,9.83247,DE,27045,2814270,Wangen,-1.91,-0.89,-0.36,2.97,9.34,16.31,16.09,16.62,14.25,8.08,4.53,-1.96
Wandlitz,52.74196,13.45799,DE,19888,2814305,Wandlitz,-5.58,-3.08,0.51,5.58,11.92,17.83,17.29,18.39,13.89,9.6,5.57,1.34
Waltrop,51.62125,7.40238,DE,30220,2814362,Waltrop,0.27,0.01,2.25,6.12,12.7,17.63,16.26,17.6,14.61,10.63,7.74,1.62
Walsrode,52.86147,9.5926,DE,24448,2814462,Walsrode,-3.38,-1.28,1.46,5.38,12.42,17.69,16.26,17.37,13.75,10.1,6.77,2.15
Wallenhorst,52.35,8.01667,DE,24201,2814632,Wallenhorst,-1.57,-0.55,1.83,5.39,12.5,17.58,15.95,17.34,14.08,10.28,7.19,1.84
Waldshut-Tiengen,47.62323,8.21717,DE,22404,2814791,Waldshut-Tiengen,-0.55,0.62,1.52,6.04,11.66,17.67,17.45,18.15,15.5,9.54,6.21,0.36
Waldkraiburg,48.20854,12.39893,DE,24676,2814874,Waldkraiburg,-2.78,-0.83,1.24,6.45,11.08,17.43,17.36,17.59,14.64,9.03,5.83,-1.03
Waldkirch,48.09585,7.96371,DE,20155,2814883,Waldkirch,-0.03,1.05,1.6,6.51,11.86,17.53,17.23,18.19,15.44,9.95,7.19,0.69
Waldbröl,50.87576,7.61688,DE,19533,2815137,Waldbröl,-1.37,-1.35,0.73,4.94,11.48,16.42,15.01,16.68,13.38,9.41,6.07,0.39
Waiblingen,48.83241,9.31641,DE,52945,2815330,Waiblingen,-0.66,0.6,1.29,6.64,11.81,17.68,17.19,17.92,15.08,9.82,6.95,0.21
Waghäusel,49.24991,8.51257,DE,20178,2815487,Waghäusel,-0.51,1.3,2.27,7.09,12.45,18.13,17.48,18.8,15.74,10.58,7.27,0.93
Wadgassen,49.26667,6.78333,DE,18464,2815559,Wadgassen,0.32,0.96,1.56,6.21,12.23,17.51,16.34,17.98,14.95,10.09,6.96,1.04
Wadern,49.54122,6.88774,DE,17282,2815565,Wadern,-0.12,0.29,1.24,5.82,11.9,17.08,15.89,17.57,14.52,9.74,6.57,0.81
Wachtberg,50.63333,7.1,DE,20032,2815678,Wachtberg,-0.07,0.04,1.7,5.9,11.93,16.8,15.84,17.16,14.39,10.19,7.12,1.16
Vreden,52.03792,6.828,DE,22412,2815824,Vreden,0.31,0.23,2.5,5.99,13.03,18.04,16.17,17.6,14.63,10.9,7.76,2.18
Volksdorf,53.64972,10.18417,DE,20685,2816607,Volksdorf,-4.24,-2.39,0.79,4.6,11.57,17.18,15.89,16.83,13.07,9.59,5.92,1.98
Völklingen,49.25162,6.85873,DE,41132,2816630,Völklingen,0.48,1.1,1.73,6.36,12.36,17.65,16.53,18.18,15.15,10.31,7.15,1.26
Voerde,51.59703,6.6863,DE,36047,2817065,Voerde,0.77,0.45,2.74,6.36,13.05,18.02,16.42,17.88,14.95,11.12,7.94,2.17
Vlotho,52.1653,8.85996,DE,20214,2817105,Vlotho,-1.9,-0.71,1.64,5.71,12.48,17.63,16.36,17.63,14.32,10.32,7.35,1.89
Vilshofen,48.62695,13.19222,DE,16695,2817202,Vilshofen,-2.69,-1.09,0.93,6.35,11.19,17.48,17.47,17.73,14.34,8.95,5.83,-0.97
Villingen-Schwenningen,48.06226,8.49358,DE,81770,2817220,Villingen-Schwenningen,-1.93,-1.94,-1.13,2.94,9.26,15.15,14.8,15.62,13.02,7.41,4.48,-1.86
Viersen,51.25435,6.39441,DE,76153,2817311,Viersen,1.07,0.72,2.81,6.49,13.14,18.01,16.39,17.89,15.06,11.17,7.96,2.03
Viernheim,49.54033,8.5782,DE,32620,2817324,Viernheim,-0.83,1.26,2.37,7.38,12.86,18.48,17.72,18.9,15.7,10.75,7.25,1.18
Versmold,52.04009,8.15272,DE,20996,2817537,Versmold,-1.42,-0.58,1.68,5.75,12.51,17.74,16.2,17.53,14.29,10.28,7.34,1.49
Verl,51.88333,8.51667,DE,24002,2817576,Verl,-1.57,-0.76,1.38,5.63,12.34,17.61,16.13,17.44,14.24,10.16,7.24,1.4
Verden,52.92343,9.23491,DE,26924,2817599,Verden,-3.2,-0.95,1.61,5.41,12.5,17.56,16.19,17.31,13.81,10.21,6.94,2.17
Velbert,51.33537,7.04348,DE,87669,2817724,Velbert,-0.4,-0.85,1.24,5.16,11.78,16.67,15.14,16.72,13.75,9.82,6.7,0.72
Vegesack,53.16667,8.61667,DE,34757,2817783,Vegesack,-2.83,-0.76,1.65,5.17,12.46,17.29,15.92,16.89,13.69,10.3,6.98,2.47
Vechta,52.72632,8.28598,DE,29729,2817812,Vechta,-2.07,-0.37,2.06,5.56,12.79,17.7,16.15,17.44,14.11,10.47,7.32,2.24
Vechelde,52.26038,10.36491,DE,16219,2817813,Vechelde,-3.86,-1.72,1.2,5.58,11.97,17.49,16.41,17.33,13.82,9.84,6.66,1.62
Vaterstetten,48.10537,11.76825,DE,21007,2817818,Vaterstetten,-2.87,-1.25,0.01,5.0,10.12,16.46,16.36,16.58,13.86,8.25,5.07,-1.84
Varel,53.39693,8.13621,DE,25212,2817873,Varel,-2.64,-0.72,1.72,5.0,12.14,17.11,15.71,16.51,13.57,10.28,6.85,2.67
Vaihingen an der Enz,48.93563,8.96045,DE,28867,2817927,Vaihingen an der Enz,-0.23,0.9,1.78,6.9,12.17,17.9,17.41,18.3,15.46,10.21,7.28,0.84
Uetersen,53.68769,9.66394,DE,17921,2818067,Uetersen,-3.76,-2.12,1.02,4.64,11.68,17.32,15.94,16.93,13.29,9.86,6.26,2.24
Uslar,51.6569,9.63501,DE,15951,2818094,Uslar,-2.57,-1.34,1.03,5.67,11.83,17.06,16.04,17.19,13.98,9.84,6.61,1.19
Unterschleißheim,48.28038,11.57684,DE,25567,2818766,Unterschleißheim,-2.57,-0.67,1.07,6.23,11.09,17.31,17.09,17.31,14.53,8.9,5.81,-1.15
Unterhaching,48.06598,11.61564,DE,20852,2819465,Unterhaching,-3.01,-1.32,-0.19,4.92,10.02,16.37,16.24,16.44,13.76,8.12,4.94,-2.03
Unterkrozingen,47.91933,7.69045,DE,15908,2819974,Unterkrozingen,-0.32,1.59,1.93,6.95,12.43,17.89,17.72,18.83,15.69,9.78,6.96,0.74
Unna,51.53795,7.68969,DE,66734,2820087,Unna,0.03,-0.3,1.76,5.85,12.37,17.24,15.99,17.38,14.38,10.38,7.53,1.33
Ulm,48.39841,9.99155,DE,120451,2820256,Ulm,-2.01,-0.91,0.41,5.55,10.7,16.79,16.42,16.89,14.24,8.67,5.61,-0.88
Uerdingen,51.35478,6.63918,DE,17888,2820447,Uerdingen,0.82,0.58,2.78,6.47,13.09,18.02,16.43,17.93,15.01,11.11,7.93,2.06
Uelzen,52.96572,10.56111,DE,34996,2820456,Uelzen,-4.18,-1.88,1.31,5.47,12.31,17.83,16.52,17.46,13.62,9.92,6.34,2.08
Überlingen,47.76977,9.17136,DE,21507,2820577,Überlingen,-1.75,-0.26,0.65,5.19,11.26,17.81,17.33,18.04,15.44,9.23,5.78,-0.12
Übach-Palenberg,50.91775,6.12336,DE,25544,2820621,Übach-Palenberg,1.57,0.64,2.34,6.14,12.6,17.25,16.01,17.41,14.9,10.76,7.92,1.59
Tuttlingen,47.98464,8.8177,DE,34847,2820693,Tuttlingen,-2.41,-1.52,-0.63,4.17,9.84,15.91,15.65,16.27,13.63,7.86,4.56,-1.42
Tübingen,48.52266,9.05222,DE,83416,2820860,Tübingen,-1.01,-0.18,0.68,6.05,11.21,17.09,16.72,17.38,14.62,9.29,6.5,-0.37
Trossingen,48.07667,8.64409,DE,15040,2820973,Trossingen,-1.78,-1.65,-0.85,3.43,9.59,15.51,15.16,15.95,13.34,7.74,4.75,-1.6
Troisdorf,50.80901,7.14968,DE,74749,2821029,Troisdorf,0.43,0.57,2.52,6.47,12.66,17.55,16.41,17.82,14.91,10.84,7.72,1.72
Trier,49.75565,6.63935,DE,100129,2821164,Trier,0.02,0.56,1.75,6.29,12.43,17.35,16.15,17.74,14.69,10.15,6.83,1.33
Traunstein,47.86825,12.64335,DE,18422,2821515,Traunstein,-2.79,-1.47,-0.17,3.5,9.29,16.14,16.21,16.39,13.73,7.75,4.55,-2.19
Traunreut,47.96269,12.59231,DE,21244,2821517,Traunreut,-3.22,-1.75,-0.31,3.69,9.45,16.02,16.01,16.25,13.48,7.72,4.46,-2.1
Torgau,51.56016,12.99617,DE,18746,2821807,Torgau,-4.54,-1.98,0.96,6.47,12.02,18.28,17.74,17.96,14.29,9.66,6.46,1.37
Tönisvorst,51.32092,6.49412,DE,30296,2821899,Tönisvorst,0.96,0.65,2.78,6.46,13.09,17.97,16.38,17.88,15.01,11.1,7.91,1.99
Tettnang,47.66857,9.59132,DE,18135,2823368,Tettnang,-1.82,-0.46,0.08,4.22,10.5,17.22,16.79,17.39,14.93,8.77,5.22,-1.02
Templin,53.11865,13.5022,DE,17634,2823533,Templin,-5.72,-3.3,0.29,5.09,11.64,17.42,16.93,18.06,13.56,9.43,5.39,1.38
Tempelhof,52.46667,13.4,DE,61769,2823538,Tempelhof,-5.94,-3.25,0.23,5.83,12.11,18.11,17.52,18.54,14.08,9.75,5.74,1.36
Teltow,52.4031,13.26014,DE,19530,2823567,Teltow,-5.47,-2.79,0.59,6.02,12.21,18.25,17.59,18.49,14.16,9.86,5.91,1.5
Telgte,51.97995,7.78293,DE,19389,2823590,Telgte,-0.69,-0.26,2.18,5.93,12.82,17.99,16.36,17.78,14.49,10.55,7.56,1.81
Tegel,52.57601,13.29389,DE,36764,2823708,Tegel,-5.43,-2.85,0.62,5.86,12.17,18.12,17.49,18.53,14.11,9.85,5.84,1.55
Taunusstein,50.14993,8.15206,DE,29501,2823799,Taunusstein,-2.65,-1.01,0.67,5.47,11.32,16.52,15.6,16.95,13.77,9.15,5.4,0.06
Taufkirchen,48.0486,11.61701,DE,17791,2823812,Taufkirchen,-2.38,-1.03,0.01,4.53,10.0,16.41,16.34,16.57,14.05,8.37,5.15,-1.89
Syke,52.91345,8.82209,DE,24274,2824461,Syke,-2.77,-0.63,1.79,5.42,12.57,17.47,16.12,17.23,13.9,10.35,7.14,2.29
Sundern,51.3281,8.00369,DE,27554,2824655,Sundern,-0.9,-1.39,0.66,4.77,11.33,16.29,15.0,16.51,13.51,9.53,6.55,0.36
Sulzbach-Rosenberg,49.50126,11.74598,DE,19252,2824801,Sulzbach-Rosenberg,-3.11,-1.37,0.36,5.65,11.0,17.38,16.86,17.35,14.27,8.99,5.56,-0.45
Sulzbach,49.29882,7.05696,DE,18364,2824841,Sulzbach,0.32,0.76,1.49,6.1,12.09,17.44,16.36,18.09,15.11,10.14,6.99,1.08
Suhl,50.60911,10.69401,DE,43509,2824948,Suhl,-3.77,-2.42,-0.45,4.16,10.48,16.38,15.36,16.41,13.12,8.27,4.59,-0.91
Stuttgart,48.78232,9.17702,DE,630305,2825297,Stuttgart,-0.51,0.66,1.33,6.66,11.82,17.65,17.2,17.95,15.13,9.92,7.03,0.37
Stuhr,53.03333,8.75,DE,32507,2825422,Stuhr,-2.84,-0.63,1.83,5.44,12.63,17.52,16.16,17.24,13.9,10.39,7.15,2.38
Strausberg,52.57859,13.88741,DE,26649,2826082,Strausberg,-5.66,-3.22,0.43,5.7,11.85,17.73,17.33,18.37,13.93,9.58,5.63,1.35
Straubing,48.88126,12.57385,DE,44580,2826099,Straubing,-3.45,-1.36,0.86,6.28,11.28,17.42,17.29,17.54,14.22,8.66,5.57,-1.21
Stralsund,54.30911,13.0818,DE,58976,2826287,Stralsund,-3.73,-2.88,0.32,4.36,10.02,16.46,16.56,17.23,13.28,9.29,5.06,2.15
Straelen,51.4419,6.26639,DE,15325,2826304,Straelen,1.02,0.67,2.77,6.38,13.08,17.99,16.31,17.79,14.98,11.12,7.9,2.05
Stolberg,50.77368,6.22595,DE,56377,2826595,Stolberg,1.42,0.28,1.76,5.77,12.24,16.84,15.66,17.1,14.67,10.46,7.77,1.34
Stockelsdorf,53.8922,10.64713,DE,16562,2826861,Stockelsdorf,-4.3,-2.59,0.64,4.37,11.09,17.04,16.01,16.92,13.01,9.49,5.68,2.11
Stockach,47.85105,9.0091,DE,16844,2826909,Stockach,-1.85,-0.44,0.56,5.34,10.91,17.15,16.76,17.32,14.66,8.74,5.35,-0.59
Stendal,52.6069,11.85867,DE,37722,2827479,Stendal,-4.7,-2.11,1.15,5.9,12.39,18.27,17.21,18.06,14.05,9.98,6.27,1.89
Stellingen,53.5922,9.9287,DE,23472,2827552,Stellingen,-4.15,-2.33,0.87,4.66,11.73,17.29,15.93,16.88,13.19,9.73,6.11,2.01
Steinhagen,52.0,8.4,DE,19869,2828050,Steinhagen,-1.57,-0.74,1.46,5.61,12.37,17.6,16.11,17.43,14.22,10.19,7.24,1.48
Steinfurt,52.15045,7.33664,DE,34601,2828105,Steinfurt,-0.52,-0.24,2.11,5.64,12.73,17.78,15.98,17.4,14.33,10.58,7.47,1.97
Steilshoop,53.61028,10.05917,DE,19343,2828994,Steilshoop,-4.21,-2.34,0.84,4.68,11.7,17.29,15.98,16.91,13.16,9.68,6.02,2.01
Steglitz,52.45606,13.332,DE,72464,2829109,Steglitz,-5.68,-3.01,0.43,5.86,12.12,18.11,17.47,18.46,14.06,9.77,5.77,1.4
Staßfurt,51.85186,11.58508,DE,22960,2829422,Staßfurt,-4.15,-1.63,1.21,6.16,12.02,17.87,17.18,17.66,14.29,10.03,6.81,1.79
Starnberg,48.00193,11.34416,DE,23086,2829457,Starnberg,-2.54,-1.17,-0.08,4.42,9.9,16.33,16.2,16.5,14.0,8.23,4.95,-2.01
Stadtlohn,51.99399,6.91918,DE,20602,2829758,Stadtlohn,0.27,0.16,2.46,5.96,13.01,18.04,16.19,17.63,14.63,10.85,7.72,2.15
Stadthagen,52.32333,9.20311,DE,23076,2829777,Stadthagen,-2.53,-0.95,1.42,5.6,12.34,17.46,16.24,17.37,14.1,10.19,7.18,1.86
Stadtallendorf,50.82261,9.01294,DE,21720,2829804,Stadtallendorf,-2.55,-1.53,0.6,5.51,11.52,16.68,15.69,17.04,13.73,9.39,5.76,0.46
Stade,53.59337,9.47629,DE,45634,2829901,Stade,-3.72,-2.0,1.1,4.75,11.81,17.25,15.89,16.84,13.33,9.89,6.39,2.19
Staaken,52.53661,13.15057,DE,46369,2829962,Staaken,-5.23,-2.61,0.77,6.04,12.28,18.26,17.57,18.52,14.19,9.93,5.97,1.62
Sprockhövel,51.34669,7.24343,DE,26400,2829998,Sprockhövel,-0.24,-0.82,1.25,5.28,11.89,16.77,15.28,16.87,13.88,9.96,6.86,0.87
Springe,52.20845,9.55416,DE,29828,2830035,Springe,-2.92,-1.39,1.15,5.5,12.03,17.28,16.16,17.18,13.92,9.96,6.96,1.65
Speyer,49.32083,8.43111,DE,50343,2830582,Speyer,-0.78,1.39,2.52,7.28,12.66,18.31,17.66,18.96,15.74,10.63,7.21,1.04
Spenge,52.14021,8.48475,DE,15625,2830637,Spenge,-1.6,-0.75,1.52,5.56,12.34,17.51,16.09,17.41,14.18,10.2,7.22,1.62
Sonthofen,47.51821,10.28262,DE,21285,2831088,Sonthofen,-1.62,-1.11,-0.41,2.7,6.96,15.1,15.42,15.86,13.71,7.14,3.48,-3.95
Sonneberg,50.3592,11.17463,DE,23908,2831250,Sonneberg,-3.76,-2.15,-0.14,4.37,10.66,16.81,15.91,16.75,13.4,8.29,4.88,-0.91
Sondershausen,51.36973,10.87011,DE,21802,2831276,Sondershausen,-4.47,-1.81,0.56,5.59,11.37,16.9,16.24,16.99,13.55,9.22,6.01,0.85
Sömmerda,51.15914,11.11524,DE,20853,2831403,Sömmerda,-4.33,-1.61,0.86,5.95,11.46,17.0,16.5,17.14,13.9,9.37,6.21,0.94
Soltau,52.98638,9.84338,DE,21945,2831486,Soltau,-3.69,-1.61,1.27,5.24,12.27,17.6,16.17,17.25,13.58,9.92,6.53,2.02
Solingen,51.17343,7.0845,DE,164359,2831580,Solingen,-0.19,-0.61,1.47,5.42,12.0,16.89,15.4,17.01,14.0,10.06,6.91,0.98
Soest,51.57558,8.10619,DE,48037,2831708,Soest,-0.46,-0.48,1.5,5.7,12.18,17.16,15.97,17.3,14.29,10.21,7.42,1.17
Sinzig,50.54384,7.24639,DE,17880,2831852,Sinzig,0.41,0.69,2.35,6.59,12.62,17.54,16.55,17.89,15.07,10.88,7.72,1.85
Sinsheim,49.2529,8.87867,DE,35219,2831872,Sinsheim,-0.51,1.11,2.03,7.15,12.62,18.47,17.71,18.9,15.7,10.61,7.15,0.98
Singen,47.75935,8.8403,DE,48033,2831924,Singen,-2.03,-0.16,0.75,5.73,11.25,17.5,17.07,17.7,14.92,8.92,5.58,-0.31
Sindelfingen,48.7,9.01667,DE,61311,2831948,Sindelfingen,-1.48,-0.99,-0.16,5.12,10.38,16.17,15.74,16.57,13.89,8.71,5.87,-0.9
Simmerath,50.6,6.3,DE,15646,2832023,Simmerath,-0.34,-1.8,-0.28,3.76,10.31,15.0,13.77,15.32,12.94,8.69,5.88,-0.31
Sigmaringen,48.08829,9.23033,DE,16592,2832232,Sigmaringen,-1.48,-0.99,-0.03,4.87,10.51,16.52,16.22,16.7,14.25,8.58,5.44,-1.03
Siegen,50.87481,8.02431,DE,107242,2832495,Siegen,-1.54,-1.38,0.76,5.14,11.66,16.67,15.27,16.93,13.53,9.51,5.99,0.52
Siegburg,50.80019,7.20769,DE,39135,2832521,Siegburg,0.23,0.41,2.3,6.36,12.57,17.48,16.3,17.75,14.76,10.72,7.56,1.64
Langenhorn,53.66667,10.01667,DE,46272,2832561,Langenhorn,-3.97,-2.25,0.9,4.58,11.6,17.27,15.96,16.93,13.2,9.73,6.08,2.15
Senftenberg,51.52517,14.00164,DE,28988,2833073,Senftenberg,-4.59,-2.27,0.75,6.56,11.97,18.1,17.91,18.2,14.12,9.49,6.33,1.04
Senden,51.85645,7.48327,DE,20363,2833079,Senden,-0.32,-0.16,2.23,5.97,12.75,17.92,16.29,17.62,14.53,10.65,7.59,1.78
Senden,48.32441,10.04442,DE,22275,2833080,Senden,-2.03,-0.98,0.26,5.45,10.59,16.7,16.4,16.82,14.17,8.58,5.56,-1.02
Selm,51.69689,7.46809,DE,27540,2833170,Selm,0.04,-0.11,2.18,5.98,12.6,17.61,16.2,17.54,14.53,10.56,7.64,1.69
Seligenstadt,50.0432,8.97394,DE,19569,2833242,Seligenstadt,-1.55,0.23,1.6,6.77,12.51,17.99,17.02,18.23,15.07,10.34,6.7,0.98
Selb,50.17058,12.13054,DE,17132,2833296,Selb,-4.62,-2.81,-0.95,3.31,9.42,15.55,15.16,15.6,12.51,7.52,4.39,-1.46
Sehnde,52.31394,9.9682,DE,23060,2833475,Sehnde,-3.36,-1.45,1.31,5.63,12.11,17.54,16.39,17.36,13.92,9.98,6.91,1.78
Seevetal,53.4,9.96667,DE,41266,2833564,Seevetal,-4.1,-2.15,0.99,4.88,11.88,17.33,15.98,16.93,13.25,9.74,6.18,1.99
Seesen,51.89095,10.17847,DE,21909,2833592,Seesen,-3.56,-1.93,0.35,4.81,11.42,16.9,15.81,16.83,13.45,9.36,6.22,0.76
Seelze,52.39635,9.59727,DE,32899,2833641,Seelze,-3.05,-0.96,1.53,5.79,12.49,17.77,16.51,17.52,14.1,10.24,7.17,2.03
Schwetzingen,49.38217,8.5823,DE,22593,2834240,Schwetzingen,-0.77,1.35,2.41,7.34,12.8,18.47,17.76,18.95,15.74,10.71,7.23,1.1
Schwerte,51.44387,7.5675,DE,50399,2834265,Schwerte,0.17,-0.39,1.75,5.79,12.36,17.23,15.9,17.4,14.36,10.4,7.45,1.33
Schwerin,53.62937,11.41316,DE,96641,2834282,Schwerin,-4.84,-2.67,0.7,4.63,11.54,17.26,16.21,17.12,13.1,9.45,5.54,1.89
Schwelm,51.28635,7.29388,DE,30235,2834372,Schwelm,-0.22,-0.85,1.23,5.29,11.89,16.75,15.3,16.88,13.89,9.97,6.89,0.89
Schweinfurt,50.04937,10.22175,DE,54012,2834498,Schweinfurt,-2.69,-0.78,0.99,6.23,11.69,17.66,16.72,17.56,14.38,9.59,5.89,0.41
Schwedt (Oder),53.05963,14.28154,DE,30189,2834629,Schwedt (Oder),-5.92,-3.54,0.47,5.68,11.79,17.59,17.37,18.23,13.82,9.61,5.56,1.56
Schwarzenberg,50.53791,12.78522,DE,16168,2834978,Schwarzenberg,-4.49,-2.44,-0.45,4.0,10.1,16.07,15.86,16.12,12.98,7.94,5.29,-1.06
Schwanewede,53.23333,8.6,DE,20015,2835260,Schwanewede,-2.87,-0.81,1.6,5.12,12.41,17.24,15.87,16.84,13.64,10.25,6.93,2.42
Schwandorf in Bayern,49.32534,12.1098,DE,28235,2835297,Schwandorf in Bayern,-3.35,-1.24,0.88,6.16,11.25,17.65,17.23,17.47,14.36,9.0,5.62,-0.56
Schwalmtal,51.21667,6.26667,DE,19435,2835342,Schwalmtal,1.28,0.78,2.75,6.41,13.01,17.81,16.32,17.77,15.05,11.11,7.96,1.95
Schwalmstadt,50.93333,9.21667,DE,19279,2835345,Schwalmstadt,-2.55,-1.6,0.64,5.55,11.51,16.67,15.75,17.02,13.82,9.48,5.88,0.62
Schwalbach,49.3,6.81667,DE,18708,2835382,Schwalbach,0.42,1.06,1.66,6.31,12.33,17.61,16.44,18.08,15.05,10.19,7.06,1.14
Schwäbisch Hall,49.11127,9.73908,DE,36543,2835481,Schwäbisch Hall,-1.34,-0.07,0.91,6.19,11.55,17.53,16.83,17.81,14.8,9.55,6.35,0.25
Schwäbisch Gmünd,48.79947,9.79809,DE,61216,2835482,Schwäbisch Gmünd,-0.86,0.03,1.15,6.36,11.65,17.65,17.03,17.78,15.0,9.54,6.65,0.02
Schwabach,49.33047,11.02346,DE,38554,2835537,Schwabach,-2.39,-0.57,0.98,6.3,11.54,17.86,17.29,17.82,14.92,9.46,6.16,-0.0
Schrobenhausen,48.56067,11.26071,DE,16143,2836084,Schrobenhausen,-2.68,-0.49,1.07,6.26,11.25,17.45,17.06,17.46,14.69,9.08,5.94,-0.49
Schramberg,48.22399,8.38583,DE,18565,2836203,Schramberg,-0.03,-0.02,0.68,5.42,11.34,17.09,16.65,17.62,14.98,9.42,6.78,0.07
Schortens,53.53333,7.95,DE,21357,2836282,Schortens,-2.61,-0.8,1.77,4.97,11.95,17.03,15.68,16.44,13.58,10.32,6.83,2.79
Schorndorf,48.80537,9.52721,DE,39697,2836320,Schorndorf,-0.7,0.33,1.25,6.56,11.77,17.72,17.14,17.87,14.98,9.66,6.84,0.05
Schopfheim,47.65105,7.82089,DE,19386,2836413,Schopfheim,-0.82,0.86,1.25,6.2,11.77,17.35,17.23,17.97,15.13,9.23,5.97,0.16
Schöneberg,52.46667,13.35,DE,122658,2836788,Schöneberg,-5.94,-3.25,0.23,5.83,12.11,18.11,17.52,18.54,14.08,9.75,5.74,1.36
Schönebeck,52.01682,11.7307,DE,30387,2836809,Schönebeck,-4.33,-1.76,1.15,6.15,12.15,18.05,17.23,17.71,14.23,10.01,6.65,1.73
Schneverdingen,53.11685,9.79524,DE,19199,2837291,Schneverdingen,-4.03,-1.94,0.98,4.92,11.93,17.29,15.86,16.88,13.25,9.61,6.2,1.74
Schnelsen,53.6374,9.91829,DE,30100,2837343,Schnelsen,-4.1,-2.28,0.92,4.71,11.78,17.34,15.98,16.93,13.24,9.77,6.16,2.06
Schneeberg,50.59465,12.64139,DE,16784,2837470,Schneeberg,-4.58,-2.61,-0.62,3.92,9.91,15.85,15.65,15.89,12.82,7.75,5.12,-1.27
Schmelz,49.43333,6.85,DE,17596,2837954,Schmelz,0.19,0.88,1.63,6.29,12.31,17.55,16.4,18.04,14.96,10.15,6.99,1.16
Schmargendorf,52.47517,13.29071,DE,22733,2838009,Schmargendorf,-5.68,-3.01,0.43,5.86,12.12,18.11,17.47,18.46,14.06,9.77,5.77,1.4
Schmallenberg,51.15473,8.28505,DE,26132,2838053,Schmallenberg,-2.26,-2.5,-0.6,3.69,10.41,15.45,14.14,15.76,12.62,8.56,5.45,-0.63
Schmalkalden,50.72136,10.44386,DE,19553,2838059,Schmalkalden,-2.98,-1.8,0.2,5.3,11.1,16.66,15.82,16.77,13.79,9.0,5.6,0.1
Schlüchtern,50.34891,9.52532,DE,17260,2838201,Schlüchtern,-1.82,-0.86,1.16,6.19,12.13,17.64,16.5,17.73,14.49,9.89,6.26,0.82
Schleswig,54.52156,9.5586,DE,24114,2838634,Schleswig,-3.24,-2.67,0.66,3.79,10.37,16.6,15.49,16.47,12.82,9.51,5.73,2.46
Schkeuditz,51.39678,12.22141,DE,18487,2839050,Schkeuditz,-4.01,-1.66,1.11,6.33,11.78,17.68,17.29,17.54,14.29,9.64,6.71,1.42
Schiffweiler,49.36667,7.13333,DE,15780,2839316,Schiffweiler,-0.28,0.29,1.12,5.75,11.75,17.03,15.93,17.62,14.52,9.71,6.52,0.7
Schifferstadt,49.38417,8.3775,DE,19209,2839335,Schifferstadt,-0.97,1.41,2.62,7.4,12.81,18.38,17.73,18.98,15.73,10.66,7.22,1.14
Bad Saulgau,48.01676,9.50064,DE,17911,2841125,Bad Saulgau,-2.1,-1.27,-0.42,4.5,10.26,16.42,16.16,16.63,13.96,8.26,4.96,-1.43
Sasel,53.65385,10.11184,DE,23131,2841374,Sasel,-4.09,-2.35,0.81,4.51,11.5,17.17,15.89,16.85,13.1,9.63,5.96,2.06
Sarstedt,52.23495,9.85411,DE,18718,2841386,Sarstedt,-3.15,-1.37,1.29,5.7,12.12,17.49,16.4,17.34,14.0,10.02,7.03,1.74
Sankt Wendel,49.46633,7.16814,DE,26904,2841463,Sankt Wendel,-0.39,0.12,1.25,5.89,11.9,17.14,16.05,17.73,14.62,9.77,6.58,0.79
Sankt Ingbert,49.27697,7.11672,DE,38697,2841590,Sankt Ingbert,0.42,0.86,1.59,6.2,12.19,17.54,16.46,18.19,15.21,10.24,7.09,1.18
Sankt Augustin,50.77538,7.197,DE,56094,2841648,Sankt Augustin,0.23,0.41,2.3,6.36,12.57,17.48,16.3,17.75,14.76,10.72,7.56,1.64
Sangerhausen,51.47221,11.29533,DE,23347,2841693,Sangerhausen,-4.25,-1.59,0.85,5.99,11.68,17.37,16.78,17.37,13.92,9.57,6.49,1.28
Salzwedel,52.85435,11.1525,DE,21058,2842112,Salzwedel,-4.5,-1.93,1.37,5.71,12.43,18.14,16.93,17.84,13.88,9.99,6.28,2.07
Salzkotten,51.6717,8.60092,DE,24561,2842131,Salzkotten,-1.55,-0.93,1.14,5.57,12.09,17.21,15.94,17.27,14.07,9.91,7.08,1.09
Salzgitter,52.15705,10.4154,DE,103866,2842150,Salzgitter,-3.74,-1.68,1.18,5.6,11.89,17.39,16.39,17.26,13.83,9.81,6.72,1.52
Saarlouis,49.31366,6.75154,DE,38333,2842632,Saarlouis,0.57,1.21,1.82,6.46,12.48,17.76,16.6,18.22,15.19,10.34,7.21,1.29
Saarbrücken,49.23262,7.00982,DE,179349,2842647,Saarbrücken,0.7,1.2,1.73,6.4,12.25,17.59,16.57,18.2,15.27,10.4,7.3,1.29
Saalfeld,50.64826,11.36536,DE,28023,2842688,Saalfeld,-3.01,-1.23,0.86,5.98,11.43,17.3,16.83,17.28,14.43,9.18,6.45,0.25
Rüsselsheim,49.98955,8.42251,DE,59730,2842884,Rüsselsheim,-1.62,0.74,2.41,7.13,12.81,18.0,17.2,18.48,15.2,10.51,6.76,1.22
Rummelsburg,52.50146,13.4934,DE,25697,2843106,Rummelsburg,-5.95,-3.25,0.27,5.85,12.13,18.11,17.54,18.57,14.09,9.73,5.72,1.34
Rudow,52.42407,13.48529,DE,42631,2843350,Rudow,-5.68,-2.97,0.49,6.01,12.22,18.24,17.64,18.59,14.18,9.83,5.86,1.43
Rudolstadt,50.72043,11.34046,DE,25476,2843355,Rudolstadt,-2.77,-1.0,1.0,6.13,11.63,17.52,16.98,17.5,14.61,9.37,6.59,0.41
Rottweil,48.16783,8.62719,DE,25510,2843636,Rottweil,-1.66,-1.42,-0.71,3.83,9.86,15.76,15.41,16.17,13.51,7.97,5.06,-1.44
Rottenburg,48.47629,8.93528,DE,42721,2843729,Rottenburg,-0.69,-0.34,0.59,5.91,11.21,17.01,16.63,17.41,14.74,9.29,6.6,-0.28
Rotherbaum,53.56999,9.99449,DE,17114,2843965,Rotherbaum,-4.26,-2.38,0.82,4.69,11.76,17.34,16.01,16.93,13.2,9.71,6.05,1.97
Roth,49.24762,11.09111,DE,25083,2844265,Roth,-2.39,-0.6,1.07,6.37,11.62,18.0,17.42,17.91,15.0,9.47,6.16,-0.1
Rotenburg,53.11125,9.41082,DE,22139,2844437,Rotenburg,-3.29,-1.2,1.53,5.3,12.42,17.67,16.21,17.31,13.73,10.15,6.8,2.24
Rostock,54.0887,12.14049,DE,198293,2844588,Rostock,-4.39,-2.77,0.4,4.22,10.77,16.94,16.4,17.2,13.2,9.33,5.32,2.16
Rösrath,50.89559,7.18175,DE,26868,2844862,Rösrath,0.03,0.11,1.98,6.11,12.46,17.34,16.08,17.61,14.53,10.55,7.34,1.45
Rosenheim,47.85637,12.12247,DE,60167,2844988,Rosenheim,-2.4,-0.48,0.63,5.26,10.58,17.02,17.0,17.02,14.31,8.37,5.15,-2.13
Ronnenberg,52.31939,9.65544,DE,23416,2845222,Ronnenberg,-3.07,-1.25,1.35,5.67,12.24,17.55,16.36,17.35,14.0,10.08,7.05,1.85
Rissen,53.58453,9.76594,DE,16051,2846455,Rissen,-4.0,-2.23,0.95,4.69,11.75,17.28,15.91,16.87,13.22,9.78,6.2,2.08
Rinteln,52.18604,9.07917,DE,27843,2846523,Rinteln,-1.98,-0.75,1.68,5.82,12.56,17.74,16.52,17.74,14.43,10.44,7.45,2.03
Rietberg,51.80924,8.42841,DE,28672,2846843,Rietberg,-1.4,-0.73,1.38,5.61,12.25,17.49,16.06,17.37,14.2,10.08,7.22,1.23
Riesa,51.30777,13.29168,DE,37156,2846939,Riesa,-4.17,-1.77,1.11,6.61,11.93,17.9,17.72,17.85,14.32,9.55,6.6,1.12
Riegelsberg,49.3,6.93333,DE,15647,2847033,Riegelsberg,-0.17,0.45,1.07,5.72,11.71,17.0,15.88,17.53,14.5,9.66,6.5,0.61
Ribnitz-Damgarten,54.2422,12.45666,DE,17152,2847524,Ribnitz-Damgarten,-4.03,-2.72,0.43,4.22,10.44,16.73,16.41,17.19,13.23,9.27,5.21,2.16
Rheinhausen,51.40055,6.71187,DE,78203,2847631,Rheinhausen,0.75,0.52,2.75,6.48,13.08,18.01,16.46,17.95,15.01,11.1,7.93,2.03
Rheinfelden,47.56013,7.78715,DE,32535,2847639,Rheinfelden,-0.69,1.43,1.58,6.69,12.09,17.63,17.61,18.31,15.25,9.43,6.25,0.37
Rheine,52.28509,7.44055,DE,76491,2847645,Rheine,-0.6,-0.19,2.17,5.67,12.73,17.76,15.99,17.34,14.33,10.63,7.52,2.05
Rheinberg,51.54649,6.59525,DE,32188,2847662,Rheinberg,0.76,0.49,2.78,6.43,13.06,18.02,16.44,17.88,15.0,11.12,7.91,2.07
Rheinbach,50.62562,6.94911,DE,26262,2847666,Rheinbach,0.59,0.24,1.87,6.05,12.14,16.93,15.99,17.3,14.67,10.43,7.5,1.39
Rhede,51.83537,6.69602,DE,19140,2847689,Rhede,0.56,0.33,2.61,6.13,13.09,18.15,16.3,17.78,14.8,10.98,7.78,2.16
Rheda-Wiedenbrück,51.84967,8.30017,DE,46123,2847690,Rheda-Wiedenbrück,-1.22,-0.59,1.49,5.69,12.31,17.52,16.11,17.42,14.29,10.2,7.32,1.29
Reutlingen,48.49144,9.20427,DE,112627,2847736,Reutlingen,-1.25,-0.43,0.43,5.8,10.96,16.84,16.47,17.13,14.37,9.04,6.25,-0.62
Renningen,48.76974,8.93871,DE,17442,2848175,Renningen,-0.9,-0.34,0.52,5.81,11.13,16.86,16.39,17.28,14.55,9.34,6.51,-0.29
Rendsburg,54.30663,9.66313,DE,28323,2848245,Rendsburg,-3.34,-2.4,0.8,4.07,10.66,16.81,15.71,16.71,12.99,9.65,5.94,2.41
Remscheid,51.17983,7.1925,DE,117118,2848273,Remscheid,-1.01,-1.44,0.6,4.62,11.2,16.08,14.61,16.23,13.22,9.31,6.14,0.24
Remagen,50.57879,7.22703,DE,16280,2848335,Remagen,0.55,0.72,2.59,6.61,12.68,17.58,16.54,17.86,15.04,10.92,7.83,1.8
Reinickendorf,52.56667,13.33333,DE,83972,2848756,Reinickendorf,-5.52,-2.94,0.55,5.81,12.12,18.07,17.44,18.48,14.06,9.8,5.78,1.48
Reinheim,49.82923,8.83572,DE,17841,2848762,Reinheim,-0.84,0.69,1.74,6.85,12.47,17.99,17.08,18.38,15.27,10.6,6.99,1.16
Reinbek,53.51703,10.2488,DE,25261,2848845,Reinbek,-4.26,-2.29,0.91,4.8,11.78,17.32,16.01,16.94,13.17,9.67,6.02,1.99
Reichenbach/Vogtland,50.62279,12.30344,DE,22530,2849156,Reichenbach/Vogtland,-3.98,-2.13,-0.1,4.51,10.33,16.22,15.98,16.23,13.31,8.2,5.55,-0.73
Regensburg,49.01513,12.10161,DE,129151,2849483,Regensburg,-3.27,-0.93,1.22,6.49,11.44,17.7,17.33,17.62,14.49,9.02,5.81,-0.61
Rees,51.76263,6.39778,DE,22544,2849548,Rees,0.67,0.51,2.68,6.18,13.09,18.03,16.24,17.67,14.78,11.07,7.83,2.3
Recklinghausen,51.61379,7.19738,DE,122438,2849647,Recklinghausen,0.28,-0.03,2.22,6.04,12.66,17.64,16.18,17.54,14.54,10.6,7.62,1.58
Ravensburg,47.78198,9.61062,DE,48825,2849802,Ravensburg,-1.85,-0.34,0.19,4.63,10.75,17.45,16.98,17.5,15.16,8.99,5.4,-0.76
Ratingen,51.29724,6.84929,DE,91606,2850174,Ratingen,0.56,0.29,2.46,6.29,12.89,17.79,16.25,17.78,14.8,10.85,7.72,1.75
Rathenow,52.60659,12.33696,DE,27115,2850213,Rathenow,-4.82,-2.22,1.05,5.92,12.36,18.29,17.28,18.11,14.05,9.99,6.15,1.81
Ratekau,53.95,10.73333,DE,15921,2850235,Ratekau,-4.01,-2.46,0.69,4.35,10.79,16.95,16.13,17.03,13.16,9.58,5.72,2.34
Rastede,53.25,8.2,DE,20046,2850253,Rastede,-2.67,-0.68,1.68,5.0,12.28,17.13,15.7,16.56,13.55,10.23,6.86,2.53
Rastatt,48.85851,8.20965,DE,47906,2850257,Rastatt,-0.25,1.49,2.3,7.22,12.49,18.09,17.46,18.78,15.61,10.39,7.51,0.77
Rahlstedt,53.60194,10.15667,DE,92511,2850872,Rahlstedt,-4.09,-2.24,0.93,4.76,11.73,17.33,16.04,16.98,13.22,9.74,6.07,2.13
Rahden,52.43367,8.61263,DE,16140,2850887,Rahden,-1.94,-0.47,1.97,5.71,12.65,17.74,16.34,17.65,14.27,10.42,7.39,2.09
Radolfzell,47.74194,8.97098,DE,30096,2850954,Radolfzell,-1.61,0.07,1.06,5.91,11.54,17.87,17.41,18.07,15.33,9.28,5.91,0.04
Radevormwald,51.20219,7.36027,DE,24100,2850995,Radevormwald,-1.42,-1.87,0.25,4.42,11.03,15.9,14.49,16.1,13.1,9.21,6.04,0.13
Radebeul,51.10654,13.66047,DE,32643,2851077,Radebeul,-4.3,-1.94,0.56,6.1,11.61,17.54,17.56,17.64,13.94,9.26,6.32,0.6
Radeberg,51.11112,13.91199,DE,18747,2851079,Radeberg,-4.84,-2.64,0.03,5.28,10.87,16.82,16.81,16.93,13.15,8.53,5.55,-0.08
Quickborn,53.72831,9.90934,DE,20410,2851343,Quickborn,-3.96,-2.29,0.86,4.51,11.54,17.21,15.88,16.87,13.15,9.7,6.07,2.11
Quedlinburg,51.78843,11.15006,DE,22814,2851465,Quedlinburg,-4.23,-1.63,0.94,5.89,11.69,17.41,16.75,17.33,13.95,9.67,6.67,1.41
Püttlingen,49.2855,6.88723,DE,21052,2851584,Püttlingen,0.33,0.95,1.57,6.22,12.21,17.5,16.38,18.03,15.0,10.16,7.0,1.11
Pulheim,50.99965,6.80632,DE,53762,2851746,Pulheim,0.82,0.65,2.72,6.45,12.8,17.64,16.41,17.85,15.03,11.0,7.84,1.8
Puchheim,48.15,11.35,DE,19357,2851782,Puchheim,-2.48,-0.99,0.14,5.14,10.35,16.69,16.54,16.82,14.27,8.56,5.33,-1.7
Prenzlauer Berg,52.53878,13.42443,DE,148878,2852217,Prenzlauer Berg,-6.0,-3.3,0.18,5.78,12.07,18.06,17.47,18.49,14.03,9.7,5.69,1.31
Prenzlau,53.31625,13.86261,DE,20899,2852218,Prenzlau,-6.11,-3.63,0.22,5.19,11.48,17.25,17.03,17.96,13.56,9.4,5.36,1.47
Preetz,54.2354,10.27795,DE,15768,2852280,Preetz,-3.97,-2.77,0.44,3.97,10.42,16.72,15.81,16.79,12.9,9.42,5.6,2.14
Potsdam,52.39886,13.06566,DE,182112,2852458,Potsdam,-5.02,-2.42,0.87,6.18,12.38,18.39,17.65,18.49,14.26,10.02,6.13,1.72
Porz am Rhein,50.88637,7.0583,DE,113415,2852566,Porz am Rhein,0.28,0.39,2.39,6.34,12.66,17.54,16.31,17.8,14.78,10.76,7.59,1.64
Porta Westfalica,52.22961,8.91612,DE,36364,2852577,Porta Westfalica,-1.95,-0.76,1.59,5.66,12.43,17.57,16.31,17.58,14.27,10.28,7.3,1.84
Poppenbüttel,53.65917,10.08472,DE,24135,2852673,Poppenbüttel,-4.05,-2.3,0.86,4.56,11.55,17.22,15.95,16.9,13.14,9.68,6.01,2.12
Plettenberg,51.20949,7.87261,DE,28206,2853209,Plettenberg,-0.91,-1.33,0.7,4.95,11.6,16.57,15.25,16.85,13.8,9.82,6.74,0.57
Plauen,50.4973,12.13782,DE,66412,2853292,Plauen,-3.67,-1.87,0.09,4.72,10.54,16.47,16.12,16.46,13.54,8.41,5.66,-0.55
Pirna,50.95843,13.93702,DE,40322,2853572,Pirna,-4.21,-1.75,0.82,6.2,11.75,17.72,17.75,17.77,13.94,9.23,6.29,0.47
Pirmasens,49.20145,7.60529,DE,43582,2853574,Pirmasens,-1.09,-0.06,0.79,5.59,11.28,16.65,15.76,17.3,14.11,9.28,6.08,0.14
Pinneberg,53.66732,9.78936,DE,40577,2853658,Pinneberg,-3.83,-2.18,0.97,4.6,11.63,17.25,15.92,16.89,13.23,9.8,6.2,2.2
Pfungstadt,49.80557,8.60307,DE,25084,2853924,Pfungstadt,-1.15,0.84,2.04,6.99,12.6,18.02,17.16,18.46,15.34,10.59,6.93,1.15
Pfullingen,48.46458,9.22796,DE,18269,2853928,Pfullingen,-1.08,-0.62,0.26,5.62,10.79,16.68,16.34,16.99,14.31,8.98,6.19,-0.66
Pforzheim,48.88436,8.69892,DE,119313,2853969,Pforzheim,-0.29,0.95,1.78,6.86,12.07,17.75,17.23,18.32,15.35,10.18,7.25,0.7
Pfaffenhofen an der Ilm,48.53053,11.505,DE,23192,2854386,Pfaffenhofen an der Ilm,-2.4,-0.43,1.27,6.4,11.31,17.51,17.22,17.62,14.86,9.31,6.12,-0.41
Petershagen,52.37513,8.96538,DE,27090,2854655,Petershagen,-2.64,-0.74,1.66,5.7,12.55,17.61,16.35,17.5,14.17,10.29,7.29,1.96
Penzberg,47.75293,11.377,DE,16079,2854923,Penzberg,-2.28,-1.02,-0.06,3.64,9.02,16.19,16.17,16.33,14.01,7.83,4.34,-3.09
Peine,52.31928,10.2352,DE,49953,2855047,Peine,-3.49,-1.53,1.33,5.64,12.08,17.57,16.44,17.42,13.93,9.98,6.87,1.78
Passau,48.5665,13.43122,DE,50560,2855328,Passau,-3.11,-1.46,0.63,5.77,10.88,17.18,17.2,17.49,13.99,8.49,5.51,-1.23
Pasing,48.14146,11.45599,DE,35728,2855334,Pasing,-2.66,-1.07,0.05,5.15,10.26,16.61,16.48,16.7,14.09,8.43,5.22,-1.77
Parchim,53.42631,11.84875,DE,19161,2855441,Parchim,-4.98,-2.68,0.74,4.8,11.68,17.38,16.32,17.32,13.19,9.45,5.55,1.75
Papenburg,53.07738,7.40444,DE,34117,2855525,Papenburg,-1.6,-0.25,2.17,5.33,12.57,17.17,15.73,16.76,13.92,10.55,7.17,2.51
Pankow,52.56926,13.40186,DE,65375,2855598,Pankow,-5.58,-3.01,0.5,5.77,12.07,18.01,17.44,18.49,14.03,9.74,5.73,1.44
Paderborn,51.71905,8.75439,DE,142161,2855745,Paderborn,-1.73,-1.07,1.06,5.46,12.09,17.33,15.91,17.23,14.01,9.89,6.96,1.15
Oyten,53.05,9.01667,DE,15286,2855794,Oyten,-3.2,-1.0,1.59,5.22,12.46,17.42,16.05,17.13,13.66,10.15,6.83,2.21
Overath,50.93275,7.28389,DE,27203,2855859,Overath,-0.25,-0.05,1.8,6.03,12.43,17.29,16.02,17.58,14.44,10.5,7.25,1.43
Ottweiler,49.40133,7.16424,DE,15503,2855917,Ottweiler,-0.11,0.45,1.39,6.0,11.96,17.26,16.18,17.86,14.74,9.91,6.73,0.9
Ottobrunn bei München,48.06489,11.66327,DE,19204,2855935,Ottobrunn bei München,-2.95,-1.31,-0.09,4.93,10.02,16.35,16.24,16.43,13.73,8.1,4.95,-1.99
Ottensen,53.55,9.91667,DE,35136,2856075,Ottensen,-4.25,-2.43,0.77,4.56,11.63,17.19,15.83,16.78,13.09,9.63,6.01,1.91
Othmarschen,53.55173,9.88632,DE,16009,2856163,Othmarschen,-4.1,-2.28,0.92,4.71,11.78,17.34,15.98,16.93,13.24,9.77,6.16,2.06
Osterholz-Scharmbeck,53.22698,8.79528,DE,31405,2856500,Osterholz-Scharmbeck,-3.07,-1.01,1.5,5.07,12.35,17.28,15.88,16.9,13.56,10.12,6.78,2.26
Osnabrück,52.27264,8.0498,DE,166462,2856883,Osnabrück,-1.34,-0.47,1.88,5.6,12.62,17.76,16.1,17.49,14.26,10.45,7.36,1.87
Osdorf,53.57982,9.85826,DE,26420,2856915,Osdorf,-4.2,-2.38,0.82,4.61,11.68,17.24,15.88,16.83,13.14,9.67,6.06,1.96
Oschersleben,52.03039,11.22898,DE,19396,2856930,Oschersleben,-4.24,-1.7,1.05,5.89,11.81,17.49,16.75,17.38,13.98,9.86,6.67,1.59
Oschatz,51.30001,13.10984,DE,16000,2856944,Oschatz,-3.96,-1.65,1.12,6.56,11.91,17.85,17.63,17.79,14.37,9.6,6.68,1.21
Oranienburg,52.75577,13.24197,DE,40793,2857129,Oranienburg,-5.29,-2.8,0.72,5.68,12.15,18.04,17.32,18.48,13.98,9.78,5.74,1.59
Opladen,51.06863,7.00387,DE,23000,2857185,Opladen,0.56,0.44,2.57,6.45,12.96,17.83,16.42,17.98,14.92,10.92,7.78,1.82
Olsberg,51.35613,8.48899,DE,15814,2857291,Olsberg,-1.88,-1.83,0.22,4.45,10.91,16.01,14.8,16.21,13.19,9.08,6.13,0.15
Olpe,51.02899,7.85139,DE,25686,2857306,Olpe,-1.59,-1.77,0.15,4.15,11.15,16.22,14.62,16.5,13.08,9.07,5.68,0.04
Oldenburg,53.14118,8.21467,DE,159218,2857458,Oldenburg,-2.32,-0.52,1.88,5.25,12.59,17.38,15.9,16.9,13.8,10.36,7.1,2.45
Olching,48.2,11.33333,DE,23978,2857472,Olching,-2.48,-0.85,0.66,5.85,10.79,17.04,16.84,17.14,14.49,8.81,5.66,-1.26
Öhringen,49.19884,9.5072,DE,22765,2857565,Öhringen,-0.91,0.51,1.37,6.69,12.01,17.99,17.28,18.26,15.2,10.02,6.77,0.74
Offenburg,48.47377,7.94495,DE,59238,2857798,Offenburg,0.01,1.59,1.94,6.85,12.12,17.81,17.25,18.34,15.45,10.09,7.42,0.77
Offenbach,50.10061,8.76647,DE,119192,2857807,Offenbach,-1.68,0.43,1.95,6.82,12.57,17.95,17.09,18.32,15.12,10.45,6.67,1.12
Oerlinghausen,51.95453,8.6622,DE,17403,2857900,Oerlinghausen,-2.46,-1.7,0.56,4.7,11.45,16.71,15.28,16.62,13.35,9.3,6.33,0.7
Oer-Erkenschwick,51.64198,7.26451,DE,30409,2857904,Oer-Erkenschwick,0.27,-0.01,2.23,6.06,12.67,17.62,16.2,17.56,14.57,10.6,7.67,1.6
Oelde,51.8289,8.14724,DE,29297,2857943,Oelde,-1.13,-0.62,1.56,5.62,12.22,17.37,15.98,17.31,14.25,10.23,7.27,1.27
Odenthal,51.03333,7.11667,DE,15619,2858103,Odenthal,0.17,0.24,2.36,6.2,12.69,17.58,16.2,17.81,14.7,10.7,7.5,1.61
Ochtrup,52.20802,7.18988,DE,19441,2858245,Ochtrup,-0.39,-0.2,2.13,5.63,12.71,17.71,15.92,17.32,14.3,10.59,7.48,1.98
Oberursel,50.20731,8.57747,DE,46678,2858738,Oberursel,-1.91,-0.2,1.43,6.19,11.98,17.29,16.4,17.68,14.52,10.03,6.19,0.85
Obertshausen,50.07139,8.85123,DE,24459,2858763,Obertshausen,-1.84,0.12,1.66,6.63,12.4,17.81,16.9,18.13,14.92,10.25,6.5,0.92
Oberschöneweide,52.46106,13.52108,DE,23638,2859103,Oberschöneweide,-5.9,-3.2,0.32,5.9,12.18,18.16,17.59,18.62,14.14,9.78,5.78,1.39
Ober-Ramstadt,49.83078,8.74887,DE,15367,2859380,Ober-Ramstadt,-1.39,0.32,1.4,6.43,12.05,17.52,16.63,17.95,14.83,10.14,6.5,0.71
Oberkirch,48.53241,8.07864,DE,20375,2860080,Oberkirch,-0.04,1.55,1.9,6.86,12.09,17.8,17.19,18.32,15.33,10.09,7.33,0.7
Oberhausen,51.47805,6.8625,DE,219176,2860410,Oberhausen,0.54,0.22,2.53,6.3,12.9,17.87,16.36,17.77,14.81,10.88,7.78,1.8
Oberasbach,49.42275,10.95766,DE,17306,2861402,Oberasbach,-2.57,-0.71,0.82,6.14,11.41,17.75,17.15,17.67,14.76,9.36,6.03,-0.16
Nürtingen,48.62565,9.34203,DE,40210,2861632,Nürtingen,-0.96,0.2,1.08,6.43,11.61,17.55,17.07,17.74,14.86,9.5,6.68,-0.13
Nürnberg,49.45421,11.07752,DE,515543,2861650,Nürnberg,-2.69,-0.86,0.8,6.07,11.38,17.79,17.15,17.62,14.66,9.29,5.94,-0.27
Nümbrecht,50.90427,7.54063,DE,17427,2861677,Nümbrecht,-1.43,-1.36,0.66,4.9,11.38,16.3,14.94,16.57,13.33,9.38,6.07,0.34
Nottuln,51.93333,7.35,DE,20427,2861733,Nottuln,-0.52,-0.43,1.95,5.66,12.43,17.56,15.93,17.26,14.21,10.36,7.29,1.51
Northeim,51.70662,9.99997,DE,30894,2861814,Northeim,-3.19,-1.47,0.99,5.69,11.99,17.4,16.35,17.36,13.92,9.7,6.54,1.14
Nördlingen,48.85122,10.48868,DE,19492,2861914,Nördlingen,-2.31,-0.88,0.59,5.83,10.98,17.11,16.55,17.09,14.34,8.87,5.77,-0.5
Nordhorn,52.43081,7.06833,DE,52803,2861934,Nordhorn,-0.36,0.03,2.25,5.68,12.78,17.72,15.91,17.23,14.36,10.75,7.58,2.22
Nordhausen,51.5018,10.7957,DE,43912,2861982,Nordhausen,-4.59,-2.0,0.33,5.35,11.35,16.92,16.11,16.93,13.31,8.97,5.75,0.55
Norderstedt,53.6859,9.98041,DE,71439,2862026,Norderstedt,-4.02,-2.3,0.85,4.53,11.55,17.21,15.91,16.88,13.14,9.68,6.03,2.09
Nordenham,53.4861,8.48093,DE,27714,2862104,Nordenham,-2.91,-1.06,1.49,4.92,12.02,17.07,15.77,16.66,13.55,10.26,6.78,2.73
Norden,53.59552,7.20639,DE,24767,2862118,Norden,-1.47,-0.29,2.11,4.91,11.25,16.21,15.57,16.46,14.02,10.91,7.37,3.82
Nippes,50.96545,6.95314,DE,113487,2862375,Nippes,0.44,0.46,2.58,6.39,12.83,17.7,16.37,17.92,14.88,10.87,7.69,1.74
Niendorf,53.61769,9.95032,DE,40906,2862606,Niendorf,-4.26,-2.38,0.82,4.69,11.76,17.34,16.01,16.93,13.2,9.71,6.05,1.97
Nienburg,52.6461,9.22086,DE,32629,2862620,Nienburg,-2.86,-0.76,1.68,5.61,12.57,17.72,16.37,17.48,14.06,10.33,7.19,2.16
Niederschönhausen,52.58483,13.40272,DE,32037,2862888,Niederschönhausen,-5.64,-3.06,0.46,5.73,12.02,17.96,17.38,18.44,13.99,9.69,5.68,1.39
Niederkrüchten,51.2,6.21667,DE,15487,2863199,Niederkrüchten,1.39,0.86,2.83,6.49,13.12,17.92,16.39,17.83,15.12,11.18,8.04,1.99
Niederkassel,50.81503,7.03777,DE,36480,2863223,Niederkassel,0.58,0.6,2.56,6.45,12.62,17.48,16.38,17.75,14.94,10.85,7.77,1.7
Nieder-Ingelheim,49.97756,8.07246,DE,24596,2863240,Nieder-Ingelheim,-1.4,0.61,2.23,7.01,12.71,17.84,17.0,18.32,15.11,10.47,6.83,1.32
Nidderau,50.23805,8.86704,DE,20090,2863712,Nidderau,-1.95,0.04,1.66,6.62,12.41,17.78,16.91,18.1,14.83,10.22,6.46,0.94
Nidda,50.4133,9.00638,DE,18241,2863716,Nidda,-1.73,-0.37,1.46,6.42,12.37,17.72,16.69,17.96,14.64,10.09,6.46,0.99
Neu Wulmstorf,53.46667,9.8,DE,20150,2863795,Neu Wulmstorf,-3.8,-1.98,1.14,4.95,12.01,17.45,16.09,17.04,13.42,9.96,6.41,2.21
Neuwied,50.4336,7.47057,DE,66805,2863840,Neuwied,-0.75,0.45,2.18,6.78,12.63,17.63,16.78,18.14,15.01,10.56,7.26,1.67
Neu-Ulm,48.39279,10.01112,DE,51389,2863941,Neu-Ulm,-1.96,-0.86,0.47,5.6,10.75,16.84,16.47,16.94,14.29,8.72,5.66,-0.83
Neustrelitz,53.3613,13.07292,DE,22291,2864005,Neustrelitz,-5.48,-3.16,0.19,4.66,11.43,17.2,16.57,17.68,13.31,9.32,5.26,1.46
Neustadt in Holstein,54.10707,10.8145,DE,16176,2864034,Neustadt in Holstein,-3.5,-2.21,0.73,4.24,10.32,16.78,16.26,17.13,13.35,9.59,5.71,2.53
Neustadt bei Coburg,50.32975,11.12058,DE,16715,2864053,Neustadt bei Coburg,-3.58,-1.95,0.02,4.75,10.88,16.99,16.04,16.82,13.47,8.5,4.97,-0.71
Neustadt,49.35009,8.13886,DE,53984,2864054,Neustadt,-0.77,1.22,2.37,7.21,12.67,18.06,17.33,18.64,15.54,10.63,7.24,1.2
Neustadt am Rübenberge,52.50462,9.45871,DE,45942,2864058,Neustadt am Rübenberge,-3.17,-0.97,1.47,5.68,12.49,17.75,16.43,17.46,14.01,10.21,7.09,2.03
Neue Neustadt,52.15,11.63333,DE,226851,2864072,Neue Neustadt,-4.52,-1.9,1.03,6.07,12.2,18.06,17.15,17.68,14.12,10.01,6.54,1.69
Neuss,51.19807,6.68504,DE,152457,2864118,Neuss,0.72,0.53,2.73,6.49,12.99,17.85,16.43,17.88,14.98,10.99,7.84,1.8
Neuruppin,52.92815,12.80311,DE,31901,2864276,Neuruppin,-5.31,-2.75,0.69,5.4,12.02,17.83,16.98,18.09,13.69,9.71,5.64,1.56
Neunkirchen,49.34449,7.18045,DE,49843,2864435,Neunkirchen,-0.12,0.41,1.18,5.81,11.75,17.09,16.04,17.74,14.67,9.76,6.61,0.7
Neumünster,54.07477,9.98195,DE,80196,2864475,Neumünster,-3.82,-2.55,0.67,4.09,10.81,16.87,15.76,16.74,12.93,9.52,5.82,2.18
Neumarkt in der Oberpfalz,49.28028,11.46278,DE,39557,2864549,Neumarkt in der Oberpfalz,-2.79,-1.1,0.77,5.95,11.14,17.58,17.02,17.49,14.53,9.19,5.78,-0.28
Neukölln,52.47719,13.43126,DE,164636,2864695,Neukölln,-6.0,-3.3,0.18,5.78,12.07,18.06,17.47,18.49,14.03,9.7,5.69,1.31
Neu-Isenburg,50.04832,8.69406,DE,35293,2864820,Neu-Isenburg,-1.48,0.5,1.89,6.78,12.5,17.86,16.97,18.28,15.11,10.43,6.69,1.06
Neugraben-Fischbek,53.46579,9.84344,DE,32054,2865260,Neugraben-Fischbek,-4.0,-2.18,0.94,4.75,11.81,17.25,15.89,16.84,13.22,9.76,6.21,2.01
Neufahrn bei Freising,48.31588,11.66316,DE,18255,2865376,Neufahrn bei Freising,-2.55,-0.62,1.17,6.39,11.23,17.44,17.24,17.45,14.68,9.0,5.86,-1.08
Neuenhagen,52.52985,13.68914,DE,16170,2865716,Neuenhagen,-5.86,-3.19,0.4,5.84,12.07,18.02,17.5,18.53,14.04,9.65,5.67,1.29
Neuburg an der Donau,48.73218,11.18709,DE,28370,2866070,Neuburg an der Donau,-2.67,-0.33,1.28,6.39,11.44,17.65,17.2,17.55,14.82,9.16,6.01,-0.36
Neubrück,51.13434,6.63857,DE,51109,2866110,Neubrück,1.05,0.73,2.83,6.51,12.91,17.73,16.45,17.85,15.12,11.11,7.93,1.86
Neubrandenburg,53.56414,13.27532,DE,68082,2866135,Neubrandenburg,-5.41,-3.09,0.36,4.82,11.38,17.18,16.83,17.73,13.41,9.47,5.39,1.65
Neu-Anspach,50.31667,8.5,DE,15276,2866280,Neu-Anspach,-1.96,-0.9,0.84,5.53,11.42,16.72,15.71,17.13,14.09,9.74,5.84,0.67
Nettetal,51.31667,6.28333,DE,42417,2866333,Nettetal,1.12,0.73,2.79,6.44,13.11,17.96,16.33,17.82,15.02,11.14,7.91,2.0
Netphen,50.91667,8.1,DE,25163,2866375,Netphen,-1.87,-1.59,0.35,4.8,11.46,16.5,15.08,16.76,13.38,9.3,5.77,0.24
Neckarsulm,49.18912,9.22527,DE,27413,2866758,Neckarsulm,-0.67,0.9,1.8,7.02,12.45,18.35,17.61,18.64,15.54,10.3,7.02,0.92
Naumburg,51.14987,11.80979,DE,29722,2866906,Naumburg,-3.39,-1.13,1.37,6.6,11.87,17.58,17.2,17.58,14.58,9.77,6.99,1.31
Nauen,52.60701,12.87374,DE,16600,2866930,Nauen,-5.11,-2.51,0.85,5.93,12.3,18.21,17.39,18.41,14.07,9.89,5.92,1.65
Nagold,48.5498,8.72366,DE,22912,2867164,Nagold,-0.75,-0.47,0.45,5.74,11.1,16.87,16.46,17.28,14.61,9.13,6.49,-0.39
Munster,52.98569,10.08756,DE,17746,2867542,Munster,-4.07,-1.95,1.1,5.12,12.06,17.43,16.06,17.03,13.37,9.71,6.26,1.81
Münster,51.96236,7.62571,DE,270184,2867543,Münster,-0.56,-0.26,2.15,5.89,12.73,17.89,16.23,17.59,14.43,10.56,7.55,1.8
Hannoversch Münden,51.41505,9.65046,DE,25073,2867613,Hannoversch Münden,-2.46,-1.12,1.23,5.95,12.04,17.31,16.32,17.43,14.22,10.03,6.77,1.38
Munich,48.13743,11.57549,DE,1260391,2867714,Munich,-2.81,-1.12,0.01,5.12,10.22,16.57,16.44,16.64,13.96,8.32,5.14,-1.83
Müllheim,47.8082,7.63035,DE,18097,2867770,Müllheim,-0.39,1.62,1.55,6.8,11.97,17.59,17.47,18.47,15.51,9.78,6.81,0.8
Mülheim,51.43218,6.87967,DE,170921,2867838,Mülheim,0.74,0.37,2.57,6.38,13.0,17.93,16.39,17.9,14.93,11.0,7.88,1.94
Mühlheim am Main,50.11667,8.83333,DE,28534,2867985,Mühlheim am Main,-1.68,0.43,1.95,6.82,12.57,17.95,17.09,18.32,15.12,10.45,6.67,1.12
Stuttgart Mühlhausen,48.84232,9.23028,DE,26111,2867993,Stuttgart Mühlhausen,-0.56,0.87,1.59,6.91,12.16,17.96,17.47,18.25,15.37,10.1,7.12,0.61
Mühlhausen,51.20896,10.45275,DE,38108,2867996,Mühlhausen,-4.2,-1.94,0.39,5.56,11.2,16.63,15.98,16.77,13.59,9.14,5.78,0.61
Mühldorf,48.2467,12.52155,DE,17622,2868506,Mühldorf,-2.68,-0.71,1.4,6.6,11.2,17.58,17.5,17.72,14.74,9.14,5.96,-0.9
Mühlacker,48.94754,8.83675,DE,26375,2868788,Mühlacker,-0.09,1.15,1.98,7.06,12.27,17.95,17.43,18.52,15.55,10.38,7.45,0.9
Much,50.90383,7.40306,DE,15231,2868936,Much,-1.36,-1.09,0.82,5.18,11.6,16.46,15.18,16.74,13.57,9.66,6.36,0.59
Mössingen,48.40567,9.05419,DE,20010,2869019,Mössingen,-1.56,-1.13,-0.2,5.14,10.38,16.22,15.86,16.6,13.92,8.51,5.77,-1.09
Mosbach,49.35357,9.15106,DE,25106,2869120,Mosbach,-0.72,0.82,1.75,6.97,12.43,18.33,17.52,18.67,15.4,10.28,6.9,0.82
Moosburg,48.47089,11.93811,DE,17363,2869449,Moosburg,-2.56,-0.54,1.42,6.57,11.4,17.59,17.37,17.74,14.87,9.31,6.1,-0.56
Monheim am Rhein,51.09162,6.89217,DE,43038,2869791,Monheim am Rhein,0.6,0.5,2.65,6.48,12.96,17.81,16.44,17.95,14.94,10.93,7.8,1.78
Mönchengladbach,51.18539,6.44172,DE,261742,2869894,Mönchengladbach,1.15,0.71,2.76,6.42,12.98,17.81,16.33,17.78,15.04,11.09,7.91,1.91
Mölln,53.61702,10.68742,DE,18469,2869994,Mölln,-4.45,-2.41,0.78,4.7,11.65,17.32,16.08,16.98,13.13,9.57,5.78,2.01
Moers,51.45342,6.6326,DE,103487,2870221,Moers,0.7,0.44,2.73,6.38,13.01,17.97,16.39,17.83,14.95,11.07,7.86,2.02
Moabit,52.52635,13.33903,DE,81021,2870310,Moabit,-5.63,-2.94,0.51,5.95,12.22,18.21,17.57,18.56,14.16,9.87,5.87,1.49
Mittweida,50.98622,12.97537,DE,16619,2870318,Mittweida,-3.85,-1.83,0.47,5.59,11.17,16.94,16.85,17.04,13.93,8.96,6.35,0.28
Minden,52.28953,8.91455,DE,82879,2871039,Minden,-2.22,-0.73,1.61,5.62,12.44,17.52,16.25,17.47,14.17,10.24,7.27,1.88
Michelstadt,49.67569,9.00373,DE,17279,2871284,Michelstadt,-1.41,0.19,1.34,6.73,12.34,17.96,17.0,18.11,14.97,10.14,6.68,0.64
Metzingen,48.53695,9.2833,DE,22112,2871486,Metzingen,-1.05,-0.23,0.63,6.0,11.16,17.04,16.67,17.33,14.57,9.24,6.45,-0.42
Mettmann,51.2504,6.97536,DE,39550,2871535,Mettmann,0.3,-0.15,1.94,5.86,12.48,17.37,15.84,17.42,14.45,10.52,7.4,1.42
Meschede,51.3502,8.28332,DE,32224,2871668,Meschede,-1.4,-1.51,0.41,4.66,11.2,16.25,15.02,16.44,13.42,9.35,6.45,0.27
Merzig,49.44331,6.63874,DE,31118,2871675,Merzig,0.74,1.17,1.85,6.4,12.46,17.67,16.44,18.05,15.11,10.39,7.21,1.4
Merseburg,51.35478,11.98923,DE,34780,2871736,Merseburg,-3.98,-1.57,1.19,6.42,11.88,17.74,17.32,17.61,14.37,9.7,6.79,1.47
Meppen,52.69064,7.29097,DE,34198,2871845,Meppen,-0.97,0.01,2.28,5.48,12.79,17.4,15.82,17.02,14.19,10.65,7.39,2.21
Menden,51.44337,7.77825,DE,52452,2871983,Menden,-0.19,-0.77,1.35,5.39,11.96,16.89,15.59,17.09,14.09,10.13,7.16,0.99
Memmingen,47.98372,10.18527,DE,41135,2871992,Memmingen,-1.74,-1.01,-0.27,4.35,9.96,16.33,16.1,16.45,13.97,8.14,5.11,-1.83
Melle,52.20197,8.33826,DE,46514,2872079,Melle,-1.5,-0.63,1.63,5.59,12.43,17.54,16.07,17.41,14.22,10.34,7.3,1.79
Meissen,51.16158,13.4737,DE,28492,2872155,Meissen,-4.06,-1.76,0.84,6.41,11.73,17.66,17.59,17.72,14.16,9.45,6.54,0.96
Meiningen,50.56787,10.41521,DE,21580,2872225,Meiningen,-3.09,-1.66,0.32,5.45,11.3,17.05,16.09,17.04,13.75,8.98,5.3,-0.16
Meinerzhagen,51.1074,7.64838,DE,21982,2872237,Meinerzhagen,-1.82,-2.23,-0.14,4.03,10.78,15.7,14.25,15.93,12.78,8.9,5.61,-0.16
Meiderich,51.46667,6.76667,DE,45297,2872347,Meiderich,0.66,0.37,2.7,6.42,13.03,17.99,16.47,17.88,14.95,11.04,7.89,1.97
Meerbusch,51.25268,6.68807,DE,54826,2872504,Meerbusch,0.72,0.51,2.69,6.46,13.05,17.95,16.4,17.92,14.97,11.02,7.87,1.91
Meerane,50.84688,12.46473,DE,17325,2872519,Meerane,-3.48,-1.65,0.46,5.46,10.94,16.64,16.58,16.73,13.85,8.85,6.33,0.1
Meckenheim,50.62388,7.02942,DE,25515,2872582,Meckenheim,0.34,0.21,1.84,6.03,12.08,16.9,15.96,17.26,14.57,10.36,7.36,1.32
Mechernich,50.59304,6.65224,DE,27537,2872611,Mechernich,0.35,-0.44,1.15,5.35,11.56,16.23,15.28,16.64,14.07,9.79,7.0,0.75
Mayen,50.32797,7.22277,DE,19414,2872649,Mayen,-1.23,-0.4,1.15,5.67,11.56,16.5,15.65,17.02,14.08,9.63,6.43,0.74
Marzahn,52.54525,13.56983,DE,111508,2873074,Marzahn,-6.02,-3.33,0.22,5.77,12.02,17.99,17.45,18.48,13.99,9.61,5.61,1.23
Marsberg,51.46171,8.84949,DE,21914,2873211,Marsberg,-2.37,-1.81,0.3,4.85,11.22,16.31,15.14,16.46,13.41,9.3,6.33,0.36
Marl,51.65671,7.09038,DE,91398,2873263,Marl,0.33,0.02,2.32,6.01,12.76,17.81,16.19,17.6,14.58,10.7,7.65,1.78
Marktredwitz,50.00443,12.08593,DE,18204,2873289,Marktredwitz,-4.55,-2.69,-0.89,3.49,9.51,15.69,15.3,15.63,12.53,7.61,4.38,-1.46
Marktoberdorf,47.77964,10.61713,DE,18505,2873291,Marktoberdorf,-2.3,-1.54,-0.83,2.65,8.04,15.32,15.26,15.59,13.3,7.21,3.91,-3.71
Markkleeberg,51.2755,12.36906,DE,24664,2873352,Markkleeberg,-4.29,-1.69,0.93,6.42,11.83,17.69,17.39,17.58,14.36,9.59,6.69,1.28
Märkisches Viertel,52.59841,13.35766,DE,40119,2873356,Märkisches Viertel,-5.64,-3.06,0.46,5.73,12.02,17.96,17.38,18.44,13.99,9.69,5.68,1.39
Marienfelde,52.41868,13.36723,DE,32270,2873589,Marienfelde,-5.67,-2.95,0.47,5.97,12.17,18.21,17.58,18.52,14.14,9.81,5.84,1.41
Mariendorf,52.4378,13.38109,DE,52734,2873606,Mariendorf,-5.67,-2.95,0.47,5.97,12.17,18.21,17.58,18.52,14.14,9.81,5.84,1.41
Marienberg,50.65051,13.16122,DE,16716,2873632,Marienberg,-5.9,-3.66,-1.52,2.81,9.07,15.05,14.92,15.14,11.74,6.95,4.09,-1.97
Marburg an der Lahn,50.80904,8.77069,DE,78895,2873759,Marburg an der Lahn,-2.6,-1.51,0.68,5.58,11.62,16.73,15.71,17.12,13.71,9.47,5.7,0.44
Marbach am Neckar,48.93964,9.25995,DE,15604,2873776,Marbach am Neckar,-0.89,0.52,1.25,6.56,11.76,17.62,17.09,17.88,14.95,9.72,6.75,0.25
Mannheim,49.4891,8.46694,DE,307960,2873891,Mannheim,-1.15,1.22,2.38,7.31,12.76,18.32,17.62,18.81,15.58,10.58,7.11,1.06
Mainz,49.98419,8.2791,DE,217123,2874225,Mainz,-1.76,0.6,2.28,7.0,12.68,17.83,17.04,18.33,15.03,10.37,6.63,1.12
Maintal,50.15,8.83333,DE,38313,2874230,Maintal,-1.73,0.38,1.9,6.77,12.52,17.9,17.03,18.28,15.07,10.41,6.62,1.07
Mahlsdorf,52.50935,13.61373,DE,29757,2874455,Mahlsdorf,-5.97,-3.28,0.27,5.82,12.07,18.04,17.5,18.53,14.04,9.66,5.67,1.28
Magdeburg,52.12773,11.62916,DE,235775,2874545,Magdeburg,-4.48,-1.85,1.08,6.12,12.25,18.11,17.2,17.73,14.17,10.05,6.59,1.74
Lurup,53.59266,9.87697,DE,36521,2875023,Lurup,-4.15,-2.33,0.87,4.66,11.73,17.29,15.93,16.88,13.19,9.73,6.11,2.01
Lünen,51.61634,7.52872,DE,91009,2875107,Lünen,0.31,0.06,2.29,6.17,12.73,17.64,16.31,17.65,14.67,10.68,7.82,1.7
Lüneburg,53.2509,10.41409,DE,71260,2875115,Lüneburg,-4.28,-2.02,1.14,5.19,12.1,17.62,16.33,17.19,13.44,9.83,6.19,2.05
Ludwigshafen am Rhein,49.48121,8.44641,DE,163196,2875376,Ludwigshafen am Rhein,-1.31,1.32,2.54,7.38,12.8,18.3,17.66,18.89,15.61,10.59,7.13,1.06
Ludwigsfelde,52.30322,13.25405,DE,24164,2875379,Ludwigsfelde,-5.16,-2.54,0.83,6.17,12.26,18.37,17.69,18.51,14.24,9.87,6.03,1.54
Ludwigsburg,48.89731,9.19161,DE,87603,2875392,Ludwigsburg,-1.11,0.32,1.04,6.36,11.61,17.4,16.92,17.7,14.82,9.55,6.57,0.06
Lüdinghausen,51.7683,7.44379,DE,24094,2875417,Lüdinghausen,0.03,-0.04,2.33,6.01,12.76,17.86,16.3,17.66,14.59,10.68,7.68,1.86
Lüdenscheid,51.21977,7.6273,DE,79386,2875457,Lüdenscheid,-1.48,-2.1,0.02,4.04,10.73,15.64,14.22,15.87,12.85,8.95,5.76,-0.12
Luckenwalde,52.09029,13.16772,DE,21616,2875484,Luckenwalde,-4.85,-2.19,1.03,6.44,12.39,18.54,17.93,18.47,14.36,9.97,6.27,1.61
Lübeck,53.86893,10.68729,DE,212207,2875601,Lübeck,-4.2,-2.47,0.76,4.53,11.21,17.18,16.19,17.09,13.17,9.61,5.77,2.26
Lubnjow,51.86217,13.95168,DE,17461,2875623,Lubnjow,-4.99,-2.47,0.96,6.68,12.41,18.55,18.16,18.68,14.31,9.79,6.24,1.4
Lübbecke,52.30699,8.61423,DE,25573,2875626,Lübbecke,-1.98,-0.72,1.61,5.53,12.39,17.47,16.1,17.38,14.12,10.22,7.21,1.8
Loxstedt,53.46667,8.65,DE,16382,2875645,Loxstedt,-2.98,-1.14,1.41,4.93,12.05,17.07,15.78,16.7,13.55,10.24,6.77,2.7
Losheim,49.5099,6.74549,DE,16660,2875831,Losheim,-0.11,0.29,1.14,5.71,11.77,16.94,15.71,17.33,14.36,9.67,6.47,0.74
Loschwitz,51.05386,13.81393,DE,20696,2875846,Loschwitz,-4.17,-1.87,0.73,6.16,11.65,17.58,17.59,17.68,13.94,9.28,6.31,0.65
Lörrach,47.61497,7.66457,DE,47002,2875881,Lörrach,-0.79,1.33,1.48,6.59,11.99,17.53,17.51,18.21,15.15,9.33,6.15,0.27
Lohr am Main,49.98922,9.57223,DE,16127,2876147,Lohr am Main,-1.85,-0.03,1.42,6.74,12.25,18.07,17.12,18.07,14.97,10.17,6.54,0.92
Lohne,52.66625,8.2375,DE,27259,2876185,Lohne,-2.01,-0.4,2.02,5.47,12.72,17.64,16.03,17.33,14.02,10.39,7.23,2.16
Löhne,52.18848,8.6922,DE,39521,2876187,Löhne,-1.84,-0.71,1.58,5.65,12.43,17.55,16.23,17.49,14.25,10.27,7.3,1.79
Lohmar,50.83868,7.21399,DE,31339,2876218,Lohmar,0.19,0.35,2.24,6.31,12.52,17.43,16.25,17.7,14.72,10.67,7.51,1.59
Löbtau,51.04358,13.69444,DE,21205,2876683,Löbtau,-4.32,-1.82,0.52,5.98,11.68,17.59,17.66,17.64,13.92,9.22,6.32,0.4
Löbau,51.09954,14.66738,DE,18374,2876755,Löbau,-4.95,-3.02,-0.18,4.96,10.69,16.61,16.78,16.95,12.9,8.39,5.4,-0.31
Lippstadt,51.67369,8.34482,DE,67219,2876865,Lippstadt,-1.03,-0.65,1.35,5.6,12.15,17.28,15.98,17.32,14.2,10.08,7.28,1.15
Lingen,52.52143,7.31845,DE,51310,2877088,Lingen,-0.82,-0.05,2.23,5.6,12.77,17.65,15.9,17.16,14.29,10.66,7.47,2.08
Lindlar,51.01959,7.37758,DE,22723,2877142,Lindlar,-0.96,-1.11,0.91,5.13,11.73,16.62,15.18,16.86,13.65,9.75,6.45,0.67
Lindau,47.54612,9.68431,DE,24518,2877550,Lindau,-1.32,-0.35,0.49,4.54,11.0,17.79,17.49,18.15,15.75,9.28,5.6,-0.75
Limburg an der Lahn,50.3836,8.0503,DE,33820,2877648,Limburg an der Lahn,-1.89,-0.23,1.7,6.61,12.44,17.53,16.59,17.94,14.5,10.04,6.41,1.07
Limbach-Oberfrohna,50.85882,12.76165,DE,23711,2877673,Limbach-Oberfrohna,-4.41,-2.53,-0.31,4.53,10.24,15.96,15.9,16.1,13.06,8.15,5.57,-0.6
Lilienthal,53.14193,8.90338,DE,18293,2877709,Lilienthal,-3.06,-0.83,1.68,5.3,12.53,17.45,16.09,17.13,13.75,10.26,6.97,2.32
Lichterfelde,52.4333,13.30762,DE,85885,2878018,Lichterfelde,-5.52,-2.84,0.54,5.97,12.16,18.2,17.54,18.45,14.11,9.81,5.86,1.45
Lichtenrade,52.39844,13.40637,DE,52110,2878044,Lichtenrade,-5.67,-2.95,0.47,5.97,12.17,18.21,17.58,18.52,14.14,9.81,5.84,1.41
Lichtenfels,50.14567,11.05928,DE,21336,2878074,Lichtenfels,-2.96,-1.41,0.53,5.67,11.4,17.59,16.59,17.46,14.11,9.23,5.5,-0.03
Lichtenberg,52.51395,13.49975,DE,41359,2878102,Lichtenberg,-6.0,-3.3,0.22,5.8,12.08,18.06,17.49,18.52,14.04,9.68,5.68,1.29
Leverkusen,51.0303,6.98432,DE,162738,2878234,Leverkusen,0.49,0.51,2.63,6.43,12.88,17.75,16.42,17.97,14.93,10.91,7.74,1.79
Leutkirch,47.82672,10.0205,DE,22362,2878270,Leutkirch,-1.84,-1.21,-0.6,2.98,8.91,15.85,15.7,16.12,13.78,7.77,4.38,-2.38
Leuben,51.01122,13.82029,DE,38353,2878396,Leuben,-4.26,-1.75,0.72,6.2,11.75,17.69,17.74,17.72,13.96,9.23,6.31,0.45
Leopoldshöhe,52.01246,8.69834,DE,16219,2878673,Leopoldshöhe,-1.81,-1.05,1.21,5.35,12.1,17.36,15.93,17.27,14.0,9.95,6.99,1.35
Leonberg,48.8,9.01667,DE,45711,2878695,Leonberg,-1.02,-0.28,0.5,5.79,11.07,16.82,16.36,17.22,14.49,9.28,6.41,-0.32
Lennestadt,51.11721,8.06707,DE,28102,2878784,Lennestadt,-1.1,-1.39,0.63,4.78,11.56,16.55,15.16,16.85,13.64,9.6,6.42,0.44
Lengerich,52.18661,7.86043,DE,22697,2878840,Lengerich,-1.09,-0.51,1.85,5.62,12.58,17.68,16.04,17.43,14.24,10.43,7.37,1.77
Lemgo,52.02786,8.89901,DE,41943,2878943,Lemgo,-1.68,-0.89,1.44,5.63,12.3,17.47,16.19,17.46,14.27,10.22,7.23,1.67
Leipzig,51.33962,12.37129,DE,504971,2879139,Leipzig,-4.19,-1.59,1.03,6.52,11.93,17.79,17.49,17.68,14.46,9.69,6.79,1.38
Leinfelden-Echterdingen,48.69406,9.16809,DE,36672,2879185,Leinfelden-Echterdingen,-1.47,-0.54,0.2,5.55,10.7,16.54,16.13,16.84,14.09,8.85,6.03,-0.76
Leimen,49.34737,8.68733,DE,27190,2879241,Leimen,-0.5,1.39,2.34,7.31,12.79,18.56,17.85,19.09,15.9,10.77,7.3,1.05
Leichlingen,51.10628,7.01873,DE,27885,2879315,Leichlingen,0.51,0.39,2.52,6.4,12.91,17.77,16.37,17.93,14.87,10.87,7.73,1.77
Lehrte,52.37193,9.97919,DE,43920,2879367,Lehrte,-3.35,-1.3,1.48,5.76,12.35,17.79,16.57,17.57,14.04,10.16,7.01,2.02
Leer,53.23157,7.461,DE,33886,2879697,Leer,-1.88,-0.39,2.06,5.24,12.46,17.13,15.68,16.63,13.77,10.43,7.05,2.52
Lebach,49.41122,6.90988,DE,21583,2879832,Lebach,0.09,0.78,1.53,6.19,12.21,17.45,16.3,17.94,14.86,10.05,6.89,1.06
Laupheim,48.22786,9.87874,DE,19012,2880077,Laupheim,-2.04,-1.07,0.1,5.28,10.48,16.61,16.35,16.75,14.11,8.51,5.44,-1.18
Lauf an der Pegnitz,49.51386,11.28247,DE,26403,2880144,Lauf an der Pegnitz,-2.54,-0.9,0.98,6.13,11.46,17.91,17.25,17.8,14.78,9.43,6.0,-0.07
Lauchhammer,51.48813,13.76623,DE,18990,2880221,Lauchhammer,-4.56,-2.19,0.89,6.56,11.95,18.11,17.85,18.14,14.13,9.48,6.35,1.1
Lankwitz,52.43623,13.3459,DE,43558,2880498,Lankwitz,-5.47,-2.79,0.59,6.02,12.21,18.25,17.59,18.49,14.16,9.86,5.91,1.5
Langenhagen,52.44758,9.73741,DE,50439,2881062,Langenhagen,-3.29,-1.1,1.39,5.73,12.4,17.72,16.47,17.45,14.01,10.14,7.05,1.93
Langenfeld,51.10821,6.94831,DE,59112,2881085,Langenfeld,0.55,0.45,2.6,6.43,12.91,17.76,16.39,17.9,14.89,10.88,7.75,1.73
Langen,53.60554,8.59509,DE,18863,2881276,Langen,-2.75,-1.09,1.47,4.89,11.81,16.92,15.8,16.77,13.69,10.4,6.87,3.03
Langen,49.98955,8.66852,DE,35416,2881279,Langen,-1.54,0.45,1.84,6.73,12.45,17.81,16.92,18.22,15.06,10.37,6.64,1.01
Landshut,48.52961,12.16179,DE,60488,2881485,Landshut,-3.1,-1.0,1.04,6.29,11.03,17.22,17.05,17.37,14.41,8.87,5.65,-1.09
Landsberg am Lech,48.04819,10.88282,DE,27017,2881509,Landsberg am Lech,-2.4,-1.24,-0.38,4.13,9.75,16.11,15.98,16.31,13.88,8.08,4.87,-2.31
Landau in der Pfalz,49.19844,8.11692,DE,41612,2881646,Landau in der Pfalz,-0.26,1.4,2.37,7.16,12.6,18.05,17.38,18.8,15.66,10.65,7.39,1.23
Lampertheim,49.59786,8.4725,DE,31635,2881695,Lampertheim,-1.2,1.08,2.22,7.25,12.72,18.24,17.45,18.64,15.44,10.54,7.05,1.03
Lahr,48.34042,7.86886,DE,47551,2881885,Lahr,-0.29,1.42,1.82,6.7,11.97,17.59,17.17,18.23,15.41,10.01,7.29,0.68
Lahnstein,50.3,7.61667,DE,18749,2881889,Lahnstein,-0.97,0.11,1.75,6.41,12.27,17.32,16.41,17.79,14.75,10.2,6.87,1.33
Lage,51.99223,8.79301,DE,34885,2881956,Lage,-1.63,-0.86,1.43,5.6,12.32,17.55,16.18,17.5,14.25,10.2,7.23,1.62
Laatzen,52.31506,9.79739,DE,40038,2882087,Laatzen,-3.26,-1.38,1.28,5.61,12.16,17.51,16.33,17.29,13.91,9.98,6.94,1.76
Bad Laasphe,50.93139,8.42502,DE,15184,2882091,Bad Laasphe,-2.46,-1.74,0.36,5.05,11.23,16.39,15.12,16.66,13.33,9.22,5.43,0.22
Kürten,51.05,7.26667,DE,20103,2882318,Kürten,-0.16,-0.4,1.57,5.7,12.26,17.14,15.71,17.35,14.26,10.37,7.14,1.3
Künzelsau,49.2818,9.68352,DE,15070,2882439,Künzelsau,-0.75,0.55,1.62,6.78,12.14,18.11,17.39,18.47,15.39,10.14,6.96,0.88
Künzell,50.5442,9.71792,DE,16124,2882440,Künzell,-2.52,-1.66,0.32,5.47,11.52,16.98,15.88,17.14,13.88,9.08,5.64,0.17
Kulmbach,50.10068,11.45032,DE,27565,2882588,Kulmbach,-3.27,-1.52,0.36,4.92,11.1,17.35,16.57,17.25,13.91,8.81,5.42,-0.45
Kronberg,50.18424,8.5232,DE,17730,2883754,Kronberg,-1.84,-0.38,1.33,6.04,11.86,17.14,16.19,17.53,14.42,9.98,6.12,0.85
Kronach,50.23963,11.33308,DE,18248,2883784,Kronach,-3.29,-1.61,0.34,5.05,11.2,17.44,16.51,17.33,13.9,8.82,5.33,-0.45
Kreuztal,50.96775,7.98848,DE,31772,2884050,Kreuztal,-1.69,-1.76,0.16,4.17,11.18,16.26,14.7,16.54,13.09,9.06,5.63,0.04
Kreuzberg,52.49973,13.40338,DE,153135,2884161,Kreuzberg,-5.9,-3.2,0.28,5.88,12.17,18.16,17.57,18.59,14.13,9.8,5.79,1.41
Kreuzau,50.74699,6.49069,DE,18400,2884245,Kreuzau,1.08,0.35,2.09,6.04,12.32,16.95,15.93,17.27,14.73,10.54,7.77,1.36
Krefeld,51.33645,6.55381,DE,237984,2884509,Krefeld,0.81,0.59,2.75,6.47,13.07,17.96,16.4,17.91,14.99,11.06,7.89,1.94
Köthen,51.75185,11.97093,DE,28710,2885237,Köthen,-4.14,-1.73,1.17,6.36,12.2,18.24,17.51,17.9,14.41,9.92,6.68,1.68
Korschenbroich,51.19139,6.51352,DE,33406,2885397,Korschenbroich,1.1,0.73,2.84,6.51,13.05,17.9,16.44,17.89,15.1,11.14,7.96,1.95
Kornwestheim,48.86158,9.18569,DE,31040,2885408,Kornwestheim,-1.16,0.27,0.99,6.31,11.56,17.36,16.87,17.65,14.77,9.5,6.52,0.01
Korntal,48.83218,9.1214,DE,18081,2885412,Korntal,-0.68,0.29,0.99,6.3,11.51,17.3,16.85,17.65,14.88,9.69,6.8,0.11
Korbach,51.27561,8.873,DE,24481,2885536,Korbach,-3.09,-2.4,-0.26,4.4,10.54,15.67,14.6,16.06,12.79,8.55,5.32,-0.41
Köpenick,52.4455,13.57455,DE,67148,2885656,Köpenick,-5.58,-2.9,0.57,6.08,12.28,18.29,17.7,18.65,14.22,9.84,5.88,1.46
Berlin Köpenick,52.44254,13.58228,DE,59561,2885657,Berlin Köpenick,-5.58,-2.9,0.57,6.08,12.28,18.29,17.7,18.65,14.22,9.84,5.88,1.46
Konz,49.70045,6.57652,DE,17879,2885672,Konz,0.3,0.75,1.85,6.33,12.44,17.41,16.2,17.76,14.79,10.27,6.94,1.43
Konstanz,47.66033,9.17582,DE,81275,2885679,Konstanz,-1.51,-0.31,0.82,5.55,11.81,18.29,17.85,18.57,16.03,9.79,6.3,0.41
Königs Wusterhausen,52.30141,13.633,DE,32513,2885732,Königs Wusterhausen,-5.14,-2.54,0.88,6.29,12.37,18.4,17.86,18.67,14.34,9.94,6.07,1.59
Königswinter,50.67734,7.19245,DE,41164,2885734,Königswinter,0.44,0.7,2.52,6.62,12.71,17.64,16.56,17.93,15.03,10.93,7.78,1.85
Königstein im Taunus,50.17943,8.47132,DE,15661,2885760,Königstein im Taunus,-2.59,-1.13,0.58,5.29,11.11,16.4,15.45,16.78,13.66,9.24,5.37,0.11
Königslutter am Elm,52.25116,10.81683,DE,16419,2885800,Königslutter am Elm,-4.35,-2.09,0.78,5.37,11.68,17.28,16.27,17.1,13.57,9.6,6.28,1.38
Königsbrunn,48.27506,10.89178,DE,27494,2885908,Königsbrunn,-2.37,-0.87,0.58,5.75,10.78,16.95,16.7,17.04,14.46,8.74,5.71,-1.07
Köln,50.93333,6.95,DE,963395,2886242,Köln,0.43,0.45,2.48,6.36,12.64,17.52,16.32,17.77,14.85,10.8,7.65,1.65
Kolbermoor,47.84965,12.06696,DE,17941,2886446,Kolbermoor,-2.42,-0.63,0.55,4.84,10.43,16.94,16.94,17.01,14.3,8.36,5.14,-2.04
Koblenz,50.35357,7.57883,DE,107319,2886946,Koblenz,-0.8,0.4,2.13,6.73,12.58,17.58,16.74,18.09,14.96,10.51,7.21,1.62
Klotzsche,51.11053,13.76862,DE,21064,2887366,Klotzsche,-4.77,-2.47,0.13,5.56,11.05,16.98,16.99,17.08,13.34,8.68,5.71,0.05
Klingenstein,48.41849,9.90812,DE,15643,2887716,Klingenstein,-1.84,-0.91,0.36,5.5,10.7,16.77,16.4,16.9,14.31,8.74,5.67,-0.8
Kleve,51.78826,6.13865,DE,49072,2887835,Kleve,0.8,0.61,2.71,6.15,13.05,17.97,16.14,17.57,14.77,11.1,7.83,2.38
Kleinzschocher,51.31568,12.31979,DE,597493,2887933,Kleinzschocher,-4.31,-1.66,0.86,6.43,11.84,17.68,17.37,17.6,14.38,9.62,6.73,1.31
Kleinmachnow,52.40786,13.22514,DE,17892,2888523,Kleinmachnow,-5.17,-2.57,0.77,6.1,12.28,18.31,17.59,18.46,14.2,9.92,6.01,1.61
Kladow,52.45423,13.14445,DE,16368,2890136,Kladow,-5.25,-2.64,0.71,5.93,12.19,18.18,17.44,18.38,14.07,9.84,5.89,1.55
Kitzingen,49.73973,10.15072,DE,21387,2890158,Kitzingen,-1.96,0.15,1.63,6.75,12.09,18.14,17.37,18.18,15.18,10.04,6.67,0.77
Kirchlengern,52.2,8.63333,DE,16338,2890425,Kirchlengern,-1.77,-0.69,1.58,5.65,12.44,17.56,16.2,17.48,14.25,10.29,7.3,1.79
Kirchheim unter Teck,48.64683,9.45378,DE,40206,2890473,Kirchheim unter Teck,-1.16,0.0,0.88,6.23,11.41,17.35,16.87,17.54,14.66,9.3,6.48,-0.33
Kirchhain,50.8272,8.92806,DE,16381,2890504,Kirchhain,-2.47,-1.4,0.74,5.65,11.68,16.82,15.81,17.19,13.83,9.54,5.84,0.56
Kierspe,51.13403,7.59075,DE,18188,2891014,Kierspe,-1.82,-2.23,-0.14,4.03,10.78,15.7,14.25,15.93,12.78,8.9,5.61,-0.16
Kiel,54.32133,10.13489,DE,246601,2891122,Kiel,-3.48,-2.54,0.68,3.99,10.36,16.69,15.83,16.87,13.02,9.54,5.75,2.35
Kevelaer,51.58243,6.24603,DE,28064,2891258,Kevelaer,0.97,0.69,2.85,6.36,13.17,18.15,16.35,17.82,15.0,11.21,7.95,2.25
Kerpen,50.86991,6.69691,DE,64226,2891524,Kerpen,0.9,0.48,2.44,6.21,12.46,17.22,16.14,17.48,14.87,10.77,7.73,1.55
Kempten (Allgäu),47.72674,10.31389,DE,61399,2891621,Kempten (Allgäu),-1.85,-1.23,-0.59,2.96,8.64,15.68,15.56,15.94,13.6,7.53,4.3,-2.95
Kempen,51.36432,6.41858,DE,36312,2891643,Kempen,1.0,0.67,2.79,6.43,13.1,18.02,16.37,17.86,15.01,11.15,7.93,2.09
Kelkheim,50.13703,8.4502,DE,29162,2891832,Kelkheim,-2.15,-0.05,1.58,6.36,12.1,17.33,16.49,17.73,14.51,9.91,6.13,0.69
Kelheim,48.91725,11.88618,DE,15723,2891834,Kelheim,-2.76,-0.52,1.5,6.67,11.62,17.89,17.54,17.91,14.94,9.41,6.12,-0.13
Kehl,48.57297,7.81523,DE,34009,2891951,Kehl,-0.23,1.69,2.04,6.94,12.19,17.78,17.2,18.36,15.44,10.22,7.4,0.82
Kaulsdorf,52.51732,13.58871,DE,19408,2892051,Kaulsdorf,-6.02,-3.33,0.22,5.77,12.02,17.99,17.45,18.48,13.99,9.61,5.61,1.23
Kaufbeuren,47.88238,10.62192,DE,42505,2892080,Kaufbeuren,-1.93,-1.17,-0.48,3.53,9.39,15.91,15.78,16.12,13.77,7.86,4.67,-2.63
Kassel,51.31667,9.5,DE,194501,2892518,Kassel,-2.82,-1.42,1.08,5.96,11.89,16.97,16.16,17.36,14.01,9.63,6.3,0.8
Karow,52.60904,13.48117,DE,18817,2892705,Karow,-5.74,-3.14,0.41,5.7,11.98,17.91,17.37,18.43,13.96,9.65,5.64,1.34
Karlstadt,49.96034,9.77239,DE,15272,2892786,Karlstadt,-1.97,-0.35,1.39,6.66,12.26,18.08,17.05,18.05,14.87,10.1,6.42,0.9
Karlsruhe,49.00937,8.40444,DE,283799,2892794,Karlsruhe,-0.04,1.72,2.5,7.48,12.69,18.32,17.72,19.05,15.98,10.75,7.75,1.14
Karlshorst,52.48419,13.53185,DE,28206,2892811,Karlshorst,-5.9,-3.2,0.32,5.9,12.18,18.16,17.59,18.62,14.14,9.78,5.78,1.39
Karlsfeld,48.22697,11.47573,DE,17920,2892874,Karlsfeld,-2.83,-0.94,0.64,5.91,10.8,17.03,16.86,17.04,14.25,8.63,5.47,-1.52
Karben,50.23019,8.77155,DE,21642,2892980,Karben,-1.83,0.25,1.85,6.69,12.46,17.8,16.98,18.17,14.91,10.31,6.53,1.06
Kamp-Lintfort,51.50467,6.54587,DE,39490,2893264,Kamp-Lintfort,0.79,0.52,2.78,6.4,13.06,18.03,16.4,17.84,14.99,11.13,7.9,2.06
Kamenz,51.26798,14.09374,DE,18270,2893437,Kamenz,-4.54,-2.49,0.38,6.07,11.4,17.42,17.38,17.6,13.66,9.02,5.97,0.53
Kamen,51.59231,7.6638,DE,45927,2893438,Kamen,0.19,-0.04,2.14,6.06,12.58,17.51,16.24,17.56,14.59,10.59,7.75,1.65
Kaltenkirchen,53.83292,9.9581,DE,19747,2893544,Kaltenkirchen,-3.94,-2.32,0.8,4.41,11.4,17.19,15.89,16.93,13.14,9.67,5.98,2.16
Kaiserslautern,49.443,7.77161,DE,98732,2894003,Kaiserslautern,-0.67,0.57,1.75,6.6,12.29,17.5,16.64,18.11,14.99,10.06,6.87,0.87
Kaarst,51.22929,6.61883,DE,42112,2894375,Kaarst,0.95,0.69,2.87,6.56,13.07,17.92,16.5,17.94,15.11,11.13,7.96,1.93
Jülich,50.92149,6.36267,DE,33911,2894553,Jülich,1.29,0.66,2.49,6.33,12.67,17.31,16.23,17.57,15.0,10.85,7.96,1.63
Jüchen,51.1,6.5,DE,22562,2894637,Jüchen,1.08,0.67,2.73,6.4,12.82,17.62,16.33,17.73,15.04,11.03,7.86,1.78
Johannisthal,52.44653,13.5066,DE,19960,2894755,Johannisthal,-5.68,-2.97,0.49,6.01,12.22,18.24,17.64,18.59,14.18,9.83,5.86,1.43
Jena,50.92878,11.5899,DE,104712,2895044,Jena,-3.48,-1.22,1.18,6.45,11.66,17.34,16.94,17.37,14.45,9.66,6.8,1.05
Itzehoe,53.92099,9.51529,DE,33047,2895569,Itzehoe,-3.67,-2.25,0.99,4.42,11.4,17.15,15.82,16.72,13.16,9.79,6.19,2.28
Isernhagen Farster Bauerschaft,52.47093,9.84179,DE,22601,2895664,Isernhagen Farster Bauerschaft,-3.53,-1.42,1.29,5.5,12.24,17.61,16.29,17.28,13.79,9.98,6.82,1.87
Iserlohn,51.37547,7.70281,DE,97910,2895669,Iserlohn,-0.7,-1.24,0.87,4.91,11.48,16.38,15.07,16.57,13.55,9.59,6.64,0.48
Ingolstadt,48.76508,11.42372,DE,120658,2895992,Ingolstadt,-2.84,-0.48,1.23,6.37,11.38,17.64,17.23,17.58,14.71,9.17,5.94,-0.41
Ingelheim am Rhein,49.97078,8.05883,DE,24998,2896020,Ingelheim am Rhein,-1.25,0.76,2.38,7.16,12.86,17.99,17.15,18.47,15.26,10.62,6.98,1.47
Ilmenau,50.68322,10.91858,DE,27055,2896514,Ilmenau,-4.2,-2.75,-0.82,3.92,9.86,15.56,14.81,15.64,12.76,7.99,4.64,-1.04
Illingen,49.37362,7.04758,DE,18488,2896538,Illingen,-0.35,0.28,1.08,5.73,11.74,17.0,15.87,17.54,14.45,9.63,6.46,0.64
Illertissen,48.22336,10.10347,DE,16522,2896546,Illertissen,-2.05,-1.03,0.14,5.34,10.49,16.62,16.4,16.78,14.15,8.56,5.54,-1.14
Idstein,50.21773,8.26679,DE,22810,2896736,Idstein,-1.75,-0.47,1.33,6.03,11.9,17.1,16.15,17.52,14.42,9.96,6.11,0.9
Idar-Oberstein,49.71443,7.30776,DE,31610,2896753,Idar-Oberstein,-0.57,0.15,1.43,6.07,11.95,17.17,16.13,17.78,14.71,9.8,6.62,0.8
Ibbenbüren,52.27964,7.71457,DE,50577,2896817,Ibbenbüren,-1.05,-0.44,1.91,5.51,12.54,17.62,15.91,17.28,14.17,10.43,7.33,1.85
Husum,54.4858,9.05239,DE,20841,2897132,Husum,-3.11,-2.44,0.9,3.83,10.57,16.73,15.47,16.22,12.96,9.74,6.0,2.63
Hürth,50.87079,6.86761,DE,54678,2897216,Hürth,0.34,0.19,2.21,6.04,12.31,17.16,15.99,17.4,14.6,10.53,7.4,1.36
Hünfeld,50.67966,9.76727,DE,16323,2897436,Hünfeld,-2.3,-1.49,0.6,5.64,11.5,16.89,15.99,17.11,14.02,9.32,6.0,0.59
Hummelsbüttel,53.64773,10.04149,DE,17365,2897674,Hummelsbüttel,-4.26,-2.38,0.82,4.69,11.76,17.34,16.01,16.93,13.2,9.71,6.05,1.97
Humboldtkolonie,50.93182,6.99469,DE,15108,2897732,Humboldtkolonie,0.43,0.45,2.48,6.36,12.64,17.52,16.32,17.77,14.85,10.8,7.65,1.65
Hude,53.10766,8.46322,DE,15567,2898079,Hude,-2.62,-0.65,1.75,5.2,12.47,17.28,15.91,16.92,13.74,10.3,7.05,2.41
Hückeswagen,51.14979,7.34471,DE,16369,2898098,Hückeswagen,-0.71,-0.95,1.02,5.16,11.71,16.59,15.17,16.8,13.71,9.82,6.59,0.75
Hückelhoven,51.0555,6.22658,DE,39828,2898111,Hückelhoven,1.57,0.96,2.82,6.5,13.06,17.81,16.41,17.84,15.18,11.16,8.12,1.98
Hoyerswerda,51.43787,14.23549,DE,43681,2898304,Hoyerswerda,-4.45,-2.25,0.83,6.57,11.94,18.0,17.92,18.15,14.09,9.38,6.3,0.89
Höxter,51.77501,9.38155,DE,32713,2898321,Höxter,-2.17,-1.04,1.4,5.82,12.36,17.59,16.42,17.65,14.3,10.15,7.11,1.63
Hövelhof,51.81667,8.65,DE,15962,2898364,Hövelhof,-1.67,-0.96,1.17,5.52,12.15,17.38,15.97,17.28,14.06,9.93,7.05,1.16
Hörstel,52.29763,7.58382,DE,19894,2898603,Hörstel,-0.8,-0.25,2.1,5.67,12.71,17.77,16.04,17.4,14.32,10.59,7.5,1.99
Horn,53.55406,10.08989,DE,37903,2898917,Horn,-4.11,-2.24,0.94,4.78,11.8,17.39,16.08,17.01,13.26,9.78,6.12,2.11
Horb am Neckar,48.44423,8.6913,DE,25092,2899101,Horb am Neckar,-0.8,-0.52,0.4,5.69,11.05,16.82,16.41,17.23,14.56,9.08,6.43,-0.44
Homburg,49.32637,7.33867,DE,44607,2899449,Homburg,-0.0,0.63,1.44,6.08,11.98,17.32,16.29,17.97,14.82,9.96,6.8,0.89
Holzwickede,51.5,7.63333,DE,17821,2899538,Holzwickede,-0.17,-0.48,1.61,5.68,12.22,17.07,15.8,17.2,14.18,10.18,7.32,1.13
Holzminden,51.82798,9.4455,DE,20998,2899601,Holzminden,-2.12,-0.99,1.45,5.88,12.41,17.64,16.47,17.7,14.35,10.2,7.16,1.68
Holzkirchen,47.87663,11.70181,DE,16770,2899676,Holzkirchen,-2.84,-1.54,-0.62,3.68,9.18,15.69,15.67,15.82,13.36,7.57,4.37,-2.94
Hohenstein-Ernstthal,50.80064,12.71287,DE,16542,2901420,Hohenstein-Ernstthal,-4.12,-2.32,-0.19,4.47,10.3,16.05,15.99,16.19,13.2,8.26,5.68,-0.57
Hohen Neuendorf,52.67631,13.27775,DE,21893,2901588,Hohen Neuendorf,-5.41,-2.91,0.62,5.65,12.03,17.97,17.29,18.44,13.94,9.67,5.65,1.43
Hofheim am Taunus,50.09019,8.4493,DE,37750,2902533,Hofheim am Taunus,-1.71,0.26,1.94,6.75,12.54,17.75,16.89,18.17,14.92,10.31,6.51,1.13
Hofgeismar,51.49607,9.385,DE,16444,2902559,Hofgeismar,-2.5,-1.31,1.09,5.74,11.82,16.99,16.0,17.2,13.96,9.77,6.57,1.06
Hof,50.31297,11.91261,DE,49239,2902768,Hof,-4.06,-2.38,-0.5,3.86,9.91,15.97,15.45,15.99,12.97,7.92,4.85,-1.1
Hockenheim,49.32334,8.55194,DE,20614,2902852,Hockenheim,-0.67,1.35,2.36,7.26,12.72,18.45,17.76,19.02,15.83,10.68,7.23,0.98
Hochheim am Main,50.01436,8.35218,DE,17027,2903175,Hochheim am Main,-1.87,0.49,2.16,6.87,12.56,17.75,16.95,18.23,14.95,10.26,6.52,0.97
Hochfeld,51.41943,6.75462,DE,16292,2903237,Hochfeld,0.74,0.45,2.67,6.44,13.05,17.98,16.43,17.94,14.97,11.04,7.9,1.99
Hille,52.33333,8.75,DE,16567,2904725,Hille,-2.1,-0.7,1.64,5.61,12.45,17.53,16.23,17.48,14.18,10.27,7.28,1.88
Hildesheim,52.15077,9.95112,DE,103052,2904789,Hildesheim,-3.44,-1.61,1.08,5.52,11.92,17.31,16.24,17.17,13.83,9.84,6.84,1.54
Hilden,51.16818,6.93093,DE,56565,2904795,Hilden,0.62,0.39,2.56,6.42,12.96,17.83,16.38,17.9,14.91,10.92,7.79,1.78
Hilchenbach,50.99687,8.11062,DE,16467,2904808,Hilchenbach,-2.18,-1.99,-0.06,4.37,11.09,16.09,14.66,16.35,12.92,8.88,5.41,-0.18
Hiddenhausen,52.16667,8.61667,DE,20771,2904886,Hiddenhausen,-1.87,-0.79,1.48,5.55,12.34,17.46,16.1,17.38,14.15,10.19,7.2,1.69
Heusweiler,49.33632,6.93036,DE,20006,2904985,Heusweiler,0.28,0.9,1.53,6.16,12.16,17.45,16.33,17.98,14.95,10.11,6.95,1.06
Heusenstamm,50.05553,8.80076,DE,19012,2904992,Heusenstamm,-1.83,0.28,1.8,6.67,12.42,17.8,16.93,18.18,14.97,10.31,6.52,0.97
Hettstedt,51.6503,11.51146,DE,15949,2905206,Hettstedt,-4.41,-1.96,0.64,5.71,11.42,17.22,16.61,17.12,13.76,9.42,6.37,1.21
Hessisch Oldendorf,52.17269,9.24913,DE,20129,2905290,Hessisch Oldendorf,-2.22,-0.97,1.49,5.68,12.38,17.57,16.38,17.56,14.28,10.3,7.29,1.9
Herzogenrath,50.86874,6.09317,DE,47381,2905455,Herzogenrath,1.67,0.74,2.44,6.24,12.7,17.35,16.11,17.51,15.0,10.86,8.02,1.69
Herzogenaurach,49.56798,10.88565,DE,23319,2905457,Herzogenaurach,-2.62,-0.63,0.94,6.12,11.43,17.75,17.1,17.64,14.71,9.43,6.03,-0.03
Herten,51.59638,7.14387,DE,65306,2905560,Herten,0.35,0.03,2.32,6.11,12.74,17.72,16.23,17.59,14.61,10.68,7.67,1.63
Herrenberg,48.59523,8.86648,DE,31338,2905826,Herrenberg,-1.08,-0.75,0.17,5.44,10.75,16.53,16.13,16.97,14.29,8.98,6.22,-0.63
Herne,51.5388,7.22572,DE,172108,2905891,Herne,0.39,0.01,2.27,6.18,12.77,17.68,16.25,17.65,14.63,10.66,7.69,1.59
Hermsdorf,52.61421,13.30587,DE,16726,2905904,Hermsdorf,-5.47,-2.9,0.57,5.82,12.12,18.07,17.44,18.48,14.06,9.8,5.79,1.5
Herford,52.11457,8.67343,DE,64879,2906121,Herford,-1.62,-0.72,1.56,5.68,12.42,17.57,16.23,17.52,14.28,10.27,7.3,1.73
Herdecke,51.39999,7.43584,DE,25618,2906152,Herdecke,0.38,-0.11,2.04,6.09,12.68,17.53,16.14,17.65,14.58,10.63,7.66,1.58
Herborn,50.68135,8.30369,DE,20473,2906199,Herborn,-2.03,-1.03,1.11,5.87,11.9,17.06,15.88,17.32,13.99,9.75,5.98,0.74
Heppenheim an der Bergstrasse,49.64145,8.63206,DE,25442,2906268,Heppenheim an der Bergstrasse,-0.9,1.05,2.14,7.25,12.75,18.32,17.48,18.67,15.51,10.64,7.14,1.15
Hennigsdorf,52.63598,13.20419,DE,26122,2906331,Hennigsdorf,-5.28,-2.7,0.75,5.89,12.19,18.15,17.47,18.51,14.11,9.87,5.87,1.59
Hennef,50.77555,7.28308,DE,45409,2906376,Hennef,0.1,0.29,2.09,6.3,12.55,17.45,16.27,17.74,14.7,10.7,7.47,1.64
Hemmingen,52.31425,9.72359,DE,18470,2906530,Hemmingen,-3.02,-1.2,1.4,5.72,12.3,17.6,16.41,17.4,14.04,10.13,7.09,1.9
Hemer,51.38707,7.77019,DE,37502,2906595,Hemer,-0.54,-1.12,1.0,5.04,11.61,16.54,15.24,16.74,13.74,9.78,6.81,0.64
Helmstedt,52.2279,11.00985,DE,25515,2906676,Helmstedt,-4.45,-2.02,0.73,5.49,11.63,17.24,16.35,17.07,13.62,9.66,6.31,1.38
Hellersdorf,52.53319,13.6088,DE,84103,2906809,Hellersdorf,-6.02,-3.33,0.22,5.77,12.02,17.99,17.45,18.48,13.99,9.61,5.61,1.23
Heinsberg,51.06358,6.0998,DE,41505,2907201,Heinsberg,1.83,1.16,3.02,6.67,13.28,18.05,16.58,18.04,15.38,11.34,8.32,2.18
Heilbad Heiligenstadt,51.37819,10.13744,DE,17230,2907545,Heilbad Heiligenstadt,-3.61,-1.94,0.29,5.11,11.09,16.52,15.62,16.6,13.43,9.16,5.84,0.56
Heiligensee,52.61449,13.24501,DE,18099,2907551,Heiligensee,-5.38,-2.8,0.65,5.79,12.09,18.05,17.37,18.41,14.01,9.77,5.77,1.49
Heiligenhaus,51.32662,6.97106,DE,27700,2907585,Heiligenhaus,-0.05,-0.5,1.6,5.51,12.13,17.01,15.49,17.07,14.1,10.16,7.04,1.07
Heilbronn,49.13995,9.22054,DE,120733,2907669,Heilbronn,-0.45,1.1,1.93,7.13,12.5,18.34,17.69,18.65,15.62,10.39,7.21,1.02
Heidenheim an der Brenz,48.67798,10.15162,DE,50067,2907851,Heidenheim an der Brenz,-1.99,-0.97,0.41,5.52,10.74,16.82,16.3,16.91,14.36,8.9,5.7,-0.53
Heidenau,50.97221,13.86741,DE,16756,2907887,Heidenau,-4.21,-1.75,0.82,6.2,11.75,17.72,17.75,17.77,13.94,9.23,6.29,0.47
Heidelberg,49.40768,8.69079,DE,143345,2907911,Heidelberg,-0.54,1.33,2.35,7.36,12.84,18.57,17.82,19.0,15.8,10.82,7.32,1.15
Heide,54.19579,9.0988,DE,20599,2908032,Heide,-3.28,-2.21,0.98,4.04,10.83,16.73,15.54,16.27,13.04,9.83,6.16,2.55
Hechingen,48.35149,8.96317,DE,19400,2908495,Hechingen,-1.67,-1.4,-0.44,4.7,10.1,15.99,15.66,16.37,13.77,8.33,5.48,-1.27
Hausbruch,53.47424,9.88289,DE,16927,2908942,Hausbruch,-3.93,-2.04,1.12,4.98,12.05,17.54,16.16,17.1,13.43,9.96,6.38,2.2
Hattingen,51.39894,7.18557,DE,56866,2909230,Hattingen,0.46,-0.02,2.15,6.1,12.72,17.61,16.13,17.65,14.62,10.68,7.65,1.61
Hattersheim,50.06906,8.48632,DE,25035,2909240,Hattersheim,-1.55,0.55,2.18,6.96,12.7,17.93,17.09,18.33,15.11,10.51,6.73,1.29
Haßloch,49.36278,8.25806,DE,20779,2909313,Haßloch,-0.72,1.48,2.7,7.46,12.87,18.39,17.73,19.03,15.8,10.76,7.35,1.29
Haselhorst,52.54409,13.23743,DE,16471,2909794,Haselhorst,-5.28,-2.66,0.72,5.99,12.22,18.21,17.52,18.47,14.14,9.89,5.92,1.57
Harvestehude,53.58333,9.98333,DE,17666,2909972,Harvestehude,-4.21,-2.33,0.87,4.73,11.81,17.39,16.05,16.97,13.25,9.76,6.1,2.02
Harsewinkel,51.96224,8.22766,DE,24207,2910278,Harsewinkel,-1.37,-0.53,1.73,5.8,12.56,17.78,16.26,17.58,14.35,10.33,7.39,1.54
Haren,52.79262,7.24142,DE,22545,2910514,Haren,-1.02,-0.03,2.27,5.44,12.74,17.27,15.74,16.9,14.15,10.64,7.32,2.27
Harburg,53.46057,9.98388,DE,169221,2910685,Harburg,-4.11,-2.16,1.02,4.97,12.04,17.56,16.18,17.11,13.4,9.9,6.28,2.14
Hannover,52.37052,9.73322,DE,515140,2910831,Hannover,-3.29,-1.1,1.39,5.73,12.4,17.72,16.47,17.45,14.01,10.14,7.05,1.93
Hanau am Main,50.13423,8.91418,DE,88648,2911007,Hanau am Main,-1.74,0.22,1.76,6.73,12.5,17.91,17.0,18.23,15.02,10.35,6.6,1.02
Hamminkeln,51.73262,6.59031,DE,27433,2911051,Hamminkeln,0.72,0.46,2.72,6.28,13.11,18.09,16.37,17.83,14.89,11.1,7.9,2.21
Hamm,53.55487,10.05742,DE,37989,2911234,Hamm,-4.06,-2.19,0.99,4.83,11.85,17.44,16.13,17.06,13.31,9.83,6.17,2.17
Hamm,51.68033,7.82089,DE,178967,2911240,Hamm,-0.24,-0.28,1.97,5.88,12.43,17.46,16.13,17.45,14.46,10.44,7.55,1.52
Hameln,52.10397,9.35623,DE,58666,2911271,Hameln,-2.33,-0.99,1.51,5.87,12.43,17.63,16.53,17.65,14.35,10.27,7.32,1.85
Wandsbek,53.58334,10.08305,DE,411422,2911285,Wandsbek,-4.16,-2.29,0.89,4.73,11.75,17.34,16.03,16.96,13.21,9.73,6.07,2.07
Marienthal,53.56667,10.08333,DE,287101,2911287,Marienthal,-4.11,-2.24,0.94,4.78,11.8,17.39,16.08,17.01,13.26,9.78,6.12,2.11
Hamburg-Mitte,53.55,10.01667,DE,301231,2911288,Hamburg-Mitte,-4.21,-2.33,0.87,4.73,11.81,17.39,16.05,16.97,13.25,9.76,6.1,2.02
Eimsbüttel,53.57416,9.95679,DE,269118,2911293,Eimsbüttel,-4.26,-2.38,0.82,4.69,11.76,17.34,16.01,16.93,13.2,9.71,6.05,1.97
Altona,53.55,9.93333,DE,250192,2911296,Altona,-4.2,-2.38,0.82,4.61,11.68,17.24,15.88,16.83,13.14,9.67,6.06,1.96
Hamburg,53.55073,9.99302,DE,1845229,2911298,Hamburg,-4.16,-2.28,0.92,4.79,11.86,17.44,16.11,17.03,13.3,9.81,6.15,2.07
Halver,51.18612,7.49817,DE,17650,2911384,Halver,-1.82,-2.29,-0.15,4.05,10.71,15.57,14.19,15.79,12.79,8.9,5.72,-0.18
Haltern am See,51.74297,7.18163,DE,37845,2911395,Haltern am See,0.34,0.09,2.38,6.12,12.84,17.89,16.32,17.7,14.68,10.77,7.75,1.85
Halstenbek,53.63333,9.85,DE,16212,2911408,Halstenbek,-4.1,-2.28,0.92,4.71,11.78,17.34,15.98,16.93,13.24,9.77,6.16,2.06
Halle,52.06007,8.36083,DE,21448,2911520,Halle,-1.78,-0.96,1.31,5.34,12.14,17.31,15.85,17.19,13.96,9.99,7.0,1.39
Halle (Saale),51.48158,11.97947,DE,237865,2911522,Halle (Saale),-4.14,-1.71,1.09,6.32,11.88,17.8,17.35,17.61,14.31,9.69,6.69,1.5
Haldensleben I,52.28906,11.40982,DE,20294,2911584,Haldensleben I,-4.17,-1.63,1.34,6.18,12.46,18.23,17.28,17.97,14.3,10.2,6.77,1.99
Halberstadt,51.89562,11.05622,DE,39729,2911665,Halberstadt,-4.43,-1.84,0.81,5.69,11.59,17.3,16.57,17.18,13.77,9.5,6.47,1.21
Hakenfelde,52.55877,13.20831,DE,31327,2911710,Hakenfelde,-5.28,-2.7,0.75,5.89,12.19,18.15,17.47,18.51,14.11,9.87,5.87,1.59
Haiger,50.74162,8.20778,DE,20218,2911964,Haiger,-2.25,-1.37,0.8,5.53,11.62,16.77,15.57,17.04,13.73,9.48,5.71,0.49
Hagen,51.36081,7.47168,DE,198972,2912621,Hagen,0.28,-0.25,1.9,5.95,12.54,17.37,16.02,17.53,14.47,10.51,7.56,1.45
Haar,48.10881,11.72653,DE,17560,2913192,Haar,-2.85,-1.21,0.01,5.03,10.12,16.45,16.34,16.53,13.83,8.2,5.05,-1.89
Haan,51.19382,7.0133,DE,29431,2913195,Haan,0.05,-0.26,1.87,5.75,12.32,17.2,15.73,17.3,14.29,10.31,7.19,1.22
Gütersloh,51.90693,8.37853,DE,96180,2913366,Gütersloh,-1.53,-0.69,1.45,5.68,12.38,17.65,16.17,17.47,14.29,10.21,7.28,1.39
Güstrow,53.7972,12.17337,DE,31217,2913433,Güstrow,-5.1,-2.95,0.42,4.61,11.44,17.24,16.42,17.3,13.08,9.47,5.42,1.88
Gunzenhausen,49.11663,10.75971,DE,16477,2913537,Gunzenhausen,-2.55,-0.99,0.61,5.81,11.02,17.26,16.68,17.26,14.43,8.96,5.72,-0.43
Günzburg,48.45599,10.27695,DE,19737,2913555,Günzburg,-2.41,-0.7,0.64,5.8,10.9,17.0,16.59,17.05,14.41,8.76,5.65,-0.73
Gummersbach,51.02608,7.56473,DE,53131,2913761,Gummersbach,-1.1,-1.38,0.78,4.79,11.6,16.56,15.04,16.8,13.52,9.59,6.25,0.56
Guben,51.94987,14.71447,DE,21608,2913922,Guben,-5.12,-2.76,0.82,6.62,12.26,18.41,18.27,18.7,14.23,9.75,6.18,1.21
Großzschocher,51.30147,12.32322,DE,597493,2914796,Großzschocher,-4.41,-1.74,0.79,6.37,11.79,17.63,17.32,17.55,14.33,9.57,6.67,1.24
Groß-Umstadt,49.86899,8.9321,DE,21758,2914929,Groß-Umstadt,-1.24,0.41,1.59,6.76,12.42,17.89,16.97,18.22,15.08,10.35,6.78,0.96
Großostheim,49.91985,9.07596,DE,16346,2915196,Großostheim,-1.32,0.36,1.53,6.93,12.6,18.17,17.19,18.33,15.17,10.38,6.87,0.91
Groß-Gerau,49.92139,8.48255,DE,23641,2915613,Groß-Gerau,-1.32,0.93,2.37,7.12,12.77,18.05,17.22,18.57,15.4,10.66,6.91,1.26
Großenhain,51.28951,13.5335,DE,16573,2916630,Großenhain,-4.2,-1.94,0.96,6.5,11.8,17.8,17.64,17.79,14.16,9.43,6.46,1.03
Gronau,52.21099,7.02238,DE,46161,2917138,Gronau,-0.05,0.04,2.33,5.77,12.86,17.83,16.0,17.39,14.44,10.77,7.64,2.16
Gröbenzell,48.2,11.36667,DE,19110,2917221,Gröbenzell,-2.57,-0.88,0.68,5.84,10.74,16.97,16.79,17.02,14.3,8.68,5.56,-1.42
Grimma,51.23367,12.71959,DE,17991,2917325,Grimma,-3.8,-1.56,1.08,6.4,11.75,17.58,17.34,17.54,14.35,9.48,6.7,1.05
Griesheim,49.86085,8.5725,DE,25287,2917412,Griesheim,-1.2,0.87,2.19,7.03,12.7,18.04,17.19,18.53,15.39,10.67,6.93,1.25
Grevenbroich,51.09102,6.5827,DE,64779,2917540,Grevenbroich,1.05,0.73,2.83,6.51,12.91,17.73,16.45,17.85,15.12,11.11,7.93,1.86
Greven,52.09364,7.59396,DE,35080,2917544,Greven,-0.67,-0.24,2.19,5.89,12.86,18.0,16.26,17.67,14.47,10.64,7.6,1.91
Greiz,50.65778,12.19918,DE,24147,2917737,Greiz,-3.14,-1.35,0.67,5.73,11.13,16.94,16.81,17.03,14.2,9.1,6.49,0.3
Greifswald,54.09311,13.38786,DE,52731,2917788,Greifswald,-4.01,-2.78,0.44,4.69,10.19,16.33,16.71,17.35,13.4,9.48,5.18,2.11
Grefrath,51.3363,6.34072,DE,16016,2917816,Grefrath,1.22,0.83,2.89,6.54,13.21,18.06,16.43,17.92,15.12,11.24,8.01,2.1
Göttingen,51.53443,9.93228,DE,122149,2918632,Göttingen,-3.19,-1.53,0.89,5.56,11.73,17.06,16.06,17.08,13.78,9.61,6.35,1.05
Gotha,50.94823,10.70193,DE,46615,2918752,Gotha,-3.81,-1.92,0.06,5.26,10.83,16.41,15.73,16.53,13.57,8.91,5.54,0.05
Goslar,51.90425,10.42766,DE,43560,2918840,Goslar,-4.78,-2.71,-0.23,4.46,10.9,16.38,15.36,16.31,12.88,8.76,5.69,0.3
Görlitz,51.15518,14.98853,DE,57751,2918987,Görlitz,-5.02,-2.98,-0.16,5.45,10.97,16.85,17.15,17.29,13.14,8.66,5.67,-0.05
Gorbitz,51.0455,13.66108,DE,21599,2919039,Gorbitz,-4.76,-2.27,0.07,5.54,11.23,17.14,17.21,17.19,13.47,8.77,5.87,-0.05
Göppingen,48.70354,9.65209,DE,58040,2919054,Göppingen,-0.97,-0.05,0.96,6.23,11.51,17.49,16.86,17.62,14.82,9.39,6.53,-0.2
Gohlis,51.36667,12.35,DE,45924,2919502,Gohlis,-4.2,-1.76,1.0,6.31,11.79,17.74,17.35,17.56,14.27,9.59,6.62,1.35
Goch,51.67873,6.15895,DE,33706,2919625,Goch,0.94,0.72,2.82,6.3,13.16,18.13,16.32,17.77,14.94,11.22,7.96,2.4
Glinde,53.5441,10.20048,DE,16210,2919880,Glinde,-4.21,-2.24,0.96,4.85,11.83,17.37,16.06,16.99,13.22,9.72,6.07,2.04
Glauchau,50.81987,12.54493,DE,26473,2920020,Glauchau,-3.53,-1.7,0.41,5.41,10.89,16.58,16.53,16.69,13.8,8.8,6.28,0.05
Gladbeck,51.57077,6.98593,DE,76940,2920236,Gladbeck,0.39,0.06,2.36,6.09,12.75,17.75,16.21,17.59,14.62,10.71,7.66,1.68
Ginsheim-Gustavsburg,49.9711,8.34532,DE,16043,2920329,Ginsheim-Gustavsburg,-1.51,0.85,2.53,7.25,12.93,18.08,17.29,18.59,15.28,10.62,6.88,1.37
Gilching,48.10755,11.2936,DE,16859,2920433,Gilching,-2.6,-1.15,-0.03,4.98,10.17,16.52,16.37,16.66,14.14,8.43,5.17,-1.8
Gifhorn,52.47774,10.5511,DE,43000,2920478,Gifhorn,-4.03,-1.68,1.39,5.79,12.32,17.91,16.72,17.61,13.95,10.0,6.61,1.86
Gießen,50.58727,8.67554,DE,74411,2920512,Gießen,-2.01,-0.61,1.31,6.19,12.18,17.39,16.34,17.72,14.34,10.02,6.24,0.95
Giengen an der Brenz,48.62219,10.24312,DE,20201,2920620,Giengen an der Brenz,-2.07,-0.74,0.64,5.78,10.96,17.04,16.56,17.1,14.5,8.93,5.81,-0.52
Gevelsberg,51.31971,7.3392,DE,32664,2920757,Gevelsberg,-0.05,-0.51,1.65,5.65,12.26,17.12,15.7,17.2,14.15,10.2,7.21,1.14
Gesundbrunnen,52.55035,13.39139,DE,93862,2920789,Gesundbrunnen,-5.64,-3.06,0.46,5.73,12.02,17.96,17.38,18.44,13.99,9.69,5.68,1.39
Geseke,51.64091,8.5109,DE,20602,2920834,Geseke,-1.02,-0.63,1.29,5.77,12.2,17.27,16.08,17.42,14.34,10.2,7.36,1.23
Gescher,51.954,7.00481,DE,17115,2920842,Gescher,0.13,0.05,2.38,5.89,12.89,17.93,16.12,17.56,14.54,10.76,7.65,2.06
Gersthofen,48.42432,10.87273,DE,20254,2920891,Gersthofen,-2.3,-0.63,0.78,5.96,10.95,17.11,16.81,17.16,14.48,8.9,5.84,-0.77
Germersheim,49.2144,8.36687,DE,20972,2921034,Germersheim,-0.52,1.35,2.36,7.14,12.49,18.11,17.49,18.85,15.77,10.59,7.3,0.98
Germering,48.13392,11.3765,DE,40511,2921039,Germering,-2.58,-1.09,0.04,5.04,10.25,16.59,16.44,16.72,14.17,8.46,5.23,-1.8
Gerlingen,48.79954,9.06316,DE,19050,2921061,Gerlingen,-0.83,0.14,0.84,6.15,11.36,17.15,16.7,17.5,14.73,9.54,6.65,-0.03
Geretsried,47.85775,11.48054,DE,23364,2921139,Geretsried,-2.45,-1.07,-0.19,4.01,9.74,16.27,16.22,16.42,13.93,8.11,4.88,-2.45
Gera,50.88029,12.08187,DE,104659,2921232,Gera,-3.27,-1.34,0.92,6.17,11.47,17.15,16.98,17.2,14.34,9.37,6.72,0.74
Georgsmarienhütte,52.20296,8.0448,DE,32580,2921242,Georgsmarienhütte,-1.37,-0.76,1.59,5.4,12.34,17.44,15.84,17.23,14.03,10.2,7.14,1.53
Gelsenkirchen,51.50508,7.09654,DE,270028,2921466,Gelsenkirchen,0.55,0.18,2.45,6.32,12.92,17.85,16.39,17.8,14.79,10.83,7.81,1.75
Gelnhausen,50.20164,9.18742,DE,21881,2921473,Gelnhausen,-1.68,-0.07,1.41,6.56,12.37,17.87,16.85,18.07,14.89,10.26,6.56,0.97
Geldern,51.51908,6.32363,DE,34013,2921528,Geldern,1.03,0.71,2.86,6.43,13.16,18.13,16.4,17.88,15.05,11.22,7.98,2.2
Geislingen an der Steige,48.62423,9.82736,DE,27962,2921653,Geislingen an der Steige,-1.43,-0.54,0.63,5.84,11.11,17.14,16.56,17.24,14.39,8.96,6.08,-0.59
Geilenkirchen,50.96745,6.11763,DE,28334,2921837,Geilenkirchen,1.71,0.95,2.71,6.38,12.89,17.58,16.26,17.69,15.08,11.02,8.09,1.84
Geesthacht,53.43575,10.3779,DE,29487,2922102,Geesthacht,-4.31,-2.16,1.05,5.02,11.94,17.47,16.2,17.11,13.31,9.74,6.09,2.04
Gauting,48.06919,11.37703,DE,19216,2922230,Gauting,-2.83,-1.34,-0.21,4.79,10.0,16.34,16.2,16.47,13.92,8.21,4.98,-2.05
Garmisch-Partenkirchen,47.49209,11.09576,DE,26022,2922530,Garmisch-Partenkirchen,-2.62,-1.86,-0.5,2.49,6.43,14.92,15.27,15.5,13.66,6.75,2.58,-5.31
Garching,48.24896,11.65101,DE,15303,2922582,Garching,-2.7,-0.82,0.88,6.12,10.95,17.18,17.02,17.2,14.43,8.73,5.61,-1.47
Garbsen,52.41371,9.5899,DE,63355,2922586,Garbsen,-3.05,-0.96,1.53,5.79,12.49,17.77,16.51,17.52,14.1,10.24,7.17,2.03
Ganderkesee,53.03333,8.53333,DE,31141,2922731,Ganderkesee,-2.6,-0.67,1.73,5.19,12.45,17.29,15.9,16.99,13.76,10.27,7.05,2.29
Gaggenau,48.8,8.33333,DE,29496,2923362,Gaggenau,-0.22,1.16,1.93,6.95,12.27,17.92,17.28,18.54,15.41,10.22,7.45,0.49
Füssen,47.57143,10.70171,DE,15608,2923507,Füssen,-2.75,-1.9,-1.24,2.07,7.04,14.69,14.72,14.96,12.85,6.57,2.95,-4.86
Fürth,49.47593,10.98856,DE,112025,2923544,Fürth,-2.7,-0.8,0.74,6.02,11.33,17.67,17.06,17.54,14.61,9.29,5.94,-0.2
Fürstenwalde,52.36067,14.06185,DE,33539,2923588,Fürstenwalde,-5.68,-3.11,0.57,6.1,12.14,18.07,17.74,18.66,14.18,9.75,5.84,1.4
Fürstenfeldbruck,48.17904,11.2547,DE,33533,2923625,Fürstenfeldbruck,-2.58,-0.95,0.56,5.75,10.69,16.94,16.74,17.04,14.39,8.71,5.56,-1.36
Fulda,50.55162,9.67518,DE,63760,2923822,Fulda,-2.5,-1.55,0.57,5.67,11.58,16.97,15.94,17.11,13.89,9.14,5.81,0.36
Fröndenberg,51.47563,7.76946,DE,20566,2924206,Fröndenberg,-0.37,-0.72,1.3,5.42,11.92,16.81,15.58,16.97,13.98,9.98,7.13,0.89
Frohnau,52.63336,13.29024,DE,16689,2924302,Frohnau,-5.57,-3.0,0.47,5.72,12.02,17.97,17.34,18.38,13.96,9.7,5.69,1.4
Friesoythe,53.0226,7.85764,DE,20311,2924360,Friesoythe,-1.76,-0.23,2.15,5.39,12.7,17.49,15.95,17.07,14.02,10.54,7.29,2.54
Friedrichshain,52.51559,13.45482,DE,117829,2924573,Friedrichshain,-5.9,-3.2,0.32,5.9,12.18,18.16,17.59,18.62,14.14,9.78,5.78,1.39
Friedrichshagen,52.45052,13.62463,DE,19009,2924577,Friedrichshagen,-5.87,-3.18,0.37,5.92,12.17,18.14,17.6,18.63,14.14,9.76,5.77,1.38
Friedrichshafen,47.65689,9.47554,DE,58403,2924585,Friedrichshafen,-1.6,-0.09,0.45,4.88,11.0,17.71,17.23,17.75,15.4,9.24,5.65,-0.51
Friedrichsfelde,52.50575,13.50812,DE,55423,2924599,Friedrichsfelde,-5.9,-3.2,0.32,5.9,12.18,18.16,17.59,18.62,14.14,9.78,5.78,1.39
Friedrichsdorf,50.24962,8.64281,DE,24435,2924625,Friedrichsdorf,-1.81,-0.1,1.53,6.29,12.08,17.39,16.5,17.78,14.62,10.13,6.29,0.95
Friedenau,52.47133,13.32813,DE,27998,2924770,Friedenau,-5.63,-2.95,0.48,5.91,12.17,18.16,17.53,18.51,14.11,9.82,5.82,1.46
Friedberg,50.33739,8.75591,DE,27484,2924802,Friedberg,-1.99,-0.17,1.52,6.37,12.21,17.55,16.63,17.87,14.6,10.08,6.31,0.9
Friedberg,48.35693,10.98461,DE,29916,2924803,Friedberg,-2.58,-0.83,0.59,5.76,10.76,16.92,16.64,16.99,14.38,8.72,5.64,-0.95
Freudenstadt,48.46695,8.41371,DE,23868,2924894,Freudenstadt,-1.42,-1.9,-1.17,3.2,9.38,15.22,14.62,15.8,13.24,7.92,5.18,-1.63
Freudenberg,50.89741,7.87415,DE,18601,2924915,Freudenberg,-1.8,-1.72,0.21,4.62,11.37,16.34,14.9,16.61,13.18,9.19,5.73,0.11
Freital,51.00166,13.6488,DE,39027,2925017,Freital,-4.13,-1.75,0.59,5.87,11.59,17.5,17.53,17.54,13.98,9.2,6.35,0.45
Freising,48.40351,11.74876,DE,42570,2925034,Freising,-2.59,-0.6,1.21,6.4,11.25,17.48,17.22,17.49,14.71,9.06,5.93,-0.91
Freilassing,47.84085,12.98114,DE,15909,2925080,Freilassing,-2.38,-0.75,0.5,3.96,9.98,16.68,16.81,16.96,14.09,7.94,4.45,-2.0
Freiburg,47.9959,7.85222,DE,215966,2925177,Freiburg,-0.51,1.1,1.56,6.43,12.06,17.58,17.33,18.39,15.33,9.44,6.69,0.39
Freiberg am Neckar,48.93196,9.2024,DE,15235,2925189,Freiberg am Neckar,-0.81,0.62,1.34,6.66,11.91,17.7,17.22,18.0,15.12,9.85,6.87,0.36
Freiberg,50.91089,13.33881,DE,43670,2925192,Freiberg,-4.87,-2.64,-0.41,4.32,10.27,16.14,16.09,16.21,12.89,8.06,5.32,-0.64
Frechen,50.91485,6.8118,DE,48733,2925259,Frechen,0.76,0.47,2.47,6.25,12.5,17.31,16.19,17.56,14.87,10.79,7.69,1.59
Frankfurt am Main,50.11552,8.68417,DE,650000,2925533,Frankfurt am Main,-1.72,0.42,1.99,6.81,12.56,17.9,17.04,18.28,15.07,10.41,6.62,1.1
Frankfurt (Oder),52.34714,14.55062,DE,57015,2925535,Frankfurt (Oder),-5.57,-3.14,0.67,6.33,12.24,18.23,18.03,18.79,14.27,9.79,5.92,1.33
Frankenthal,49.53414,8.35357,DE,47438,2925550,Frankenthal,-1.26,1.37,2.59,7.43,12.85,18.36,17.71,18.94,15.66,10.65,7.19,1.11
Frankenberg,51.0589,8.80077,DE,19276,2925629,Frankenberg,-2.54,-1.78,0.3,4.94,11.17,16.33,15.15,16.67,13.32,9.14,5.6,0.16
Frankenberg,50.91297,13.04011,DE,16850,2925630,Frankenberg,-3.89,-1.88,0.34,5.1,10.96,16.75,16.67,16.84,13.7,8.79,6.18,0.03
Forst,51.73544,14.63971,DE,22843,2925832,Forst,-4.75,-2.61,0.79,6.58,12.11,18.27,18.13,18.45,14.17,9.62,6.26,1.1
Forchheim,49.71754,11.05877,DE,30442,2925910,Forchheim,-2.4,-0.67,1.24,6.32,11.74,18.12,17.39,18.0,14.96,9.71,6.25,0.25
Flörsheim,50.01311,8.42779,DE,20023,2926120,Flörsheim,-1.67,0.69,2.36,7.07,12.76,17.95,17.15,18.43,15.15,10.46,6.72,1.17
Flensburg,54.78431,9.43961,DE,85838,2926271,Flensburg,-2.77,-2.64,0.8,3.82,10.69,16.92,15.52,16.49,12.9,9.64,5.77,2.71
Fischeln,51.30353,6.58836,DE,26030,2926565,Fischeln,0.81,0.59,2.75,6.47,13.07,17.96,16.4,17.91,14.99,11.06,7.89,1.94
Finsterwalde,51.63388,13.70662,DE,18922,2926670,Finsterwalde,-4.66,-2.24,0.89,6.51,11.99,18.2,17.86,18.18,14.16,9.53,6.32,1.19
Stuttgart Feuerbach,48.80867,9.15719,DE,28046,2927043,Stuttgart Feuerbach,-0.76,0.41,1.09,6.41,11.57,17.41,16.95,17.7,14.88,9.67,6.78,0.12
Fellbach,48.80912,9.27697,DE,43935,2927268,Fellbach,-0.96,0.3,0.99,6.34,11.51,17.38,16.89,17.62,14.78,9.52,6.65,-0.09
Falkensee,52.56014,13.0927,DE,37468,2927930,Falkensee,-5.12,-2.56,0.87,5.95,12.27,18.24,17.49,18.54,14.15,9.93,5.95,1.68
Eving,51.55177,7.48087,DE,38687,2928313,Eving,0.11,-0.14,2.09,5.97,12.53,17.44,16.11,17.45,14.47,10.48,7.62,1.5
Eutin,54.14054,10.60751,DE,16984,2928381,Eutin,-3.85,-2.53,0.56,4.06,10.36,16.66,15.91,16.84,13.01,9.46,5.6,2.3
Euskirchen,50.66057,6.78722,DE,54889,2928396,Euskirchen,0.67,0.25,2.07,6.04,12.16,16.86,15.94,17.22,14.62,10.44,7.57,1.29
Ettlingen,48.94094,8.40763,DE,38942,2928615,Ettlingen,-0.14,1.62,2.4,7.38,12.59,18.22,17.62,18.95,15.88,10.65,7.65,1.04
Esslingen,48.73961,9.30473,DE,92390,2928751,Esslingen,-0.65,0.51,1.31,6.67,11.85,17.76,17.22,17.94,15.07,9.77,6.95,0.16
Essen,51.45657,7.01228,DE,593085,2928810,Essen,0.32,-0.03,2.25,6.07,12.68,17.63,16.14,17.54,14.56,10.61,7.55,1.54
Espelkamp,52.38251,8.62127,DE,26378,2928874,Espelkamp,-1.94,-0.47,1.97,5.71,12.65,17.74,16.34,17.65,14.27,10.42,7.39,2.09
Eschweiler,50.81854,6.27184,DE,55778,2928963,Eschweiler,1.54,0.49,2.01,6.03,12.46,17.06,15.93,17.35,14.9,10.69,7.99,1.57
Eschwege,51.18386,10.05329,DE,21191,2928967,Eschwege,-2.95,-1.31,0.95,5.89,11.75,17.17,16.3,17.24,14.11,9.74,6.49,1.12
Eschborn,50.14328,8.57111,DE,21641,2929134,Eschborn,-1.72,0.38,1.99,6.77,12.52,17.81,16.95,18.21,15.0,10.37,6.58,1.1
Erwitte,51.6127,8.3384,DE,16081,2929247,Erwitte,-0.85,-0.6,1.31,5.68,12.14,17.18,15.99,17.34,14.3,10.21,7.39,1.1
Erlangen,49.59099,11.00783,DE,102675,2929567,Erlangen,-2.62,-0.69,0.91,6.12,11.48,17.83,17.19,17.68,14.74,9.44,6.04,-0.08
Erkrath,51.22235,6.90831,DE,47815,2929600,Erkrath,0.62,0.39,2.56,6.42,12.96,17.83,16.38,17.9,14.91,10.92,7.79,1.78
Erkelenz,51.07947,6.31531,DE,44650,2929622,Erkelenz,1.27,0.7,2.58,6.27,12.79,17.54,16.19,17.6,14.94,10.93,7.87,1.75
Erfurt,50.9787,11.03283,DE,213692,2929670,Erfurt,-3.87,-1.47,0.74,5.97,11.32,16.87,16.39,16.99,14.01,9.36,6.23,0.77
Erftstadt,50.81481,6.79387,DE,51207,2929671,Erftstadt,0.79,0.46,2.37,6.24,12.42,17.17,16.15,17.46,14.83,10.7,7.73,1.51
Erding,48.30603,11.90686,DE,33519,2929715,Erding,-2.56,-0.63,1.23,6.47,11.27,17.49,17.31,17.53,14.7,9.04,5.87,-1.02
Eppingen,49.13645,8.91229,DE,21179,2929831,Eppingen,-0.15,1.19,2.05,7.05,12.36,18.12,17.52,18.6,15.65,10.54,7.36,1.13
Eppendorf,53.5924,9.98752,DE,24806,2929853,Eppendorf,-4.21,-2.33,0.87,4.73,11.81,17.39,16.05,16.97,13.25,9.76,6.1,2.02
Eppelborn,49.4,6.96667,DE,18079,2929865,Eppelborn,-0.05,0.58,1.38,6.03,12.04,17.3,16.17,17.84,14.75,9.93,6.76,0.94
Ennigerloh,51.83843,8.03093,DE,20713,2930030,Ennigerloh,-1.15,-0.66,1.57,5.55,12.13,17.27,15.87,17.19,14.16,10.16,7.16,1.16
Ennepetal,51.29848,7.3629,DE,32607,2930043,Ennepetal,-0.16,-0.79,1.31,5.4,12.02,16.86,15.47,17.04,14.05,10.13,7.07,1.04
Enger,52.14063,8.55772,DE,19852,2930182,Enger,-1.77,-0.88,1.4,5.48,12.24,17.4,16.02,17.33,14.09,10.08,7.12,1.53
