name,latitude,longitude,country,population,id,city,jan,feb,mar,apr,may,jun,jul,aug,sep,oct,nov,dec
Zubia,37.11906,-3.584,ES,18995,2509305,Zubia,6.23,10.46,12.27,11.69,17.15,22.63,26.01,25.33,23.24,14.97,9.64,5.95
Zafra,38.42539,-6.41734,ES,16424,2509377,Zafra,7.36,10.72,12.37,11.64,17.61,21.64,26.89,26.67,22.81,15.67,10.56,7.36
Yecla,38.61365,-1.11468,ES,35025,2509402,Yecla,6.45,11.13,10.75,11.03,16.36,22.61,24.85,24.64,22.72,15.15,9.88,5.93
Villena,38.6373,-0.86568,ES,35222,2509463,Villena,6.85,11.49,11.09,11.44,16.49,22.43,24.79,24.69,22.93,15.64,10.38,6.35
Villarrobledo,39.26992,-2.60119,ES,26642,2509491,Villarrobledo,5.07,9.18,9.38,9.61,15.98,22.47,25.6,25.17,21.91,13.95,8.08,4.2
Vila-real,39.9383,-0.10087,ES,50577,2509509,Vila-real,9.33,12.7,12.3,13.27,17.73,21.23,24.52,24.89,22.66,18.24,12.8,8.88
Villanueva de la Serena,38.97655,-5.7974,ES,25838,2509553,Villanueva de la Serena,7.67,10.89,12.93,12.82,19.24,23.73,28.52,28.11,24.21,16.74,10.81,7.26
Villajoyosa,38.50754,-0.23346,ES,33797,2509588,Villajoyosa,10.84,14.01,13.69,14.18,18.19,22.7,25.34,25.88,24.65,19.11,14.16,10.4
Vícar,36.83155,-2.64273,ES,22853,2509650,Vícar,10.16,13.0,13.14,13.49,17.32,21.54,24.82,24.92,24.1,18.09,13.97,10.04
Vélez-Málaga,36.78107,-4.10266,ES,74190,2509769,Vélez-Málaga,11.74,14.3,15.31,15.52,19.0,23.17,25.43,25.72,25.04,19.24,14.45,11.7
Valencia,39.46975,-0.37739,ES,789744,2509954,Valencia,9.76,13.42,12.91,14.09,18.54,22.5,25.71,25.68,23.61,18.57,13.44,9.28
Valdepeñas,38.76211,-3.38483,ES,31147,2509982,Valdepeñas,5.67,10.06,10.71,10.35,16.98,23.11,26.9,26.13,22.64,14.67,9.04,5.04
Utrera,37.18516,-5.78093,ES,50665,2510073,Utrera,9.65,12.9,15.52,14.97,20.04,23.26,28.12,27.93,25.01,18.83,13.18,10.14
Ubrique,36.67777,-5.446,ES,16979,2510112,Ubrique,9.47,13.11,14.53,13.83,18.73,22.43,27.09,27.08,24.56,17.76,12.84,9.92
Úbeda,38.01328,-3.3705,ES,35649,2510116,Úbeda,5.3,9.38,10.61,10.26,16.44,21.93,25.99,25.74,22.16,14.09,8.61,4.54
Totana,37.7688,-1.50229,ES,29211,2510224,Totana,9.14,12.12,12.24,13.19,16.96,22.1,24.68,25.0,23.85,17.66,12.76,8.95
Torrox,36.75793,-3.95233,ES,16890,2510245,Torrox,11.34,13.93,14.91,15.02,18.52,22.64,24.98,25.2,24.62,18.71,14.07,11.26
Torrevieja,37.97872,-0.68222,ES,101792,2510253,Torrevieja,10.89,13.97,13.83,14.74,18.53,23.26,25.67,26.29,25.29,19.25,14.54,11.01
Torre-Pacheco,37.74293,-0.95396,ES,35614,2510271,Torre-Pacheco,11.47,13.73,13.83,14.71,18.03,22.4,25.06,25.82,24.88,19.36,14.98,11.44
Torrent,39.43705,-0.46546,ES,78543,2510279,Torrent,9.09,13.08,12.45,13.57,18.15,22.47,25.46,25.28,23.3,18.06,12.84,8.71
Torremolinos,36.62035,-4.49976,ES,65448,2510281,Torremolinos,10.72,13.53,14.04,14.53,18.38,22.94,24.92,25.22,24.18,18.52,13.56,10.78
Torre del Mar,36.742,-4.09291,ES,21980,2510309,Torre del Mar,12.09,14.65,15.66,15.87,19.36,23.52,25.78,26.07,25.39,19.59,14.8,12.05
Tomelloso,39.15759,-3.02156,ES,36091,2510392,Tomelloso,5.33,9.48,9.91,9.97,16.66,23.45,26.75,26.14,22.48,14.42,8.44,4.5
Tomares,37.37281,-6.04589,ES,22772,2510394,Tomares,9.5,12.81,15.36,14.85,20.22,23.5,28.29,27.86,24.75,18.61,13.07,9.99
Toledo,39.8581,-4.02263,ES,84282,2510409,Toledo,5.77,9.75,10.77,10.89,17.35,23.81,27.65,26.45,22.17,14.82,8.81,4.66
Tías,28.96108,-13.64502,ES,19849,2510485,Tías,15.87,17.54,17.72,16.81,18.64,20.17,21.57,23.01,22.77,21.64,19.82,17.57
Telde,27.99243,-15.41915,ES,100015,2510542,Telde,15.27,17.61,18.31,16.38,18.31,19.75,21.81,23.84,22.52,21.27,19.51,17.19
Teguise,29.06049,-13.56397,ES,19418,2510573,Teguise,15.27,16.97,17.12,16.18,18.08,19.62,21.02,22.45,22.19,21.04,19.24,16.94
Tarifa,36.01393,-5.60695,ES,17793,2510599,Tarifa,12.92,14.48,15.32,15.24,18.4,21.21,24.14,25.1,24.12,19.76,15.74,13.1
Talavera de la Reina,39.96348,-4.83076,ES,88856,2510693,Talavera de la Reina,6.11,10.29,11.51,11.33,17.74,23.46,27.74,26.62,22.2,14.93,9.16,5.33
Tacoronte,28.47688,-16.41016,ES,23562,2510725,Tacoronte,14.21,16.69,17.57,15.01,17.36,18.88,21.39,23.46,21.43,20.16,18.48,16.1
Tavernes de la Valldigna,39.07195,-0.26623,ES,18195,2510743,Tavernes de la Valldigna,9.89,13.53,13.04,14.16,18.5,22.87,25.68,25.56,23.87,18.67,13.54,9.61
Sueca,39.2026,-0.31114,ES,28908,2510764,Sueca,9.94,13.58,13.1,14.21,18.55,22.92,25.73,25.61,23.92,18.72,13.59,9.66
Silla,39.36257,-0.41169,ES,18979,2510880,Silla,9.72,13.45,12.91,14.07,18.51,22.63,25.67,25.59,23.68,18.55,13.41,9.34
Sevilla,37.38283,-5.97317,ES,684234,2510911,Sevilla,9.9,13.21,15.76,15.25,20.62,23.9,28.69,28.26,25.15,19.01,13.47,10.39
San Vicent del Raspeig,38.3964,-0.5255,ES,56715,2511032,San Vicent del Raspeig,10.42,13.4,13.28,13.76,17.82,22.14,24.66,25.22,24.14,18.65,13.76,10.02
Santomera,38.06147,-1.04877,ES,15319,2511050,Santomera,9.4,13.05,13.45,14.51,18.62,24.23,26.23,26.42,25.06,18.28,13.17,9.47
Santa Pola,38.19165,-0.5658,ES,31760,2511102,Santa Pola,10.7,13.95,13.69,14.28,18.34,23.05,25.41,25.92,24.86,19.03,14.29,10.69
Santa Lucía,27.91174,-15.54071,ES,71863,2511150,Santa Lucía,13.4,16.31,16.89,14.76,17.48,19.07,21.4,23.32,21.45,20.19,17.99,15.29
Santafé,37.18856,-3.71887,ES,15430,2511160,Santafé,6.51,10.55,12.66,12.22,18.02,23.4,27.02,26.38,23.8,15.39,9.84,6.16
Santa Eulària des Riu,38.98457,1.53409,ES,31314,2511162,Santa Eulària des Riu,12.63,14.81,14.58,14.95,19.2,23.27,26.07,26.89,25.63,20.75,15.67,12.02
Santa Cruz de Tenerife,28.46824,-16.25462,ES,204856,2511174,Santa Cruz de Tenerife,15.81,19.4,20.77,17.0,19.64,21.36,25.26,27.82,23.97,22.14,20.38,17.88
Santa Cruz de la Palma,28.68351,-17.76421,ES,15674,2511180,Santa Cruz de la Palma,17.83,19.28,19.47,18.13,20.52,21.93,23.38,24.68,24.28,23.44,21.79,19.43
Santa Brígida,28.03197,-15.50425,ES,19154,2511202,Santa Brígida,14.18,16.73,17.47,15.31,17.62,19.21,21.34,23.27,21.84,20.55,18.6,16.1
San Roque,36.21067,-5.38415,ES,29249,2511239,San Roque,11.93,13.84,14.34,14.24,17.69,20.93,23.55,24.42,23.41,18.69,14.73,12.08
San Pedro del Pinatar,37.83568,-0.79102,ES,23738,2511247,San Pedro del Pinatar,11.58,13.81,13.9,14.79,18.13,22.48,25.13,25.87,24.98,19.44,15.06,11.53
San Pedro de Alcántara,36.48839,-4.99123,ES,34922,2511250,San Pedro de Alcántara,11.55,13.9,14.23,14.61,18.1,22.09,24.35,24.89,23.84,18.69,14.21,11.62
San Miguel De Abona,28.09826,-16.61708,ES,16179,2511287,San Miguel De Abona,13.34,16.99,18.03,14.49,16.17,17.88,22.15,24.76,20.66,19.04,17.69,15.3
Sanlúcar de Barrameda,36.77808,-6.3515,ES,68037,2511306,Sanlúcar de Barrameda,11.42,13.99,15.85,15.47,19.52,21.82,26.59,26.43,24.2,19.6,14.77,11.83
San Juan de Aznalfarache,37.35813,-6.03731,ES,20779,2511329,San Juan de Aznalfarache,9.6,12.91,15.46,14.95,20.32,23.6,28.39,27.96,24.85,18.71,13.17,10.09
Sant Joan d'Alacant,38.40148,-0.43623,ES,21939,2511330,Sant Joan d'Alacant,10.87,13.85,13.73,14.21,18.27,22.59,25.11,25.67,24.59,19.1,14.21,10.48
San Javier,37.80626,-0.83736,ES,31432,2511366,San Javier,11.48,13.71,13.8,14.69,18.02,22.38,25.03,25.77,24.88,19.34,14.96,11.43
San Isidro,28.07617,-16.558,ES,19541,2511371,San Isidro,15.44,18.56,19.35,16.19,18.39,20.13,23.44,25.63,22.63,21.23,19.65,17.23
San Fernando,36.4759,-6.19817,ES,96366,2511388,San Fernando,11.33,14.29,16.54,16.04,20.6,22.39,27.69,27.24,24.94,19.74,14.54,11.5
La Laguna,28.4853,-16.32014,ES,150661,2511401,La Laguna,14.16,16.64,17.52,14.95,17.31,18.83,21.34,23.42,21.38,20.11,18.43,16.06
San Bartolomé de Tirajana,27.92481,-15.57329,ES,53588,2511440,San Bartolomé de Tirajana,12.32,15.56,16.22,13.86,16.79,18.54,21.14,23.1,20.69,19.38,16.94,14.16
San Bartolomé,29.00093,-13.613,ES,18517,2511447,San Bartolomé,15.32,17.02,17.17,16.23,18.13,19.67,21.07,22.5,22.24,21.09,19.29,16.99
Sant Antoni de Portmany,38.98068,1.30362,ES,21852,2511448,Sant Antoni de Portmany,12.43,14.72,14.51,14.85,19.21,23.41,26.17,26.96,25.66,20.55,15.5,11.85
Sagunto,39.68333,-0.26667,ES,66070,2511619,Sagunto,9.69,13.46,12.79,13.83,18.39,22.22,25.5,25.69,23.44,18.63,13.34,9.22
Rota,36.62545,-6.3622,ES,29179,2511700,Rota,11.37,13.94,15.79,15.42,19.47,21.77,26.54,26.38,24.15,19.55,14.72,11.78
Roquetas de Mar,36.76419,-2.61475,ES,82665,2511716,Roquetas de Mar,11.91,14.75,14.89,15.24,19.07,23.29,26.57,26.66,25.85,19.84,15.72,11.79
Ronda,36.74231,-5.16709,ES,36827,2511730,Ronda,7.79,11.63,12.5,11.94,16.85,21.11,25.33,25.5,22.89,15.81,11.04,7.99
Rojales,38.08799,-0.72544,ES,20510,2511752,Rojales,10.43,13.8,13.78,14.71,18.73,23.65,25.82,26.27,25.21,19.06,14.24,10.67
Rincón de la Victoria,36.71715,-4.27583,ES,38666,2511852,Rincón de la Victoria,12.09,14.65,15.65,15.86,19.34,23.51,25.77,26.06,25.38,19.57,14.8,12.05
Ribarroja del Turia,39.54595,-0.57069,ES,21992,2511880,Ribarroja del Turia,8.81,12.93,12.21,13.32,17.85,22.05,25.12,24.94,22.93,17.76,12.59,8.37
Requena,39.48834,-1.10044,ES,21278,2511930,Requena,5.49,10.27,9.26,9.91,15.38,20.67,23.61,23.04,20.91,14.38,8.96,4.93
Realejo Alto,28.37645,-16.58575,ES,35963,2511994,Realejo Alto,14.24,17.36,18.15,14.99,17.19,18.92,22.24,24.43,21.43,20.03,18.45,16.03
Puçol,39.61667,-0.3,ES,19018,2512127,Puçol,10.94,14.22,13.79,15.04,19.28,23.18,25.8,26.02,24.48,19.68,14.33,10.52
Puerto Real,36.52819,-6.19011,ES,40183,2512169,Puerto Real,11.39,14.34,16.59,16.09,20.65,22.44,27.74,27.29,24.99,19.79,14.59,11.55
Puertollano,38.68712,-4.10734,ES,51842,2512177,Puertollano,5.88,10.16,10.88,10.5,17.22,23.0,26.9,26.23,22.69,14.82,9.26,5.33
Puerto del Rosario,28.50038,-13.86272,ES,35667,2512186,Puerto del Rosario,16.67,18.7,19.27,18.03,19.98,21.4,23.01,24.63,24.13,22.71,20.76,18.38
Puerto de la Cruz,28.41397,-16.54867,ES,32219,2512196,Puerto de la Cruz,16.85,18.98,19.54,17.38,19.42,20.84,22.78,24.89,23.62,22.46,21.0,18.71
Puente-Genil,37.38943,-4.76686,ES,30241,2512232,Puente-Genil,8.67,12.52,14.44,14.06,19.32,23.55,27.83,27.9,24.67,17.73,12.06,8.82
La Pobla de Vallbona,39.59747,-0.55468,ES,20431,2512251,La Pobla de Vallbona,8.4,12.67,11.95,13.02,17.63,21.79,24.86,24.73,22.6,17.43,12.23,7.93
Priego de Córdoba,37.43807,-4.19523,ES,23513,2512282,Priego de Córdoba,6.7,10.74,12.41,11.62,17.09,22.2,25.85,25.51,22.58,15.17,9.76,6.41
Pozoblanco,38.37906,-4.84827,ES,17669,2512340,Pozoblanco,6.08,10.17,11.5,10.86,17.08,22.13,26.69,26.1,22.41,15.01,9.48,5.93
Pollença,39.87678,3.01626,ES,17260,2512432,Pollença,12.01,14.15,13.63,14.24,18.86,22.52,25.41,25.89,24.4,20.1,14.73,10.82
Pilar de la Horadada,37.86591,-0.79256,ES,22050,2512581,Pilar de la Horadada,11.16,14.0,13.91,14.72,18.37,23.07,25.53,26.21,25.15,19.27,14.74,11.18
Picassent,39.3635,-0.45949,ES,19786,2512620,Picassent,9.09,13.08,12.45,13.57,18.15,22.47,25.46,25.28,23.3,18.06,12.84,8.71
Paterna,39.50263,-0.44079,ES,64023,2512862,Paterna,9.51,13.17,12.66,13.84,18.29,22.25,25.46,25.43,23.36,18.32,13.19,9.03
Palma,39.56939,2.65024,ES,409661,2512989,Palma,11.77,13.79,13.77,14.31,18.91,22.66,25.58,26.05,24.52,20.01,14.65,10.67
Palma del Río,37.70024,-5.28121,ES,21159,2512990,Palma del Río,9.31,12.74,15.35,14.88,20.81,24.67,29.39,29.05,25.88,18.82,12.64,9.54
Pájara,28.35039,-14.1076,ES,20821,2513026,Pájara,15.58,18.25,18.95,17.24,19.54,21.02,22.85,24.56,23.77,22.03,19.94,17.3
Paiporta,39.42814,-0.41765,ES,23519,2513029,Paiporta,9.62,13.35,12.81,13.97,18.41,22.53,25.57,25.49,23.58,18.45,13.31,9.24
Osuna,37.2376,-5.10311,ES,17851,2513052,Osuna,8.9,12.72,14.41,13.82,18.88,22.99,27.21,27.27,24.32,17.48,12.25,9.1
Orihuela,38.08483,-0.94401,ES,86164,2513076,Orihuela,9.67,13.25,13.59,14.59,18.72,24.11,26.13,26.4,25.14,18.51,13.47,9.82
Ontinyent,38.82191,-0.60603,ES,37735,2513106,Ontinyent,7.26,11.54,11.12,12.03,16.55,21.83,24.58,24.27,22.4,16.29,10.8,6.8
Onda,39.96495,-0.26041,ES,25691,2513115,Onda,8.34,12.15,11.5,12.43,16.98,20.66,23.9,24.17,21.9,17.28,11.88,7.85
Oliva,38.91971,-0.11935,ES,28419,2513145,Oliva,10.94,14.38,13.51,14.32,18.18,22.73,25.74,25.85,24.14,19.37,14.46,10.63
Novelda,38.38479,-0.76773,ES,27135,2513195,Novelda,8.96,12.88,12.66,13.14,17.58,22.87,24.97,25.2,23.95,17.54,12.69,8.83
Níjar,36.96655,-2.20595,ES,26516,2513222,Níjar,9.49,12.58,12.58,13.21,17.11,22.62,25.15,25.3,24.36,18.39,13.46,9.33
Nerja,36.75278,-3.8744,ES,21811,2513240,Nerja,12.17,15.08,15.83,15.67,19.36,23.64,26.17,26.23,25.57,19.48,15.06,12.2
Navalmoral de la Mata,39.89158,-5.54064,ES,17228,2513324,Navalmoral de la Mata,6.62,10.54,11.94,11.56,17.96,23.29,27.66,26.85,22.4,15.02,9.54,6.15
Murcia,37.98704,-1.13004,ES,460349,2513416,Murcia,9.49,13.09,13.31,14.35,18.33,23.98,26.12,26.37,25.05,18.23,13.3,9.59
Mula,38.04095,-1.49014,ES,16941,2513436,Mula,7.83,11.72,11.76,12.62,16.86,22.97,25.24,25.36,23.61,16.55,11.46,7.68
Mutxamel,38.4158,-0.44529,ES,22510,2513465,Mutxamel,10.72,13.7,13.58,14.06,18.12,22.44,24.96,25.52,24.44,18.95,14.06,10.32
Motril,36.75066,-3.5179,ES,60279,2513477,Motril,12.18,15.39,16.07,15.82,19.77,24.05,26.78,26.98,26.38,19.75,15.31,12.3
Morón de la Frontera,37.12084,-5.45403,ES,28455,2513509,Morón de la Frontera,8.77,12.29,14.56,13.73,18.78,22.38,27.29,27.17,24.36,17.62,12.31,9.31
Montilla,37.58627,-4.63805,ES,23840,2513601,Montilla,7.53,11.4,13.19,12.82,18.45,22.73,27.13,27.22,23.89,16.66,10.95,7.49
Montijo,38.90839,-6.61785,ES,16236,2513604,Montijo,8.2,11.37,13.46,13.43,19.8,23.44,28.68,28.31,24.35,17.15,11.28,8.27
Moncada,39.54555,-0.39551,ES,21900,2513703,Moncada,9.66,13.32,12.81,13.99,18.44,22.4,25.61,25.58,23.51,18.47,13.34,9.18
Molina de Segura,38.05456,-1.20763,ES,64065,2513759,Molina de Segura,9.13,12.83,13.14,14.07,18.24,24.19,26.19,26.26,24.73,17.8,12.8,9.01
Moguer,37.27559,-6.83851,ES,19569,2513791,Moguer,10.78,13.51,15.61,15.34,20.23,23.2,27.64,27.52,24.11,18.94,14.12,10.89
Mogán,27.88385,-15.72538,ES,21690,2513798,Mogán,15.17,17.62,18.37,16.13,17.96,19.51,21.73,23.78,22.43,21.05,19.34,17.08
Mislata,39.47523,-0.41825,ES,43756,2513811,Mislata,9.71,13.37,12.86,14.04,18.49,22.45,25.66,25.63,23.56,18.52,13.39,9.23
Mijas,36.59575,-4.63728,ES,73787,2513882,Mijas,9.03,11.85,12.2,12.49,16.12,20.52,22.63,23.01,21.92,16.6,11.93,9.32
Miguelturra,38.96442,-3.89047,ES,15316,2513885,Miguelturra,5.43,9.62,10.46,10.42,17.11,23.14,27.0,26.21,22.71,14.77,8.74,4.83
Mérida,38.91611,-6.34366,ES,59352,2513917,Mérida,8.31,11.42,13.52,13.4,19.67,23.65,28.76,28.51,24.62,17.24,11.29,8.18
Melilla,35.29369,-2.93833,ES,86384,2513947,Melilla,12.49,14.97,15.78,15.99,19.15,22.9,25.42,26.38,25.68,20.61,16.29,13.43
Mazarrón,37.5992,-1.31493,ES,35221,2513983,Mazarrón,11.32,13.55,13.65,14.53,17.97,22.38,25.05,25.71,24.75,19.31,14.74,11.11
Maspalomas,27.76056,-15.58602,ES,36065,2514042,Maspalomas,17.07,19.24,19.89,18.07,19.41,20.92,23.07,25.31,23.67,22.49,20.92,18.88
Massamagrell,39.56667,-0.33333,ES,15210,2514066,Massamagrell,10.89,14.17,13.74,15.0,19.23,23.13,25.75,25.97,24.44,19.63,14.28,10.47
Martos,37.72107,-3.97264,ES,24655,2514073,Martos,6.53,10.44,12.08,11.75,17.41,22.04,26.28,26.0,22.68,15.29,9.63,6.04
Marratxí,39.62142,2.7253,ES,33348,2514097,Marratxí,11.83,13.88,13.67,14.18,18.83,22.66,25.55,26.08,24.51,19.99,14.63,10.68
Marchena,37.329,-5.41681,ES,19768,2514158,Marchena,9.33,12.72,15.3,14.65,19.79,23.3,28.18,28.17,25.31,18.53,12.88,9.76
Marbella,36.51543,-4.88583,ES,134623,2514169,Marbella,11.55,13.9,14.23,14.61,18.1,22.09,24.35,24.89,23.84,18.69,14.21,11.62
Maracena,37.20764,-3.63493,ES,20815,2514176,Maracena,6.01,10.05,12.16,11.72,17.52,22.9,26.52,25.88,23.3,14.89,9.34,5.66
Manzanares,38.99915,-3.36991,ES,19186,2514190,Manzanares,5.48,9.68,10.34,10.17,16.7,22.95,26.61,25.9,22.39,14.56,8.71,4.8
Manises,39.49139,-0.46349,ES,30508,2514197,Manises,9.24,13.1,12.48,13.63,18.11,22.2,25.34,25.24,23.21,18.13,12.98,8.8
Manacor,39.56964,3.20955,ES,40548,2514216,Manacor,11.49,13.78,13.26,13.97,18.49,22.2,24.98,25.4,24.12,19.72,14.29,10.37
Málaga,36.72016,-4.42034,ES,578460,2514256,Málaga,11.32,14.07,14.51,14.82,18.48,22.84,24.99,25.33,24.32,18.88,14.22,11.49
Mairena del Aljarafe,37.34461,-6.06391,ES,40700,2514287,Mairena del Aljarafe,9.41,12.7,15.23,14.87,20.06,23.25,28.03,27.69,24.57,18.63,12.98,9.98
Mairena del Alcor,37.37301,-5.74951,ES,20510,2514288,Mairena del Alcor,9.01,12.45,15.02,14.41,19.76,23.18,28.04,27.84,24.82,18.29,12.57,9.55
Maó,39.88853,4.26583,ES,29125,2514301,Maó,12.77,14.29,13.51,14.21,18.21,21.33,24.16,25.16,23.9,20.83,15.37,11.47
Lucena,37.40881,-4.48522,ES,42248,2514392,Lucena,7.34,11.42,12.97,12.37,17.7,22.25,26.28,26.28,23.25,16.06,10.58,7.28
Los Palacios y Villafranca,37.16181,-5.92433,ES,36824,2514553,Los Palacios y Villafranca,9.98,13.21,15.85,15.41,20.43,23.55,28.36,28.12,25.16,19.15,13.51,10.43
Los Llanos de Aridane,28.65851,-17.91821,ES,20171,2514651,Los Llanos de Aridane,15.88,17.33,17.52,16.18,18.56,19.98,21.42,22.73,22.33,21.49,19.84,17.48
Los Barrios,36.18482,-5.49213,ES,23513,2514824,Los Barrios,12.48,14.4,14.89,14.79,18.24,21.48,24.11,24.97,23.96,19.24,15.28,12.63
Los Alcázares,37.74425,-0.85041,ES,15674,2514868,Los Alcázares,11.52,14.62,14.67,15.59,19.44,24.06,26.21,26.81,25.84,20.1,15.17,11.65
Lorca,37.67119,-1.7017,ES,91906,2514891,Lorca,8.6,12.33,11.98,12.91,17.01,22.6,25.14,25.15,23.91,17.37,12.45,8.16
Lora del Río,37.65896,-5.52751,ES,19352,2514893,Lora del Río,9.62,13.05,15.62,15.14,21.02,24.89,29.74,29.26,26.04,19.06,12.96,9.89
Loja,37.16887,-4.15129,ES,21574,2514946,Loja,7.91,11.87,13.62,12.93,18.24,23.06,26.63,26.51,23.72,16.45,10.92,7.63
Llucmajor,39.49093,2.89108,ES,36078,2514984,Llucmajor,10.98,13.16,13.03,13.62,18.31,22.15,24.98,25.34,23.9,19.22,13.79,9.81
Llíria,39.62894,-0.59783,ES,22972,2515036,Llíria,8.0,12.27,11.55,12.62,17.23,21.39,24.46,24.33,22.2,17.03,11.83,7.53
Linares,38.09519,-3.63602,ES,61338,2515045,Linares,7.29,11.28,12.96,12.78,19.11,24.16,28.44,28.24,24.51,16.5,10.51,6.62
Lepe,37.25482,-7.20433,ES,25886,2515072,Lepe,11.03,13.67,15.55,15.38,20.21,22.97,27.27,27.47,24.02,19.06,14.51,11.28
Lebrija,36.92077,-6.07529,ES,26434,2515096,Lebrija,10.01,13.09,15.45,15.17,19.75,22.53,27.53,27.28,24.59,18.99,13.58,10.49
La Unión,37.61915,-0.87799,ES,17737,2515151,La Unión,11.2,13.65,13.93,15.01,18.42,22.89,25.34,26.03,25.2,19.54,14.77,11.25
Las Torres de Cotillas,38.02822,-1.24188,ES,21062,2515219,Las Torres de Cotillas,9.14,12.67,12.95,14.0,17.96,23.65,25.88,26.1,24.69,17.87,12.85,9.12
Las Palmas de Gran Canaria,28.09973,-15.41343,ES,378517,2515270,Las Palmas de Gran Canaria,16.17,18.51,19.21,17.29,19.21,20.65,22.71,24.74,23.42,22.17,20.41,18.09
La Solana,38.94422,-3.2381,ES,15523,2515284,La Solana,5.25,9.58,10.16,9.79,16.3,22.57,26.31,25.69,22.15,14.15,8.51,4.57
Las Cabezas de San Juan,36.9838,-5.93933,ES,16379,2515493,Las Cabezas de San Juan,9.82,13.02,15.48,15.07,19.94,23.0,27.96,27.71,24.89,18.89,13.41,10.31
La Roda,39.20735,-2.15723,ES,16060,2515555,La Roda,5.18,9.4,9.24,9.7,15.64,22.37,25.13,24.64,21.57,13.97,8.33,4.52
La Rinconada,37.48613,-5.98091,ES,35928,2515562,La Rinconada,9.69,12.96,15.71,15.24,20.82,24.19,29.0,28.5,25.32,19.07,13.21,10.27
La Orotava,28.39076,-16.52309,ES,41833,2515692,La Orotava,14.85,16.98,17.54,15.38,17.42,18.84,20.78,22.89,21.62,20.46,19.0,16.71
La Oliva,28.61052,-13.92912,ES,25884,2515698,La Oliva,15.39,17.42,17.9,16.64,18.63,20.07,21.61,23.15,22.76,21.42,19.47,17.11
la Nucia,38.61372,-0.1269,ES,17874,2515701,la Nucia,9.43,12.7,12.28,12.94,16.97,21.85,24.45,24.99,23.58,17.91,12.83,9.07
La Línea de la Concepción,36.16809,-5.34777,ES,64595,2515812,La Línea de la Concepción,12.29,14.15,14.7,14.79,18.31,21.79,24.41,25.15,24.16,19.15,14.99,12.36
L'Eliana,39.56667,-0.53333,ES,18050,2516004,L'Eliana,8.83,12.93,12.19,13.28,17.87,22.0,25.12,25.06,22.91,17.82,12.61,8.38
La Carolina,38.27559,-3.61535,ES,15306,2516088,La Carolina,6.45,10.8,12.04,11.6,18.29,23.77,28.0,27.61,23.94,15.76,9.82,5.84
La Algaba,37.46325,-6.01113,ES,16301,2516217,La Algaba,9.69,12.96,15.71,15.24,20.82,24.19,29.0,28.5,25.32,19.07,13.21,10.27
Jumilla,38.47917,-1.325,ES,25685,2516255,Jumilla,7.13,11.73,11.4,11.75,16.97,23.3,25.41,25.29,23.29,15.75,10.6,6.74
Jerez de la Frontera,36.68645,-6.13606,ES,207532,2516326,Jerez de la Frontera,10.16,13.22,15.4,14.97,19.43,22.05,27.06,26.85,24.46,18.93,13.73,10.82
Javea,38.78333,0.16667,ES,28016,2516336,Javea,11.62,14.42,13.75,14.51,18.24,22.65,25.5,26.09,24.61,19.86,15.0,11.33
Xàtiva,38.99042,-0.51852,ES,29386,2516345,Xàtiva,8.54,12.8,12.24,13.24,17.63,22.63,25.39,25.06,23.23,17.58,12.14,8.17
Jaén,37.76922,-3.79028,ES,113457,2516395,Jaén,6.69,10.49,12.18,11.99,17.68,22.57,26.91,26.55,22.86,15.42,9.88,6.12
Isla Cristina,37.2,-7.31667,ES,21324,2516431,Isla Cristina,11.58,13.83,15.69,15.58,20.29,22.98,27.13,27.39,24.01,19.32,14.81,11.56
Ingenio,27.91855,-15.43433,ES,29319,2516443,Ingenio,14.57,16.91,17.61,15.69,17.61,19.05,21.11,23.14,21.82,20.57,18.81,16.49
Inca,39.7211,2.91093,ES,29308,2516452,Inca,11.22,13.36,13.22,13.82,18.61,22.48,25.37,25.75,24.14,19.41,13.96,10.03
Icod de los Vinos,28.37241,-16.71188,ES,24024,2516474,Icod de los Vinos,16.89,19.92,20.57,17.59,20.35,22.14,25.03,27.07,24.09,23.05,21.11,18.48
Ibiza,38.90883,1.43296,ES,48684,2516479,Ibiza,12.44,14.68,14.62,14.99,19.34,23.51,26.27,27.07,25.78,20.73,15.63,11.95
Ibi,38.62533,-0.57225,ES,24113,2516480,Ibi,6.33,11.15,10.08,10.28,15.04,20.72,23.25,23.34,21.74,15.05,9.74,5.9
Huércal-Overa,37.38918,-1.943,ES,17645,2516542,Huércal-Overa,9.37,12.8,12.32,13.27,17.05,22.69,25.03,24.93,23.85,18.04,13.15,9.04
Huelva,37.26638,-6.94004,ES,144258,2516548,Huelva,10.61,13.47,15.7,15.47,20.46,23.26,27.64,27.53,24.09,18.91,13.97,10.88
Hellín,38.5106,-1.70096,ES,30976,2516797,Hellín,6.44,10.98,10.45,11.05,16.16,22.45,24.64,24.59,22.23,15.06,10.01,5.98
Güimar,28.31122,-16.41276,ES,17662,2516852,Güimar,14.65,17.76,18.88,15.7,18.12,19.72,22.89,25.32,22.31,20.82,19.04,16.69
Guía de Isora,28.21154,-16.77947,ES,20536,2516860,Guía de Isora,13.22,16.29,17.07,13.98,16.57,18.41,21.54,23.71,20.42,19.29,17.37,14.82
Guardamar del Segura,38.09031,-0.65556,ES,16329,2516902,Guardamar del Segura,10.23,13.6,13.58,14.51,18.53,23.45,25.62,26.07,25.0,18.86,14.04,10.47
Guadix,37.29932,-3.13922,ES,20395,2516925,Guadix,4.9,9.8,9.75,10.08,15.73,21.74,25.22,25.35,21.67,13.42,9.04,4.25
Granadilla de Abona,28.11882,-16.57599,ES,39993,2517111,Granadilla de Abona,13.09,16.74,17.78,14.24,15.92,17.63,21.9,24.52,20.41,18.79,17.45,15.05
Granada,37.18817,-3.60667,ES,234325,2517117,Granada,5.88,10.07,11.7,10.97,16.86,22.18,25.99,25.29,22.54,14.47,9.23,5.6
Gandia,38.96667,-0.18333,ES,80020,2517367,Gandia,9.86,13.78,12.89,13.71,17.82,22.67,25.53,25.41,23.63,18.49,13.41,9.49
Gáldar,28.14701,-15.6502,ES,24405,2517436,Gáldar,16.24,18.8,19.62,17.27,19.15,20.65,22.75,24.81,23.49,22.2,20.44,18.12
Fuengirola,36.53998,-4.62473,ES,71482,2517595,Fuengirola,12.08,14.57,14.8,14.91,18.28,22.06,24.41,25.0,24.0,19.18,14.99,12.4
Felanitx,39.4696,3.14831,ES,18270,2517750,Felanitx,11.33,13.63,13.24,13.91,18.49,22.29,25.03,25.4,24.16,19.57,14.15,10.17
Estepona,36.42764,-5.14589,ES,65592,2517816,Estepona,12.9,14.64,15.53,15.41,18.69,21.19,24.15,24.94,23.99,19.59,15.58,12.9
El Viso del Alcor,37.39106,-5.71993,ES,19191,2518040,El Viso del Alcor,8.85,12.3,14.87,14.26,19.61,23.04,27.89,27.69,24.67,18.14,12.42,9.41
El Puerto de Santa María,36.59389,-6.23298,ES,88364,2518207,El Puerto de Santa María,11.38,13.92,15.81,15.4,19.53,21.86,26.67,26.53,24.4,19.51,14.65,11.79
El Grao,39.97358,0.01284,ES,16026,2518444,El Grao,9.97,13.15,12.93,13.91,18.37,21.87,25.11,25.5,23.24,18.75,13.51,9.51
El Ejido,36.77629,-2.81456,ES,84710,2518494,El Ejido,11.56,14.99,15.02,14.96,19.04,23.42,26.49,26.58,25.59,19.4,15.32,11.61
Elda,38.47783,-0.79157,ES,55168,2518505,Elda,8.31,12.49,12.06,12.39,17.04,22.52,24.69,24.82,23.45,16.86,11.92,8.02
Elche,38.26218,-0.70107,ES,230112,2518559,Elche,10.02,13.65,13.49,13.97,18.29,23.21,25.4,25.76,24.61,18.52,13.72,9.89
El Arahal,37.26273,-5.5453,ES,19565,2518729,El Arahal,9.37,12.74,15.35,14.67,19.82,23.24,28.11,28.04,25.19,18.56,12.91,9.83
Écija,37.5422,-5.0826,ES,40400,2518770,Écija,9.16,12.82,15.02,14.71,20.21,24.13,28.66,28.76,25.63,18.69,12.74,9.46
Dos Hermanas,37.28287,-5.92088,ES,122943,2518794,Dos Hermanas,9.65,13.02,15.54,15.03,20.15,23.45,28.21,27.99,24.95,18.82,13.22,10.19
Don Benito,38.95627,-5.86162,ES,35791,2518820,Don Benito,7.62,10.78,12.93,12.89,19.4,23.79,28.62,28.23,24.29,16.79,10.74,7.18
Denia,38.84078,0.10574,ES,41733,2518878,Denia,11.57,14.37,13.71,14.46,18.19,22.6,25.45,26.04,24.56,19.81,14.96,11.28
Daimiel,39.07004,-3.61498,ES,18527,2518924,Daimiel,5.39,9.68,10.32,10.31,16.98,23.3,26.99,26.24,22.67,14.77,8.66,4.78
Cullera,39.16667,-0.25,ES,24121,2518949,Cullera,9.14,13.05,12.34,13.29,17.58,22.34,25.13,24.96,23.2,17.91,12.7,8.78
Quart de Poblet,39.48139,-0.43937,ES,25499,2519068,Quart de Poblet,9.61,13.27,12.76,13.94,18.39,22.35,25.56,25.53,23.46,18.42,13.29,9.13
Crevillente,38.24994,-0.80975,ES,28957,2519110,Crevillente,9.2,12.78,12.73,13.52,17.69,22.72,24.86,25.22,24.1,17.86,12.95,9.23
Coria del Río,37.28766,-6.0541,ES,28100,2519233,Coria del Río,9.76,13.05,15.58,15.22,20.41,23.6,28.38,28.04,24.91,18.98,13.33,10.33
Córdoba,37.89155,-4.77275,ES,325708,2519240,Córdoba,8.81,12.39,14.74,14.45,20.76,24.65,29.13,29.05,25.73,18.47,12.18,8.98
Conil de la Frontera,36.27719,-6.0885,ES,20984,2519289,Conil de la Frontera,12.31,14.15,15.37,15.02,18.5,20.75,24.66,25.17,23.63,19.35,15.21,12.5
Coín,36.65947,-4.75639,ES,21866,2519367,Coín,9.61,12.32,13.11,13.95,17.97,22.81,24.83,25.16,23.68,17.64,12.21,9.3
Ciudad Real,38.98626,-3.92907,ES,74014,2519402,Ciudad Real,5.43,9.62,10.46,10.42,17.11,23.14,27.0,26.21,22.71,14.77,8.74,4.83
Cieza,38.23998,-1.41987,ES,35200,2519425,Cieza,8.57,12.29,12.58,13.51,17.67,23.75,25.89,25.97,24.31,17.29,12.2,8.43
Xirivella,39.46588,-0.42589,ES,30002,2519466,Xirivella,9.66,13.32,12.81,13.99,18.44,22.4,25.61,25.58,23.51,18.47,13.34,9.18
Chipiona,36.73663,-6.43703,ES,18583,2519477,Chipiona,11.47,14.04,15.89,15.52,19.57,21.87,26.64,26.48,24.25,19.65,14.82,11.88
Chiclana de la Frontera,36.41976,-6.14367,ES,77293,2519513,Chiclana de la Frontera,12.18,14.29,15.69,15.33,19.06,21.36,25.57,25.85,24.13,19.58,15.21,12.41
Cehegín,38.09242,-1.7985,ES,15022,2519651,Cehegín,6.74,11.06,10.48,11.2,15.6,21.52,23.98,24.13,22.09,15.39,10.34,6.42
Catarroja,39.4,-0.4,ES,27035,2519690,Catarroja,9.72,13.45,12.91,14.07,18.51,22.63,25.67,25.59,23.68,18.55,13.41,9.34
Castilleja de la Cuesta,37.38594,-6.05258,ES,17150,2519738,Castilleja de la Cuesta,9.33,12.59,15.04,14.57,19.8,23.04,27.81,27.46,24.34,18.34,12.93,9.84
Castelló de la Plana,39.98567,-0.04935,ES,180005,2519752,Castelló de la Plana,9.67,12.85,12.63,13.61,18.07,21.57,24.81,25.2,22.94,18.45,13.21,9.21
Cartaya,37.28114,-7.15071,ES,17905,2520052,Cartaya,11.08,13.72,15.6,15.43,20.26,23.02,27.32,27.51,24.07,19.11,14.56,11.33
Cártama,36.71068,-4.63297,ES,21313,2520055,Cártama,10.42,13.23,13.74,14.23,18.08,22.64,24.62,24.92,23.88,18.22,13.26,10.48
Cartagena,37.60512,-0.98623,ES,211996,2520058,Cartagena,12.33,14.33,14.34,15.17,18.37,22.42,25.16,26.04,25.22,20.03,15.76,12.28
Carrizal,27.91161,-15.40558,ES,22000,2520069,Carrizal,16.24,18.27,18.98,17.26,18.74,20.14,22.13,24.22,23.0,21.81,20.21,18.16
Carmona,37.47125,-5.64608,ES,28344,2520118,Carmona,8.52,11.95,14.54,13.99,19.52,23.04,27.86,27.72,24.7,17.98,12.06,9.01
Carlet,39.2266,-0.52142,ES,15527,2520121,Carlet,8.77,12.87,12.34,13.51,18.03,22.57,25.31,25.02,23.22,17.81,12.51,8.5
Carcaixent,39.1218,-0.44812,ES,21735,2520150,Carcaixent,9.84,13.48,13.0,14.11,18.45,22.82,25.63,25.51,23.82,18.62,13.49,9.56
Caravaca,38.10558,-1.86343,ES,26415,2520171,Caravaca,6.04,10.36,9.78,10.5,14.9,20.82,23.28,23.43,21.39,14.69,9.64,5.72
Candelaria,28.3548,-16.37268,ES,24319,2520283,Candelaria,16.88,18.8,19.27,17.46,19.59,21.07,22.91,24.78,23.65,22.58,21.07,18.69
Campo de Criptana,39.40463,-3.12492,ES,15006,2520413,Campo de Criptana,4.92,9.16,9.71,9.7,16.57,23.35,26.56,25.88,22.24,14.13,8.04,4.22
Campiña,38.21896,-2.98069,ES,67904,2520425,Campiña,6.19,10.35,10.93,10.86,17.12,22.84,26.53,26.19,22.73,14.53,9.44,5.03
El Campello,38.42885,-0.39774,ES,27893,2520447,El Campello,11.02,14.0,13.88,14.36,18.42,22.74,25.26,25.82,24.74,19.25,14.36,10.62
Camas,37.40202,-6.03314,ES,26015,2520477,Camas,9.9,13.21,15.76,15.25,20.62,23.9,28.69,28.26,25.15,19.01,13.47,10.39
Calvià,39.5657,2.50621,ES,51774,2520493,Calvià,12.09,14.02,13.5,13.9,18.29,22.01,24.81,25.69,24.29,20.05,14.8,10.93
Calp,38.6447,0.0445,ES,23326,2520496,Calp,11.07,13.89,13.41,14.06,17.94,22.52,25.23,25.86,24.41,19.3,14.39,10.73
Callosa de Segura,38.12497,-0.87822,ES,17924,2520502,Callosa de Segura,9.73,13.29,13.64,14.65,18.77,24.16,26.18,26.45,25.19,18.57,13.52,9.87
Cadiz,36.52672,-6.2891,ES,126766,2520600,Cadiz,11.28,13.82,15.71,15.3,19.43,21.76,26.57,26.43,24.3,19.41,14.55,11.69
Cáceres,39.47649,-6.37224,ES,93131,2520611,Cáceres,7.05,10.6,12.4,12.06,18.47,22.86,27.89,27.5,23.01,15.45,10.05,6.89
Cabra,37.47249,-4.44206,ES,21352,2520645,Cabra,7.54,11.62,13.17,12.57,17.9,22.45,26.48,26.48,23.45,16.26,10.78,7.48
Burriana,39.88901,-0.08499,ES,34565,2520709,Burriana,9.48,12.85,12.46,13.42,17.88,21.38,24.67,25.04,22.81,18.39,12.95,9.04
Burjassot,39.50984,-0.41327,ES,38433,2520712,Burjassot,9.61,13.27,12.76,13.94,18.39,22.35,25.56,25.53,23.46,18.42,13.29,9.13
Bormujos,37.37358,-6.07233,ES,18590,2520833,Bormujos,9.23,12.49,14.94,14.47,19.7,22.94,27.71,27.36,24.24,18.24,12.83,9.74
Bétera,39.59111,-0.46151,ES,20740,2520968,Bétera,8.73,12.83,12.09,13.18,17.77,21.9,25.02,24.96,22.81,17.72,12.51,8.28
Berja,36.84693,-2.94966,ES,15035,2521016,Berja,9.96,13.39,13.42,13.36,17.44,21.82,24.89,24.98,23.99,17.8,13.72,10.01
Benidorm,38.53816,-0.13098,ES,71034,2521088,Benidorm,10.83,14.1,13.68,14.34,18.37,23.25,25.85,26.39,24.98,19.31,14.23,10.47
Benetússer,39.42265,-0.39686,ES,15313,2521105,Benetússer,9.72,13.45,12.91,14.07,18.51,22.63,25.67,25.59,23.68,18.55,13.41,9.34
Benalmádena,36.5961,-4.57267,ES,58854,2521139,Benalmádena,10.03,12.85,13.2,13.49,17.12,21.52,23.63,24.01,22.92,17.6,12.93,10.32
Baza,37.49073,-2.77259,ES,23359,2521215,Baza,5.17,9.16,9.42,10.07,15.31,21.5,24.24,24.22,21.5,13.94,9.01,4.46
Barbate,36.19237,-5.92186,ES,22551,2521335,Barbate,13.15,14.68,15.84,15.55,18.74,20.48,24.3,24.89,23.73,19.76,15.83,13.22
Bailén,38.09639,-3.77786,ES,18785,2521410,Bailén,7.67,11.76,13.55,13.2,19.83,24.71,29.09,28.8,25.0,16.97,10.88,7.13
Baeza,37.99384,-3.47103,ES,16253,2521413,Baeza,5.23,9.2,10.5,10.24,16.01,21.25,25.42,25.13,21.43,13.74,8.55,4.54
Baena,37.6167,-4.32245,ES,20915,2521415,Baena,7.5,11.11,13.11,13.1,18.79,23.18,27.61,27.49,24.0,16.68,10.59,6.94
Badajoz,38.87789,-6.97061,ES,148334,2521420,Badajoz,8.25,11.51,13.27,13.38,19.51,22.76,28.0,27.63,23.74,16.91,11.23,8.35
Ayamonte,37.21329,-7.40807,ES,20334,2521456,Ayamonte,11.26,13.55,15.43,15.43,20.11,22.7,26.87,27.2,23.75,19.12,14.58,11.39
Atarfe,37.22479,-3.68686,ES,15399,2521485,Atarfe,6.31,10.35,12.46,12.02,17.82,23.2,26.82,26.18,23.6,15.19,9.64,5.96
Atamaría,37.59989,-0.80682,ES,30000,2521486,Atamaría,11.26,13.7,13.98,15.06,18.47,22.94,25.38,26.08,25.25,19.59,14.82,11.3
Aspe,38.34511,-0.76721,ES,20180,2521510,Aspe,9.01,12.92,12.71,13.19,17.63,22.92,25.01,25.24,24.0,17.58,12.75,8.88
Arucas,28.11983,-15.52325,ES,36259,2521519,Arucas,14.52,16.85,17.56,15.63,17.56,19.01,21.07,23.09,21.77,20.52,18.76,16.44
Arroyo de la Miel,36.60326,-4.54242,ES,17763,2521554,Arroyo de la Miel,10.82,13.54,13.81,14.05,17.56,21.67,23.83,24.33,23.35,18.23,13.76,11.12
Arrecife,28.96302,-13.54769,ES,59127,2521570,Arrecife,16.68,18.27,18.51,17.66,19.3,20.82,22.16,23.66,23.51,22.43,20.58,18.45
Arona,28.09962,-16.68102,ES,78614,2521582,Arona,12.92,15.99,16.77,13.68,16.27,18.11,21.24,23.41,20.12,18.99,17.07,14.52
Armilla,37.14386,-3.62534,ES,21380,2521590,Armilla,5.96,10.0,12.11,11.67,17.47,22.85,26.47,25.82,23.25,14.84,9.29,5.61
Arcos de la Frontera,36.75075,-5.81056,ES,31210,2521665,Arcos de la Frontera,9.42,12.64,14.74,14.18,18.89,21.77,26.72,26.63,24.23,18.08,12.95,10.04
Archena,38.11631,-1.30043,ES,18202,2521676,Archena,9.07,12.79,13.08,14.01,18.17,24.25,26.39,26.47,24.81,17.79,12.7,8.93
Antequera,37.01938,-4.56123,ES,45168,2521710,Antequera,7.59,11.48,12.2,12.03,16.56,21.77,24.3,24.36,22.48,15.83,10.81,7.6
Andújar,38.03922,-4.05077,ES,39111,2521738,Andújar,8.06,12.26,14.05,13.62,20.1,24.62,29.19,28.82,25.22,17.32,11.32,7.5
Altea,38.59885,-0.05139,ES,23780,2521804,Altea,10.63,13.9,13.48,14.14,18.17,23.05,25.65,26.19,24.78,19.11,14.03,10.27
Almuñécar,36.73393,-3.69072,ES,27696,2521847,Almuñécar,12.4,15.5,16.32,16.04,19.93,24.3,27.0,27.13,26.55,19.92,15.47,12.52
Almoradí,38.10879,-0.79197,ES,20542,2521855,Almoradí,10.09,13.56,13.75,14.64,18.76,23.92,26.01,26.4,25.19,18.8,13.87,10.25
Almonte,37.2647,-6.51667,ES,21782,2521857,Almonte,10.01,13.09,15.32,15.07,20.02,23.12,27.76,27.49,24.24,18.74,13.59,10.5
Almería,36.83814,-2.45974,ES,188810,2521886,Almería,11.91,14.75,14.88,15.23,19.05,23.28,26.56,26.66,25.84,19.82,15.71,11.79
Almendralejo,38.68316,-6.40747,ES,33588,2521893,Almendralejo,7.92,11.11,13.05,12.61,18.99,22.99,28.23,27.88,23.84,16.53,11.02,7.79
Almassora,39.94729,-0.06313,ES,25831,2521909,Almassora,9.43,12.8,12.4,13.37,17.83,21.33,24.62,24.99,22.76,18.34,12.9,8.98
Almansa,38.86917,-1.09713,ES,25727,2521923,Almansa,5.76,10.43,9.64,10.19,15.27,21.22,23.84,23.57,21.5,14.5,9.14,5.24
Aljaraque,37.26989,-7.02313,ES,17960,2521964,Aljaraque,10.76,13.5,15.62,15.42,20.31,23.1,27.44,27.43,24.01,18.95,14.19,11.02
Alicante,38.34517,-0.48149,ES,334757,2521978,Alicante,10.6,13.85,13.59,14.18,18.24,22.95,25.31,25.82,24.76,18.93,14.19,10.59
Alhaurín el Grande,36.643,-4.68728,ES,23319,2521985,Alhaurín el Grande,10.13,12.95,13.3,13.59,17.22,21.62,23.73,24.11,23.02,17.7,13.03,10.42
Alhaurín de la Torre,36.66401,-4.56139,ES,35114,2521986,Alhaurín de la Torre,10.42,13.23,13.74,14.23,18.08,22.64,24.62,24.92,23.88,18.22,13.26,10.48
Alhama de Murcia,37.85103,-1.42507,ES,19860,2521992,Alhama de Murcia,8.58,12.19,12.39,13.35,17.39,23.31,25.5,25.61,24.08,17.18,12.2,8.42
Algemesí,39.19042,-0.43572,ES,28308,2522012,Algemesí,9.27,13.23,12.73,13.93,18.4,22.87,25.64,25.43,23.67,18.29,13.03,9.05
Algeciras,36.13326,-5.45051,ES,116209,2522013,Algeciras,12.43,14.34,14.84,14.74,18.19,21.43,24.05,24.92,23.91,19.19,15.23,12.58
Alfafar,39.41667,-0.38333,ES,20853,2522057,Alfafar,9.77,13.5,12.96,14.12,18.56,22.68,25.72,25.65,23.73,18.6,13.46,9.39
Aldaia,39.46569,-0.46005,ES,29914,2522077,Aldaia,9.24,13.1,12.48,13.63,18.11,22.2,25.34,25.24,23.21,18.13,12.98,8.8
Alcúdia,39.85316,3.12138,ES,19071,2522091,Alcúdia,12.32,14.51,13.93,14.7,18.81,22.2,24.67,25.41,24.41,20.44,14.94,11.13
Alcoy,38.70545,-0.47432,ES,61552,2522098,Alcoy,7.07,11.49,10.84,11.57,16.04,21.36,24.04,23.97,22.23,16.03,10.54,6.63
Alzira,39.15,-0.43333,ES,44690,2522129,Alzira,9.36,13.5,12.85,13.86,18.3,23.14,25.87,25.57,23.76,18.26,12.99,9.01
Alcázar de San Juan,39.39011,-3.20827,ES,30675,2522131,Alcázar de San Juan,5.26,9.51,10.05,10.09,16.99,23.8,27.02,26.3,22.6,14.53,8.37,4.53
Alcantarilla,37.96939,-1.21714,ES,41084,2522152,Alcantarilla,9.24,12.77,13.05,14.1,18.06,23.75,25.98,26.2,24.79,17.97,12.95,9.22
Alcalá la Real,37.4614,-3.92301,ES,22783,2522160,Alcalá la Real,5.3,9.61,10.66,9.73,15.62,20.79,24.6,24.19,21.36,13.73,8.52,5.0
Alcalá de Guadaira,37.33791,-5.83951,ES,70155,2522165,Alcalá de Guadaira,9.54,12.95,15.52,14.96,20.17,23.52,28.34,28.11,25.1,18.79,13.11,10.1
Alboraya,39.5,-0.35,ES,22405,2522203,Alboraya,9.86,13.52,13.01,14.19,18.64,22.6,25.81,25.78,23.71,18.67,13.54,9.38
Albolote,37.23088,-3.6551,ES,17089,2522208,Albolote,6.06,10.1,12.21,11.77,17.57,22.95,26.57,25.92,23.35,14.94,9.39,5.71
Albal,39.4,-0.41667,ES,15443,2522250,Albal,9.77,13.5,12.96,14.12,18.56,22.68,25.72,25.65,23.73,18.6,13.46,9.39
Albacete,38.99424,-1.85643,ES,169716,2522258,Albacete,4.97,9.37,9.04,9.54,15.28,21.86,24.51,24.19,21.45,13.85,8.3,4.48
Alaquàs,39.45568,-0.461,ES,30392,2522297,Alaquàs,9.29,13.15,12.53,13.68,18.16,22.25,25.39,25.29,23.26,18.18,13.03,8.85
Agüimes,27.90539,-15.44609,ES,28924,2522325,Agüimes,14.42,16.75,17.46,15.53,17.46,18.91,20.97,22.99,21.67,20.42,18.66,16.34
Águilas,37.4063,-1.58289,ES,34533,2522333,Águilas,11.52,13.92,13.83,14.69,18.18,22.81,25.44,25.93,25.06,19.64,14.94,11.23
Adra,36.74831,-3.02076,ES,24373,2522430,Adra,12.2,15.5,15.61,15.63,19.67,23.93,26.98,27.12,26.21,19.97,15.79,12.12
Adeje,28.12271,-16.726,ES,43204,2522437,Adeje,15.31,18.83,19.65,16.4,18.24,19.98,23.82,26.23,22.5,21.06,19.54,17.19
Grao de Murviedro,39.64167,-0.23889,ES,62368,2567529,Grao de Murviedro,10.0,13.41,12.9,13.91,18.37,22.03,25.42,25.61,23.38,18.75,13.55,9.46
Zarautz,43.28444,-2.16992,ES,22627,3104316,Zarautz,9.1,12.78,11.5,10.82,16.35,16.79,19.99,20.96,19.18,16.05,10.88,6.41
Zaragoza,41.65606,-0.87734,ES,675301,3104324,Zaragoza,6.35,11.78,12.15,12.26,19.96,21.78,25.78,25.47,22.14,16.21,9.93,4.47
Zamora,41.50633,-5.74456,ES,66293,3104342,Zamora,3.78,9.03,9.53,9.23,15.67,19.39,23.78,23.23,20.06,12.9,6.56,3.29
Viveiro,43.66228,-7.59344,ES,16238,3104475,Viveiro,9.79,12.87,12.08,11.53,15.94,16.8,20.22,20.49,19.05,15.46,11.49,9.06
Gasteiz / Vitoria,42.84998,-2.67268,ES,249176,3104499,Gasteiz / Vitoria,4.8,9.13,8.28,8.23,14.42,15.32,19.28,20.01,17.64,13.18,7.32,2.64
Vinaròs,40.47033,0.47559,ES,28273,3104584,Vinaròs,8.72,12.9,12.26,13.08,17.81,21.26,24.78,25.07,22.6,17.64,12.41,7.86
Villaviciosa de Odón,40.3581,-3.9043,ES,26475,3104703,Villaviciosa de Odón,4.53,8.88,10.0,9.73,16.38,22.26,26.13,25.2,21.14,13.82,7.62,3.71
Villaverde,40.35,-3.7,ES,126802,3104748,Villaverde,5.02,9.38,10.31,10.04,17.05,23.23,26.92,25.92,21.6,14.15,8.06,3.98
Villaquilambre,42.64685,-5.55835,ES,17013,3105148,Villaquilambre,2.6,6.97,7.49,7.08,13.57,16.47,21.03,20.44,17.39,10.93,5.12,1.65
Vilanova i la Geltrú,41.22392,1.72511,ES,65890,3105184,Vilanova i la Geltrú,9.01,12.46,12.04,12.92,17.72,20.59,23.96,24.29,22.29,18.05,11.8,7.26
Villanueva del Pardillo,40.49014,-3.96383,ES,15087,3105214,Villanueva del Pardillo,4.59,8.92,9.99,9.64,16.43,22.33,26.26,25.12,21.27,13.74,7.69,3.5
Villanueva de la Cañada,40.44689,-4.00428,ES,16804,3105247,Villanueva de la Cañada,4.49,8.73,10.0,9.72,16.42,22.28,26.27,25.15,21.13,13.74,7.62,3.6
Vilalba,43.29806,-7.6813,ES,15437,3105522,Vilalba,6.03,9.94,9.71,9.04,14.37,14.55,19.34,19.06,17.02,12.58,8.15,5.15
Vilagarcía de Arousa,42.59631,-8.76426,ES,37576,3105575,Vilagarcía de Arousa,8.79,12.32,12.15,11.99,16.79,17.82,22.14,22.25,20.06,15.01,10.61,7.65
Vilafranca del Penedès,41.34618,1.69713,ES,38425,3105600,Vilafranca del Penedès,7.72,11.52,11.06,11.8,16.73,19.72,23.18,23.39,21.25,16.87,10.53,5.84
Vila-seca,41.11118,1.14764,ES,20866,3105803,Vila-seca,8.24,12.44,12.24,13.17,18.1,21.0,24.55,24.78,22.47,17.64,11.39,6.46
Vilaseca,42.06174,2.25528,ES,17305,3105805,Vilaseca,4.87,9.28,9.57,9.5,15.29,18.11,21.51,20.96,18.4,13.82,7.6,2.46
Viladecans,41.31405,2.01427,ES,66168,3105935,Viladecans,9.63,12.72,12.09,12.77,17.58,20.65,24.01,24.38,22.28,18.38,12.33,7.96
Vigo,42.23282,-8.72264,ES,297332,3105976,Vigo,8.99,12.33,12.32,12.0,16.42,17.85,21.52,21.4,19.56,14.9,10.76,8.27
Vic,41.93012,2.25486,ES,39844,3106050,Vic,5.17,9.58,9.87,9.8,15.59,18.41,21.81,21.26,18.7,14.12,7.9,2.76
Vicálvaro,40.4,-3.6,ES,66439,3106054,Vicálvaro,4.66,8.86,9.88,9.74,16.72,23.03,26.65,25.62,21.2,13.76,7.67,3.46
El Vendrell,41.21667,1.53333,ES,35821,3106180,El Vendrell,8.85,13.64,13.07,13.95,19.28,22.01,25.12,25.24,23.07,18.16,11.87,6.94
Valls,41.28612,1.24993,ES,25092,3106492,Valls,7.01,11.55,11.38,12.25,17.53,20.28,23.88,23.97,21.62,16.59,10.01,4.98
Valladolid,41.65518,-4.72372,ES,299265,3106672,Valladolid,3.9,8.73,9.32,9.0,15.65,19.34,23.78,23.18,20.2,13.1,6.47,3.17
Valdemoro,40.19081,-3.67887,ES,62750,3106868,Valdemoro,5.03,9.27,10.35,10.31,17.07,23.48,27.16,26.15,21.76,14.33,8.1,4.06
Rivas-Vaciamadrid,40.32605,-3.51089,ES,68405,3107112,Rivas-Vaciamadrid,5.53,9.54,10.73,10.7,17.42,23.81,27.49,26.45,22.04,14.63,8.54,4.36
Utebo,41.70826,-0.99916,ES,17677,3107139,Utebo,6.43,11.77,12.06,12.18,19.92,21.87,25.75,25.44,22.11,16.26,10.0,4.61
Tui,42.04713,-8.64435,ES,17262,3107364,Tui,8.51,12.24,12.56,12.2,16.94,18.36,22.53,22.29,20.22,15.04,10.44,7.68
Tudela,42.06166,-1.60452,ES,34717,3107418,Tudela,5.97,10.58,10.81,10.72,18.32,19.59,23.71,23.6,20.01,14.97,9.0,3.88
Tortosa,40.81249,0.5216,ES,35143,3107677,Tortosa,8.98,13.04,12.42,13.29,17.97,21.27,24.73,25.07,22.77,17.97,12.63,8.04
Torrelodones,40.57654,-3.92658,ES,21781,3107765,Torrelodones,3.47,7.88,8.78,8.35,15.28,21.14,25.05,23.95,20.18,12.58,6.57,2.32
Torrelavega,43.34943,-4.04785,ES,55297,3107775,Torrelavega,8.64,12.58,11.91,11.39,16.69,17.12,20.77,21.3,19.62,16.28,11.12,7.13
Torrejón de Ardoz,40.45535,-3.46973,ES,118162,3107784,Torrejón de Ardoz,5.0,9.3,10.15,10.02,16.81,22.9,26.48,25.65,21.4,14.11,8.02,3.75
Torredembarra,41.14505,1.39861,ES,15272,3107807,Torredembarra,8.9,13.7,13.12,14.0,19.32,22.06,25.17,25.29,23.12,18.21,11.92,6.99
Tordera,41.69914,2.71888,ES,15345,3107955,Tordera,8.34,11.43,11.95,12.18,17.64,20.1,23.89,23.82,20.73,17.1,10.73,5.96
Tolosa,43.13484,-2.07801,ES,18044,3108008,Tolosa,8.64,12.69,11.48,10.77,16.56,17.0,20.29,21.21,19.25,15.94,10.59,5.99
Tetuán de las Victorias,40.45975,-3.6975,ES,155000,3108118,Tetuán de las Victorias,4.04,8.47,9.29,8.98,15.71,21.66,25.38,24.54,20.49,13.2,7.05,3.04
Teruel,40.3456,-1.10646,ES,35396,3108126,Teruel,3.25,8.06,7.48,7.14,14.3,20.02,22.82,21.54,19.5,11.97,6.21,2.3
Teo,42.75,-8.5,ES,17807,3108165,Teo,7.17,11.16,11.01,10.68,15.76,16.5,21.38,21.09,18.81,13.87,9.2,6.03
Tàrrega,41.64704,1.13957,ES,16539,3108285,Tàrrega,5.35,10.45,10.99,11.26,17.41,20.22,24.34,23.79,21.06,15.24,8.29,3.12
Terrassa,41.56667,2.01667,ES,218535,3108286,Terrassa,6.53,10.61,10.69,11.09,16.61,19.43,23.23,23.01,20.37,15.81,9.23,4.25
Tarragona,41.11667,1.25,ES,132299,3108288,Tarragona,8.22,12.5,12.35,13.33,18.51,21.13,24.66,24.82,22.56,17.69,11.13,6.18
Tarancón,40.00851,-3.00731,ES,15651,3108317,Tarancón,4.34,8.45,9.08,8.95,15.62,22.14,25.49,24.69,21.17,13.18,7.31,3.43
Soria,41.76401,-2.46883,ES,39528,3108681,Soria,2.27,6.92,6.78,6.25,13.41,16.91,20.69,20.44,17.62,10.9,4.69,0.81
Sitges,41.23506,1.81193,ES,27668,3108877,Sitges,9.01,12.46,12.04,12.92,17.72,20.59,23.96,24.29,22.29,18.05,11.8,7.26
Sestao,43.30975,-3.00716,ES,29476,3109041,Sestao,9.18,12.8,11.51,10.9,16.15,16.82,19.91,20.86,19.23,16.16,10.96,7.02
Seseña,40.10473,-3.69793,ES,16231,3109050,Seseña,4.95,9.15,10.27,10.33,16.96,23.46,27.16,26.18,21.79,14.37,8.02,4.0
Segovia,40.94808,-4.11839,ES,56660,3109256,Segovia,3.07,7.61,7.82,7.08,14.23,18.86,23.09,22.21,19.19,11.67,5.87,2.13
Cerdanyola del Vallès,41.49109,2.14079,ES,58747,3109402,Cerdanyola del Vallès,8.16,11.61,11.57,12.22,17.35,20.21,23.87,24.02,21.4,17.3,10.88,5.98
Sant Vicenç dels Horts,41.39317,2.00689,ES,27701,3109442,Sant Vicenç dels Horts,9.36,12.2,11.61,12.32,16.98,20.0,23.32,23.78,21.75,18.03,12.04,7.74
Barakaldo,43.29639,-2.98813,ES,98460,3109453,Barakaldo,10.46,13.41,12.07,11.41,16.25,17.06,19.86,20.98,19.6,16.75,11.97,8.32
Santurtzi,43.32842,-3.03248,ES,46978,3109481,Santurtzi,10.56,13.51,12.17,11.51,16.35,17.16,19.96,21.08,19.7,16.85,12.07,8.42
Sants,41.37426,2.13826,ES,41313,3109493,Sants,8.83,12.07,11.82,12.44,17.45,20.39,23.91,24.19,21.73,17.77,11.54,6.9
Sant Just Desvern,41.38389,2.06758,ES,15811,3109546,Sant Just Desvern,8.53,11.77,11.52,12.14,17.15,20.09,23.61,23.89,21.43,17.47,11.24,6.6
Santiago de Compostela,42.88052,-8.54569,ES,97849,3109642,Santiago de Compostela,6.61,10.61,10.3,9.94,14.99,15.71,20.53,20.15,18.0,13.21,8.61,5.48
Santa Perpètua de Mogoda,41.53333,2.18333,ES,25048,3109689,Santa Perpètua de Mogoda,8.51,11.52,11.64,12.35,17.38,20.09,23.78,24.01,21.34,17.49,11.18,6.32
Santander,43.46472,-3.80444,ES,172044,3109718,Santander,8.64,12.58,11.91,11.39,16.69,17.12,20.77,21.3,19.62,16.28,11.12,7.13
Barberà del Vallès,41.5159,2.12457,ES,31144,3109804,Barberà del Vallès,7.81,11.26,11.22,11.87,16.99,19.87,23.52,23.67,21.05,16.95,10.53,5.63
Santa Uxía de Ribeira,42.55352,-8.99094,ES,27067,3109897,Santa Uxía de Ribeira,10.04,12.84,12.46,12.38,16.76,17.9,21.53,21.81,20.0,15.45,11.72,8.99
Santa Coloma de Gramenet,41.45152,2.2081,ES,118821,3109981,Santa Coloma de Gramenet,8.76,11.77,11.89,12.6,17.63,20.34,24.02,24.26,21.59,17.74,11.43,6.58
San Sebastián de los Reyes,40.55555,-3.62733,ES,75912,3110040,San Sebastián de los Reyes,4.32,8.69,9.51,9.33,15.99,21.82,25.41,24.69,20.73,13.5,7.34,3.17
Donostia / San Sebastián,43.31283,-1.97499,ES,185357,3110044,Donostia / San Sebastián,9.06,12.81,11.56,10.93,16.39,16.85,19.91,20.99,19.25,16.17,10.97,6.3
Sant Quirze del Vallès,41.53333,2.08333,ES,18462,3110101,Sant Quirze del Vallès,7.56,11.01,10.97,11.62,16.75,19.61,23.27,23.42,20.8,16.7,10.28,5.38
Sant Pere de Ribes,41.26045,1.77391,ES,28353,3110143,Sant Pere de Ribes,8.85,12.32,11.88,12.77,17.57,20.44,23.81,24.14,22.14,17.9,11.65,7.11
San Martín de la Vega,40.20735,-3.57063,ES,18256,3110360,San Martín de la Vega,5.69,9.82,10.97,10.98,17.72,24.24,27.86,26.83,22.41,14.94,8.72,4.63
San Lorenzo de El Escorial,40.59144,-4.14738,ES,17889,3110458,San Lorenzo de El Escorial,3.15,7.71,8.27,7.47,14.45,20.14,24.06,22.91,19.44,11.83,6.14,2.24
Vilassar de Mar,41.50507,2.39227,ES,20764,3110516,Vilassar de Mar,9.44,12.12,12.29,12.79,17.79,20.32,24.02,24.31,21.65,18.06,11.89,7.28
Sant Joan Despí,41.36718,2.0574,ES,32030,3110519,Sant Joan Despí,8.98,12.23,11.96,12.59,17.6,20.54,24.07,24.34,21.88,17.92,11.69,7.05
Sanxenxo,42.39996,-8.80698,ES,17315,3110610,Sanxenxo,10.61,13.5,13.29,13.09,17.45,18.07,21.91,21.93,20.51,16.06,12.3,9.78
San Fernando de Henares,40.42386,-3.53261,ES,40981,3110627,San Fernando de Henares,5.13,9.24,10.29,10.26,17.08,23.4,27.02,26.05,21.62,14.24,8.14,3.85
Sant Feliu de Llobregat,41.38333,2.05,ES,42919,3110642,Sant Feliu de Llobregat,8.78,12.03,11.76,12.39,17.4,20.34,23.87,24.14,21.68,17.72,11.49,6.85
Sant Feliu de Guíxols,41.78333,3.03333,ES,21977,3110643,Sant Feliu de Guíxols,8.95,11.87,12.28,12.4,18.1,20.57,24.19,24.15,20.99,17.39,11.23,6.58
Sant Cugat del Vallès,41.47063,2.08611,ES,79253,3110718,Sant Cugat del Vallès,7.96,11.41,11.37,12.02,17.15,20.01,23.67,23.82,21.2,17.1,10.68,5.78
Sant Celoni,41.68921,2.48965,ES,16860,3110813,Sant Celoni,8.41,11.33,11.61,11.88,17.15,19.61,23.38,23.44,20.66,16.99,10.75,6.05
Sant Carles de la Ràpita,40.61667,0.6,ES,15511,3110821,Sant Carles de la Ràpita,9.79,13.25,12.69,13.58,18.07,21.36,24.78,25.19,22.99,18.49,13.21,8.74
Sant Boi de Llobregat,41.34357,2.03659,ES,82428,3110834,Sant Boi de Llobregat,9.53,12.62,11.99,12.67,17.48,20.55,23.91,24.28,22.18,18.28,12.23,7.86
Sant Andreu,41.43541,2.18982,ES,147732,3110876,Sant Andreu,9.64,12.69,12.52,13.19,18.06,20.91,24.18,24.53,22.09,18.21,12.25,7.61
San Andrés del Rabanedo,42.61174,-5.61671,ES,30820,3110880,San Andrés del Rabanedo,2.85,7.22,7.74,7.33,13.82,16.72,21.28,20.69,17.64,11.18,5.37,1.9
Sant Andreu de la Barca,41.44659,1.97187,ES,26401,3110885,Sant Andreu de la Barca,9.36,12.2,11.61,12.32,16.98,20.0,23.32,23.78,21.75,18.03,12.04,7.74
Sant Adrià de Besòs,41.43073,2.21855,ES,36669,3110921,Sant Adrià de Besòs,9.79,12.84,12.67,13.34,18.21,21.06,24.33,24.68,22.24,18.36,12.4,7.76
Sama,43.29568,-5.68416,ES,39984,3110962,Sama,6.51,11.11,10.11,9.73,14.9,15.63,19.38,19.37,17.6,14.13,8.64,5.22
Salt,41.97489,2.79281,ES,29985,3110983,Salt,7.48,11.17,11.73,11.76,17.73,20.02,23.71,23.59,20.15,16.36,9.92,4.89
Salou,41.07663,1.14163,ES,26775,3110986,Salou,8.44,12.64,12.44,13.37,18.3,21.2,24.75,24.98,22.67,17.84,11.59,6.66
Salamanca,40.96882,-5.66388,ES,155619,3111108,Salamanca,3.44,8.31,8.94,8.49,14.89,19.13,23.41,22.91,19.67,12.28,6.14,2.8
Sabadell,41.54329,2.10942,ES,206493,3111199,Sabadell,7.51,10.96,10.93,11.57,16.69,19.57,23.22,23.37,20.75,16.65,10.23,5.33
Rubí,41.49226,2.03305,ES,72987,3111294,Rubí,7.6,11.43,11.31,11.86,17.1,20.05,23.69,23.77,21.2,16.86,10.36,5.42
Roses,42.26199,3.17689,ES,20197,3111348,Roses,9.4,12.13,12.1,12.42,17.92,19.94,23.25,24.08,20.55,17.33,11.8,7.38
Ripollet,41.49686,2.15739,ES,37088,3111605,Ripollet,8.46,11.47,11.59,12.3,17.33,20.04,23.72,23.96,21.29,17.44,11.13,6.28
Ribeira,42.73809,-8.44106,ES,27518,3111807,Ribeira,7.12,11.11,10.96,10.63,15.71,16.45,21.33,21.04,18.76,13.82,9.15,5.98
Reus,41.15612,1.10687,ES,107118,3111933,Reus,7.57,12.11,11.86,12.67,17.72,20.74,24.33,24.48,22.09,17.09,10.85,5.8
Errenteria,43.31195,-1.90234,ES,38767,3112011,Errenteria,9.12,12.86,11.61,10.97,16.44,16.91,19.96,21.04,19.3,16.22,11.02,6.35
Redondela,42.28337,-8.6096,ES,29194,3112154,Redondela,9.3,12.59,12.55,12.3,16.89,18.08,22.04,22.04,20.0,15.24,11.01,8.32
Puente de Vallecas,40.39354,-3.662,ES,244151,3112737,Puente de Vallecas,4.87,9.23,10.16,9.89,16.89,23.07,26.76,25.77,21.45,13.99,7.91,3.83
Ponteareas,42.17476,-8.50398,ES,23172,3112761,Ponteareas,8.51,12.24,12.56,12.2,16.94,18.36,22.53,22.29,20.22,15.04,10.44,7.68
Premià de Mar,41.49206,2.36524,ES,27399,3112866,Premià de Mar,9.49,12.17,12.34,12.84,17.84,20.38,24.07,24.37,21.7,18.11,11.93,7.33
Pozuelo de Alarcón,40.43293,-3.81338,ES,82428,3112989,Pozuelo de Alarcón,4.38,8.74,9.69,9.38,16.19,22.39,26.19,25.14,20.88,13.48,7.41,3.47
Poio,42.44775,-8.68594,ES,17018,3113035,Poio,9.04,12.34,12.3,12.05,16.65,17.83,21.79,21.79,19.74,14.99,10.76,8.07
Portugalete,43.32099,-3.02064,ES,48105,3113082,Portugalete,10.31,13.26,11.92,11.26,16.1,16.91,19.71,20.83,19.44,16.6,11.82,8.17
Porriño,42.16156,-8.6198,ES,17475,3113157,Porriño,9.3,12.52,12.46,12.2,16.62,17.91,21.56,21.5,19.66,15.14,10.99,8.45
Pontevedra,42.431,-8.64435,ES,81576,3113209,Pontevedra,8.89,12.37,12.26,12.06,16.8,17.91,22.07,22.19,20.02,15.04,10.66,7.82
Ponferrada,42.54664,-6.59619,ES,68736,3113236,Ponferrada,4.52,7.94,9.37,8.56,15.65,17.35,22.65,21.86,18.54,12.22,6.46,2.14
Plasencia,40.03116,-6.08845,ES,41148,3113331,Plasencia,6.36,10.53,12.36,11.92,18.33,23.27,28.04,27.22,22.72,15.1,9.48,6.27
Pinto,40.24147,-3.69999,ES,43501,3113415,Pinto,4.98,9.22,10.3,10.26,17.02,23.43,27.11,26.1,21.71,14.28,8.05,4.0
Pineda de Mar,41.62763,2.6889,ES,26203,3113526,Pineda de Mar,8.32,11.41,11.98,12.22,17.79,20.24,24.01,23.89,20.73,17.1,10.74,5.95
Piera,41.52232,1.75076,ES,15362,3113576,Piera,6.11,10.52,10.42,10.93,16.2,19.14,22.82,22.78,20.3,15.63,8.94,3.94
Parla,40.23604,-3.76752,ES,115611,3114256,Parla,4.61,8.97,9.95,9.84,16.51,22.79,26.59,25.6,21.3,13.93,7.73,3.75
Parets del Vallès,41.57481,2.23306,ES,17632,3114267,Parets del Vallès,8.31,11.32,11.44,12.15,17.18,19.89,23.58,23.81,21.14,17.29,10.98,6.12
Pamplona,42.81687,-1.64323,ES,209672,3114472,Pamplona,5.0,9.25,8.79,8.77,15.42,16.34,19.88,20.72,17.83,13.45,7.39,2.08
Palencia,42.00955,-4.52406,ES,82651,3114531,Palencia,3.68,8.46,8.66,8.43,15.05,18.13,22.48,22.3,19.55,12.8,6.31,2.91
Palamós,41.84843,3.12912,ES,18161,3114566,Palamós,9.85,12.2,12.27,12.43,17.67,19.92,23.27,23.84,20.85,17.68,12.06,7.85
Palafrugell,41.91738,3.1631,ES,22365,3114567,Palafrugell,9.49,11.85,11.92,12.08,17.32,19.57,22.92,23.49,20.5,17.33,11.72,7.49
Oviedo,43.36029,-5.84476,ES,220020,3114711,Oviedo,6.31,10.91,9.91,9.53,14.7,15.43,19.18,19.17,17.4,13.93,8.44,5.02
Oria,43.25541,-2.01873,ES,17842,3114957,Oria,9.06,12.81,11.56,10.93,16.39,16.85,19.91,20.99,19.25,16.17,10.97,6.3
Ourense,42.33669,-7.86407,ES,105233,3114965,Ourense,7.08,11.07,11.61,10.97,17.21,17.98,23.18,22.78,19.87,14.2,8.97,5.54
Olot,42.18096,2.49012,ES,33524,3115093,Olot,5.23,9.43,9.69,9.4,15.55,17.94,21.4,21.19,17.98,13.98,7.61,2.43
Olesa de Montserrat,41.54372,1.89407,ES,23301,3115171,Olesa de Montserrat,8.34,11.82,11.46,12.05,17.09,20.12,23.62,23.85,21.45,17.35,11.07,6.41
Oleiros,43.33333,-8.31667,ES,33443,3115177,Oleiros,8.56,11.87,11.37,10.91,15.5,16.03,20.18,19.99,18.53,14.33,10.45,7.81
Nigrán,42.14153,-8.80656,ES,18021,3115463,Nigrán,9.29,12.63,12.62,12.3,16.72,18.15,21.82,21.7,19.86,15.2,11.06,8.57
Navalcarnero,40.28908,-4.01197,ES,21584,3115659,Navalcarnero,4.63,8.9,10.19,9.88,16.54,22.55,26.64,25.4,21.18,13.82,7.76,3.82
Narón,43.50175,-8.19082,ES,37712,3115739,Narón,10.0,12.66,12.16,11.63,15.93,16.53,20.16,20.43,19.13,15.17,11.75,9.29
Mungia,43.35461,-2.84524,ES,16209,3115907,Mungia,10.64,13.5,12.15,11.48,16.31,17.15,19.95,21.09,19.7,16.85,12.1,8.46
Móstoles,40.32234,-3.86496,ES,206478,3116025,Móstoles,4.69,9.03,10.2,9.89,16.58,22.64,26.59,25.48,21.25,13.91,7.79,3.9
Moratalaz,40.40742,-3.64935,ES,104923,3116156,Moratalaz,4.66,8.86,9.88,9.74,16.72,23.03,26.65,25.62,21.2,13.76,7.67,3.46
Monzón,41.91084,0.19406,ES,17042,3116224,Monzón,4.64,10.22,10.9,11.73,18.49,20.77,25.46,25.01,21.0,15.28,8.33,3.08
Montornès del Vallès,41.54206,2.26748,ES,15509,3116262,Montornès del Vallès,8.94,11.62,11.79,12.29,17.29,19.82,23.52,23.81,21.15,17.56,11.39,6.78
Monforte de Lemos,42.52165,-7.51422,ES,19546,3116478,Monforte de Lemos,6.15,10.2,10.65,9.97,16.31,17.2,22.54,22.16,19.02,13.44,8.06,4.36
Arrasate / Mondragón,43.06441,-2.48977,ES,22019,3116503,Arrasate / Mondragón,7.77,11.85,10.54,9.89,15.56,16.12,19.45,20.36,18.43,15.13,9.72,5.47
Montcada i Reixac,41.48333,2.18333,ES,33453,3116527,Montcada i Reixac,8.61,11.62,11.74,12.45,17.48,20.19,23.88,24.11,21.44,17.59,11.28,6.42
Mollet del Vallès,41.54026,2.21306,ES,52484,3116553,Mollet del Vallès,8.51,11.52,11.64,12.35,17.38,20.09,23.78,24.01,21.34,17.49,11.18,6.32
Molins de Rei,41.41667,2.01667,ES,24067,3116562,Molins de Rei,9.46,12.3,11.71,12.42,17.08,20.1,23.42,23.88,21.85,18.13,12.14,7.84
Moaña,42.27807,-8.73921,ES,19014,3116653,Moaña,9.3,12.52,12.46,12.2,16.62,17.91,21.56,21.5,19.66,15.14,10.99,8.45
Miranda de Ebro,42.6865,-2.94695,ES,39264,3116689,Miranda de Ebro,5.25,9.83,8.7,8.87,15.05,16.25,20.14,20.81,18.58,13.83,7.83,3.16
Mieres,43.25,-5.76667,ES,44070,3116789,Mieres,5.51,10.34,9.37,8.77,14.37,15.15,18.98,18.86,17.05,13.25,7.64,3.88
Mejorada del Campo,40.39283,-3.48194,ES,22488,3116963,Mejorada del Campo,5.18,9.29,10.34,10.31,17.13,23.45,27.07,26.1,21.67,14.3,8.19,3.9
Medina del Campo,41.31239,-4.91413,ES,21540,3117010,Medina del Campo,3.75,8.76,9.37,8.95,15.4,19.66,23.99,23.36,20.29,13.09,6.62,3.12
Mataró,41.54211,2.4445,ES,121722,3117164,Mataró,9.29,11.97,12.14,12.64,17.64,20.18,23.87,24.17,21.5,17.91,11.73,7.13
El Masnou,41.47978,2.3188,ES,23340,3117232,El Masnou,9.44,12.12,12.29,12.79,17.79,20.32,24.02,24.31,21.65,18.06,11.89,7.28
Martorell,41.47402,1.93062,ES,26681,3117331,Martorell,8.68,12.16,11.8,12.39,17.43,20.46,23.97,24.19,21.79,17.69,11.41,6.75
Marín,42.39145,-8.70136,ES,25969,3117409,Marín,9.24,12.54,12.5,12.25,16.85,18.03,21.99,21.99,19.94,15.19,10.96,8.27
Manresa,41.72815,1.82399,ES,76250,3117533,Manresa,6.58,10.92,11.01,11.4,16.97,19.78,23.58,23.32,20.73,16.0,9.34,4.35
Manlleu,42.00228,2.28476,ES,20647,3117539,Manlleu,5.47,9.88,10.17,10.1,15.89,18.71,22.11,21.56,19.0,14.42,8.2,3.06
Malgrat de Mar,41.64662,2.74135,ES,18472,3117636,Malgrat de Mar,8.32,11.41,11.98,12.22,17.79,20.24,24.01,23.89,20.73,17.1,10.74,5.95
Majadahonda,40.47353,-3.87182,ES,68110,3117667,Majadahonda,3.79,8.13,9.18,8.88,15.58,21.43,25.31,24.32,20.44,13.04,6.84,2.73
Madrid,40.4165,-3.70256,ES,3255944,3117735,Madrid,4.71,9.08,10.01,9.74,16.75,22.93,26.62,25.62,21.3,13.85,7.76,3.67
Lugo,43.00992,-7.55602,ES,96678,3117814,Lugo,5.3,9.49,9.26,8.63,14.12,14.89,19.85,19.65,17.1,12.15,7.43,4.21
Logroño,42.46667,-2.45,ES,152485,3118150,Logroño,5.52,10.11,9.32,9.39,15.87,17.08,20.83,21.35,19.07,14.05,8.09,3.12
Lloret de Mar,41.69993,2.84565,ES,39363,3118212,Lloret de Mar,8.32,11.41,11.98,12.22,17.79,20.24,24.01,23.89,20.73,17.1,10.74,5.95
Laudio / Llodio,43.14322,-2.96204,ES,18314,3118228,Laudio / Llodio,8.0,12.17,10.88,10.4,15.93,16.39,19.6,20.48,18.77,15.55,10.04,5.73
Lleida,41.61674,0.62218,ES,137856,3118514,Lleida,5.74,11.2,11.84,12.53,18.87,21.59,25.88,25.3,21.92,16.14,9.23,3.84
León,42.60003,-5.57032,ES,134305,3118532,León,2.95,7.32,7.84,7.43,13.92,16.82,21.38,20.79,17.74,11.28,5.47,2.0
Leioa,43.32686,-2.98884,ES,31197,3118554,Leioa,10.41,13.36,12.02,11.36,16.2,17.01,19.81,20.93,19.54,16.7,11.92,8.27
Leganés,40.32718,-3.7635,ES,186066,3118594,Leganés,4.51,8.9,9.92,9.7,16.53,22.68,26.49,25.53,21.2,13.83,7.63,3.64
Las Rozas de Madrid,40.49292,-3.87371,ES,95550,3118848,Las Rozas de Madrid,3.99,8.33,9.38,9.08,15.78,21.63,25.51,24.52,20.64,13.24,7.04,2.93
Lasarte,43.26774,-2.02169,ES,17782,3119027,Lasarte,9.05,12.72,11.45,10.77,16.3,16.74,19.94,20.91,19.13,16.0,10.83,6.36
La Sagrera,41.42271,2.18589,ES,29134,3119045,La Sagrera,9.59,12.64,12.47,13.14,18.01,20.86,24.13,24.48,22.04,18.16,12.2,7.56
"Sant Pere, Santa Caterina i La Ribera",41.3845,2.18152,ES,22856,3119123,"Sant Pere, Santa Caterina i La Ribera",9.74,12.79,12.62,13.29,18.16,21.01,24.28,24.63,22.19,18.31,12.35,7.71
La Pineda,41.07699,1.17891,ES,17305,3119231,La Pineda,8.48,12.69,12.49,13.42,18.35,21.25,24.8,25.03,22.71,17.89,11.64,6.71
Lalín,42.66085,-8.11285,ES,20158,3119536,Lalín,5.48,9.62,9.56,8.88,14.31,15.18,20.27,19.97,17.34,12.22,7.58,4.43
Laguna de Duero,41.58151,-4.72332,ES,21762,3119631,Laguna de Duero,3.78,8.62,9.41,9.09,15.75,19.59,24.03,23.27,20.35,13.09,6.38,3.02
A Estrada,42.68911,-8.48842,ES,20661,3119746,A Estrada,6.52,10.49,10.48,10.03,15.16,16.11,20.98,20.8,18.36,13.2,8.59,5.47
A Coruña,43.37135,-8.396,ES,246056,3119841,A Coruña,9.16,12.47,11.97,11.51,16.1,16.63,20.78,20.59,19.13,14.93,11.05,8.41
Irun,43.33904,-1.78938,ES,60951,3120304,Irun,9.61,13.23,12.01,11.37,16.85,17.33,20.39,21.42,19.7,16.63,11.45,6.79
Illescas,40.12213,-3.84704,ES,21264,3120410,Illescas,5.03,9.25,10.32,10.37,16.95,23.33,27.12,26.12,21.82,14.43,8.12,4.08
Igualada,41.58098,1.6172,ES,38918,3120431,Igualada,6.18,10.76,10.67,11.14,16.55,19.38,23.15,23.0,20.54,15.71,9.02,4.0
Humanes de Madrid,40.25038,-3.83062,ES,18098,3120501,Humanes de Madrid,4.46,8.86,9.87,9.65,16.48,22.63,26.44,25.48,21.15,13.78,7.58,3.59
Huesca,42.13615,-0.4087,ES,52059,3120514,Huesca,4.29,9.37,9.92,10.25,17.56,19.46,23.91,23.64,19.6,14.1,7.71,2.25
L'Hospitalet de Llobregat,41.35967,2.10028,ES,257038,3120619,L'Hospitalet de Llobregat,8.98,12.23,11.96,12.59,17.6,20.54,24.07,24.34,21.88,17.92,11.69,7.05
Hortaleza,40.47444,-3.6411,ES,161661,3120635,Hortaleza,4.19,8.58,9.4,9.16,15.93,21.92,25.54,24.74,20.6,13.33,7.21,3.07
Horta,41.43628,2.15725,ES,26676,3120637,Horta,9.14,12.19,12.02,12.69,17.56,20.41,23.68,24.03,21.59,17.71,11.75,7.11
Hernani,43.26615,-1.97615,ES,20222,3120811,Hernani,8.96,12.71,11.46,10.83,16.29,16.75,19.81,20.89,19.15,16.07,10.87,6.2
Gernika-Lumo,43.31667,-2.68333,ES,16244,3120989,Gernika-Lumo,9.26,12.69,11.28,10.62,15.89,16.61,19.68,20.73,19.05,15.95,10.93,7.06
Getxo,43.35689,-3.01146,ES,80770,3121007,Getxo,10.36,13.31,11.97,11.31,16.15,16.96,19.76,20.88,19.5,16.65,11.87,8.22
Guadalajara,40.62862,-3.16185,ES,83039,3121070,Guadalajara,4.44,8.77,9.37,9.44,16.07,22.17,25.71,25.06,20.74,13.53,7.56,3.17
Granollers,41.60797,2.28773,ES,60981,3121145,Granollers,8.1,11.26,11.58,11.96,17.29,19.82,23.64,23.62,20.85,16.93,10.58,5.71
Gràcia,41.40237,2.15641,ES,121502,3121245,Gràcia,9.39,12.44,12.27,12.94,17.81,20.66,23.93,24.28,21.84,17.96,12.0,7.36
Gijón,43.53573,-5.66152,ES,277554,3121424,Gijón,9.61,12.7,11.54,11.15,15.59,16.46,19.55,20.18,18.69,15.78,11.04,8.41
Getafe,40.30571,-3.73295,ES,167164,3121437,Getafe,4.85,9.12,10.25,10.07,17.06,23.38,27.07,26.0,21.53,14.08,7.91,3.79
Girona,41.98311,2.82493,ES,96188,3121456,Girona,7.48,11.17,11.73,11.76,17.73,20.02,23.71,23.59,20.15,16.36,9.92,4.89
Gavà,41.30605,2.00123,ES,45994,3121519,Gavà,9.58,12.66,12.04,12.72,17.52,20.59,23.96,24.33,22.23,18.32,12.28,7.9
Gamonal,42.35664,-3.67321,ES,60000,3121663,Gamonal,3.17,7.69,6.98,6.94,13.16,15.23,19.1,19.61,17.31,11.69,5.78,1.69
Galdakao,43.23073,-2.8429,ES,29226,3121751,Galdakao,9.39,12.92,11.6,11.0,16.18,16.84,19.85,20.89,19.29,16.28,11.13,7.18
Galapagar,40.5783,-4.00426,ES,31820,3121766,Galapagar,3.62,8.11,8.89,8.29,15.27,21.05,25.0,23.88,20.25,12.59,6.69,2.56
Hondarribia,43.36859,-1.79622,ES,16458,3121881,Hondarribia,9.56,13.18,11.96,11.31,16.8,17.28,20.34,21.37,19.65,16.58,11.4,6.74
Fuenlabrada,40.28419,-3.79415,ES,197836,3121960,Fuenlabrada,4.51,8.9,9.92,9.7,16.53,22.68,26.49,25.53,21.2,13.83,7.63,3.64
Figueres,42.26645,2.96163,ES,43330,3122453,Figueres,7.93,11.29,11.47,11.83,17.56,19.83,23.27,23.9,20.15,16.61,10.64,5.74
Esplugues de Llobregat,41.37732,2.08809,ES,46355,3122826,Esplugues de Llobregat,8.43,11.67,11.42,12.04,17.05,19.99,23.51,23.79,21.33,17.37,11.14,6.5
Esparreguera,41.53809,1.87025,ES,21855,3122912,Esparreguera,7.14,11.3,11.15,11.66,16.94,19.91,23.56,23.58,21.06,16.52,9.93,4.97
Ermua,43.18725,-2.50261,ES,16252,3123063,Ermua,8.17,11.81,10.4,9.73,15.19,15.84,19.08,20.03,18.21,15.01,9.9,5.8
Erandio,43.30438,-2.97352,ES,24262,3123104,Erandio,10.56,13.51,12.17,11.51,16.35,17.16,19.96,21.08,19.7,16.85,12.07,8.42
El Prat de Llobregat,41.32784,2.09472,ES,63418,3123329,El Prat de Llobregat,9.71,12.54,11.96,12.66,17.33,20.35,23.67,24.14,22.1,18.38,12.39,8.09
Ferrol,43.48451,-8.23293,ES,74273,3123493,Ferrol,9.95,12.61,12.11,11.58,15.88,16.48,20.11,20.37,19.08,15.12,11.7,9.24
El Escorial,40.58254,-4.12846,ES,15842,3123504,El Escorial,3.55,8.02,8.85,8.23,15.24,21.06,24.96,23.76,20.08,12.44,6.61,2.66
El Astillero,43.40094,-3.82051,ES,18108,3123667,El Astillero,8.91,12.73,12.05,11.48,16.92,17.3,21.0,21.55,19.77,16.44,11.2,7.14
el Raval,41.38042,2.1686,ES,48403,3123673,el Raval,9.69,12.74,12.57,13.24,18.11,20.96,24.23,24.58,22.14,18.26,12.3,7.66
Ejea de los Caballeros,42.12632,-1.13716,ES,17331,3123688,Ejea de los Caballeros,5.66,10.54,11.06,11.14,18.84,20.3,24.23,24.08,20.35,15.08,8.9,3.33
Eibar,43.18493,-2.47158,ES,27419,3123709,Eibar,8.52,12.16,10.75,10.07,15.54,16.19,19.42,20.39,18.56,15.36,10.25,6.15
Durango,43.17124,-2.6338,ES,28229,3123773,Durango,8.76,12.33,10.94,10.27,15.67,16.33,19.49,20.51,18.75,15.6,10.46,6.46
Culleredo,43.28788,-8.38858,ES,28227,3124041,Culleredo,9.06,12.19,11.62,11.15,15.6,16.26,20.13,20.05,18.68,14.59,10.91,8.34
Cuenca,40.06667,-2.13333,ES,55866,3124132,Cuenca,3.64,7.83,8.07,7.95,14.31,20.61,23.6,23.04,20.14,12.33,6.6,2.78
Coslada,40.42378,-3.56129,ES,90280,3124408,Coslada,4.96,9.16,10.18,10.04,17.02,23.33,26.95,25.92,21.5,14.06,7.97,3.76
Cornellà de Llobregat,41.35,2.08333,ES,87173,3124569,Cornellà de Llobregat,9.03,12.27,12.02,12.64,17.65,20.59,24.11,24.39,21.93,17.97,11.74,7.1
Colmenar Viejo,40.65909,-3.76762,ES,43700,3124765,Colmenar Viejo,3.74,8.24,8.86,8.23,15.08,20.7,24.68,23.53,19.96,12.52,6.68,2.7
Collado-Villalba,40.63506,-4.00486,ES,63074,3124794,Collado-Villalba,3.62,8.11,8.89,8.29,15.27,21.05,25.0,23.88,20.25,12.59,6.69,2.56
el Clot,41.40986,2.19053,ES,27170,3124932,el Clot,9.74,12.79,12.62,13.29,18.16,21.01,24.28,24.63,22.19,18.31,12.35,7.71
Ciudad Lineal,40.44505,-3.65132,ES,228171,3124964,Ciudad Lineal,4.37,8.73,9.66,9.39,16.39,22.57,26.26,25.27,20.95,13.49,7.41,3.33
Ciutadella,40.00112,3.84144,ES,29160,3124967,Ciutadella,12.87,14.33,13.63,14.26,18.29,21.35,24.21,25.22,23.95,20.81,15.4,11.6
Ciempozuelos,40.15913,-3.62103,ES,22132,3125082,Ciempozuelos,5.24,9.37,10.52,10.53,17.28,23.79,27.41,26.38,21.96,14.49,8.27,4.17
Chamartín,40.46206,-3.6766,ES,140000,3125239,Chamartín,4.09,8.52,9.34,9.03,15.76,21.71,25.43,24.59,20.54,13.25,7.1,3.09
Castro-Urdiales,43.38285,-3.22043,ES,31670,3125621,Castro-Urdiales,9.43,13.2,11.93,11.36,16.68,17.43,20.6,21.43,19.78,16.55,11.31,7.37
Castelldefels,41.27794,1.97033,ES,62080,3125897,Castelldefels,9.71,12.54,11.96,12.66,17.33,20.35,23.67,24.14,22.1,18.38,12.39,8.09
Castellar del Vallès,41.61667,2.08333,ES,24036,3125915,Castellar del Vallès,6.56,10.37,10.5,10.94,16.41,19.2,23.01,22.86,20.16,15.75,9.22,4.22
Cardedeu,41.63976,2.35739,ES,16596,3126317,Cardedeu,8.16,11.08,11.36,11.63,16.9,19.37,23.13,23.19,20.42,16.74,10.5,5.8
Carballo,43.213,-8.69104,ES,30990,3126369,Carballo,9.24,12.13,11.49,11.04,15.27,16.03,19.51,19.51,18.33,14.43,10.99,8.48
Canovelles,41.61667,2.28333,ES,16023,3126534,Canovelles,8.05,11.21,11.53,11.91,17.24,19.77,23.59,23.57,20.79,16.89,10.53,5.66
Cangas do Morrazo,42.26413,-8.78463,ES,25748,3126577,Cangas do Morrazo,10.17,12.94,12.82,12.52,16.77,18.05,21.33,21.28,19.63,15.48,11.76,9.39
Cambrils,41.06997,1.05949,ES,32422,3126888,Cambrils,8.44,12.64,12.44,13.37,18.3,21.2,24.75,24.98,22.67,17.84,11.59,6.66
Cambre,43.29438,-8.34736,ES,23231,3126890,Cambre,8.96,12.27,11.77,11.31,15.9,16.43,20.58,20.39,18.93,14.73,10.85,8.21
Camargo,43.40744,-3.88498,ES,30263,3126917,Camargo,8.64,12.58,11.91,11.39,16.69,17.12,20.77,21.3,19.62,16.28,11.12,7.13
Calella,41.61381,2.65423,ES,18627,3127007,Calella,8.32,11.41,11.98,12.22,17.79,20.24,24.01,23.89,20.73,17.1,10.74,5.95
Caldes de Montbui,41.63333,2.16667,ES,16885,3127035,Caldes de Montbui,7.0,10.52,10.78,11.33,16.68,19.37,23.22,23.14,20.4,16.16,9.64,4.6
Calatayud,41.35353,-1.64318,ES,21933,3127047,Calatayud,4.91,10.04,9.78,9.86,17.23,19.99,23.94,23.42,20.66,14.49,8.07,3.53
Calahorra,42.30506,-1.96521,ES,24787,3127065,Calahorra,5.73,10.44,9.98,10.16,17.16,18.48,22.22,22.43,19.53,14.54,8.84,3.88
Calafell,41.19997,1.5683,ES,24265,3127066,Calafell,8.46,12.33,11.97,12.84,17.82,20.61,23.97,24.21,22.15,17.65,11.28,6.57
Burlata,42.82562,-1.61671,ES,18934,3127451,Burlata,5.05,9.34,8.91,8.88,15.52,16.33,19.88,20.78,17.94,13.51,7.5,2.2
Burgos,42.34106,-3.70184,ES,178966,3127461,Burgos,3.04,7.58,7.06,6.97,13.27,15.55,19.38,19.98,17.65,11.71,5.69,1.59
Boiro,42.64725,-8.88459,ES,18883,3127889,Boiro,9.94,12.74,12.36,12.28,16.66,17.8,21.43,21.71,19.9,15.35,11.62,8.89
Boadilla del Monte,40.405,-3.87835,ES,43414,3127958,Boadilla del Monte,4.28,8.63,9.75,9.48,16.13,22.0,25.88,24.95,20.89,13.57,7.37,3.46
Blanes,41.67419,2.79036,ES,40047,3127978,Blanes,8.32,11.41,11.98,12.22,17.79,20.24,24.01,23.89,20.73,17.1,10.74,5.95
Bilbao,43.26271,-2.92528,ES,345821,3128026,Bilbao,10.51,13.46,12.12,11.46,16.3,17.11,19.91,21.03,19.64,16.8,12.02,8.37
Bermeo,43.42088,-2.72152,ES,16937,3128174,Bermeo,10.87,13.66,12.33,11.63,16.5,17.38,20.29,21.41,19.94,17.03,12.27,8.63
Berga,42.10429,1.84628,ES,17160,3128201,Berga,2.95,7.54,8.2,8.2,14.17,17.08,20.55,19.84,17.33,12.13,5.78,0.74
Benicàssim,40.05,0.06667,ES,18055,3128272,Benicàssim,9.97,13.15,12.93,13.91,18.37,21.87,25.11,25.5,23.24,18.75,13.51,9.51
Benicarló,40.4165,0.42709,ES,26655,3128273,Benicarló,8.57,12.67,12.46,13.34,18.28,22.0,25.34,25.47,23.02,17.67,12.41,8.04
Benavente,42.00249,-5.67826,ES,19119,3128291,Benavente,3.26,8.38,8.76,8.46,15.08,18.42,22.9,22.15,18.82,12.09,5.79,2.74
Béjar,40.38641,-5.76341,ES,15007,3128382,Béjar,4.07,8.49,9.27,8.19,15.02,19.48,24.13,23.54,19.87,12.0,6.99,3.72
la Barceloneta,41.3799,2.18971,ES,15212,3128757,la Barceloneta,9.84,12.89,12.72,13.39,18.26,21.11,24.38,24.73,22.29,18.41,12.45,7.81
Barcelona,41.38879,2.15899,ES,1620343,3128760,Barcelona,9.59,12.64,12.47,13.14,18.01,20.86,24.13,24.48,22.04,18.16,12.2,7.56
Barbastro,42.03565,0.12686,ES,16924,3128795,Barbastro,4.3,9.81,10.43,11.16,18.08,20.26,24.95,24.46,20.32,14.73,7.89,2.77
Barañáin,42.80567,-1.67731,ES,20039,3128824,Barañáin,5.05,9.34,8.91,8.88,15.52,16.33,19.88,20.78,17.94,13.51,7.5,2.2
Barajas de Madrid,40.47366,-3.57777,ES,43423,3128832,Barajas de Madrid,4.74,9.13,9.95,9.71,16.48,22.47,26.09,25.29,21.15,13.88,7.76,3.61
Banyoles,42.11667,2.76667,ES,18327,3128885,Banyoles,6.81,10.58,11.02,11.01,17.0,19.31,22.9,22.87,19.44,15.62,9.23,4.17
Balaguer,41.79117,0.81094,ES,16779,3128978,Balaguer,5.44,10.67,11.53,12.26,18.69,21.19,25.62,24.9,21.47,15.76,8.79,3.37
Badalona,41.45004,2.24741,ES,219547,3129028,Badalona,8.91,11.92,12.04,12.75,17.78,20.49,24.18,24.41,21.74,17.89,11.58,6.72
Azuqueca de Henares,40.56566,-3.26753,ES,32744,3129046,Azuqueca de Henares,4.83,9.29,9.9,9.85,16.55,22.59,26.12,25.46,21.21,13.97,7.94,3.59
Avilés,43.55473,-5.92483,ES,78715,3129135,Avilés,9.53,12.65,11.49,11.12,15.54,16.43,19.53,20.16,18.64,15.71,10.98,8.38
Ávila,40.65724,-4.69951,ES,56855,3129136,Ávila,2.4,6.83,7.04,6.32,13.2,17.93,22.07,21.1,17.95,10.86,5.22,1.94
Arteixo,43.30482,-8.50749,ES,29762,3129329,Arteixo,9.41,12.54,11.97,11.5,15.95,16.61,20.49,20.4,19.03,14.94,11.26,8.69
Arroyomolinos,40.26951,-3.91946,ES,31396,3129356,Arroyomolinos,5.14,9.48,10.64,10.34,17.02,23.09,27.04,25.93,21.7,14.36,8.24,4.35
Arganda,40.30076,-3.43722,ES,51489,3129636,Arganda,5.23,9.26,10.29,10.27,16.88,23.11,26.79,25.94,21.63,14.27,8.28,4.13
Arenys de Mar,41.5819,2.54936,ES,15307,3129661,Arenys de Mar,9.29,12.08,12.34,12.49,17.77,20.19,23.94,24.02,21.22,17.69,11.51,6.92
Aranjuez,40.03108,-3.60246,ES,54055,3129857,Aranjuez,5.89,9.98,10.95,11.0,17.82,24.37,27.97,26.96,22.65,15.05,8.87,4.87
Aranda de Duero,41.67041,-3.6892,ES,32928,3129877,Aranda de Duero,3.55,8.09,8.51,8.21,15.16,18.93,23.28,23.08,20.06,12.91,6.3,2.43
Amposta,40.70995,0.57856,ES,21240,3130131,Amposta,8.98,13.04,12.42,13.29,17.97,21.27,24.73,25.07,22.77,17.97,12.63,8.04
Amorebieta,43.21667,-2.73333,ES,17842,3130137,Amorebieta,9.42,12.93,11.55,10.89,16.09,16.79,19.8,20.86,19.24,16.21,11.13,7.22
Algorta,43.34927,-3.0094,ES,82624,3130380,Algorta,10.26,13.21,11.87,11.21,16.05,16.86,19.66,20.78,19.4,16.55,11.77,8.12
Algete,40.59711,-3.49743,ES,20204,3130383,Algete,4.09,8.55,9.24,9.06,15.82,21.72,25.26,24.56,20.49,13.22,7.13,2.91
Alcorcón,40.34582,-3.82487,ES,167967,3130564,Alcorcón,4.16,8.56,9.57,9.35,16.18,22.33,26.14,25.18,20.85,13.48,7.28,3.29
Alcobendas,40.54746,-3.64197,ES,107514,3130583,Alcobendas,4.29,8.68,9.5,9.26,16.03,22.02,25.64,24.84,20.7,13.43,7.31,3.17
Alcañiz,41.05,-0.13333,ES,16392,3130606,Alcañiz,6.22,11.86,11.34,11.53,18.19,21.14,25.31,25.06,21.84,15.76,9.82,4.74
Alcalá de Henares,40.48205,-3.35996,ES,204574,3130616,Alcalá de Henares,5.02,9.32,10.13,10.08,16.79,22.86,26.44,25.69,21.43,14.18,8.08,3.75
Nou Barris,41.44163,2.17727,ES,166310,6252065,Nou Barris,9.34,12.39,12.22,12.89,17.76,20.61,23.88,24.23,21.79,17.91,11.95,7.31
Pinar de Chamartín,40.47903,-3.66836,ES,30000,6324376,Pinar de Chamartín,4.04,8.47,9.29,8.98,15.71,21.66,25.38,24.54,20.49,13.2,7.05,3.04
Playa del Ingles,27.7567,-15.5787,ES,17158,6354969,Playa del Ingles,16.97,19.14,19.79,17.97,19.31,20.82,22.97,25.21,23.57,22.39,20.82,18.78
Puerto del Carmen,28.92313,-13.66579,ES,30000,6355013,Puerto del Carmen,16.72,18.21,18.42,17.55,19.18,20.69,21.99,23.47,23.37,22.33,20.56,18.43
Ceuta,35.88919,-5.32042,ES,85144,6362987,Ceuta,13.01,14.59,15.16,15.04,18.12,20.79,23.16,24.35,23.57,19.58,15.82,13.37
Moncloa-Aravaca,40.43547,-3.7317,ES,116531,6544099,Moncloa-Aravaca,4.97,9.33,10.26,9.99,16.99,23.17,26.86,25.87,21.55,14.09,8.01,3.93
Eixample,41.38896,2.16179,ES,266477,6544100,Eixample,9.64,12.69,12.52,13.19,18.06,20.91,24.18,24.53,22.09,18.21,12.25,7.61
Les Corts,41.38712,2.13007,ES,82270,6544101,Les Corts,8.68,11.93,11.66,12.29,17.3,20.24,23.77,24.04,21.58,17.62,11.39,6.75
Sarrià-Sant Gervasi,41.40104,2.1394,ES,147912,6544102,Sarrià-Sant Gervasi,8.33,11.57,11.32,11.94,16.95,19.89,23.41,23.69,21.23,17.27,11.04,6.4
Horta-Guinardó,41.41849,2.1677,ES,168092,6544103,Horta-Guinardó,7.56,11.01,10.97,11.62,16.75,19.61,23.27,23.42,20.8,16.7,10.28,5.38
Sants-Montjuïc,41.37263,2.1546,ES,183120,6544104,Sants-Montjuïc,9.64,12.69,12.52,13.19,18.06,20.91,24.18,24.53,22.09,18.21,12.25,7.61
Sant Martí,41.41814,2.19933,ES,235719,6544105,Sant Martí,9.79,12.84,12.67,13.34,18.21,21.06,24.33,24.68,22.24,18.36,12.4,7.76
Ciutat Vella,41.38022,2.17319,ES,102347,6544106,Ciutat Vella,9.74,12.79,12.62,13.29,18.16,21.01,24.28,24.63,22.19,18.31,12.35,7.71
Arganzuela,40.40021,-3.69618,ES,148797,6544487,Arganzuela,5.02,9.38,10.31,10.04,17.05,23.23,26.92,25.92,21.6,14.15,8.06,3.98
San Blas-Canillejas,40.43893,-3.61537,ES,157367,6544488,San Blas-Canillejas,4.71,8.91,9.93,9.79,16.77,23.08,26.7,25.67,21.25,13.81,7.72,3.5
Latina,40.38897,-3.74569,ES,256644,6544489,Latina,4.72,9.08,10.01,9.74,16.75,22.93,26.62,25.62,21.3,13.85,7.76,3.68
Usera,40.38866,-3.70035,ES,141189,6544490,Usera,5.07,9.43,10.36,10.09,17.09,23.27,26.96,25.97,21.65,14.19,8.11,4.03
Salamanca,40.42972,-3.67975,ES,147707,6544491,Salamanca,4.52,8.88,9.81,9.54,16.55,22.73,26.42,25.42,21.1,13.65,7.56,3.48
Chamberí,40.43404,-3.70379,ES,145934,6544492,Chamberí,4.47,8.83,9.76,9.49,16.49,22.67,26.36,25.37,21.05,13.59,7.51,3.43
Carabanchel,40.39094,-3.7242,ES,253678,6544493,Carabanchel,4.92,9.28,10.21,9.94,16.95,23.13,26.82,25.82,21.5,14.05,7.96,3.88
Madrid Centro,40.41831,-3.70275,ES,149718,6544494,Madrid Centro,4.62,8.98,9.91,9.64,16.65,22.83,26.52,25.52,21.2,13.75,7.66,3.58
Retiro,40.41317,-3.68307,ES,126058,6544495,Retiro,4.57,8.93,9.86,9.59,16.59,22.77,26.46,25.47,21.15,13.69,7.61,3.53
Barri Gòtic,41.38364,2.17628,ES,15876,6544577,Barri Gòtic,9.74,12.79,12.62,13.29,18.16,21.01,24.28,24.63,22.19,18.31,12.35,7.71
Poble Sec,41.37452,2.16326,ES,40906,6545103,Poble Sec,9.74,12.79,12.62,13.29,18.16,21.01,24.28,24.63,22.19,18.31,12.35,7.71
Hostafrancs,41.37694,2.14306,ES,15954,6545104,Hostafrancs,8.88,12.13,11.86,12.49,17.5,20.44,23.97,24.24,21.78,17.82,11.59,6.95
La Bordeta,41.37397,2.14377,ES,18505,6545105,La Bordeta,8.88,12.13,11.86,12.49,17.5,20.44,23.97,24.24,21.78,17.82,11.59,6.95
La Bonanova,41.40585,2.13243,ES,25574,6545107,La Bonanova,8.23,11.47,11.22,11.84,16.85,19.79,23.31,23.59,21.13,17.17,10.94,6.3
Las Tres Torres,41.39989,2.12931,ES,16532,6545108,Las Tres Torres,8.38,11.63,11.36,11.99,17.0,19.94,23.47,23.74,21.28,17.32,11.09,6.45
el Poblenou,41.40392,2.20413,ES,33642,6545114,el Poblenou,9.79,12.84,12.67,13.34,18.21,21.06,24.33,24.68,22.24,18.36,12.4,7.76
El Carmel,41.41758,2.15914,ES,31843,6545261,El Carmel,7.36,10.81,10.77,11.42,16.55,19.41,23.07,23.22,20.6,16.5,10.08,5.18
l'Alfàs del Pi,38.58055,-0.10321,ES,21011,6559503,l'Alfàs del Pi,10.38,13.65,13.23,13.89,17.92,22.8,25.4,25.94,24.53,18.86,13.78,10.01
Las Gabias,37.13548,-3.67029,ES,16369,6559641,Las Gabias,6.68,10.91,12.72,12.14,17.6,23.09,26.46,25.78,23.69,15.41,10.09,6.4
Delicias,41.64928,-0.90757,ES,110520,6615440,Delicias,6.45,11.82,11.96,12.03,19.66,21.72,25.7,25.33,22.08,16.1,9.93,4.7
Almozara,41.66124,-0.90169,ES,25767,6615442,Almozara,6.4,11.83,12.2,12.31,20.01,21.83,25.83,25.52,22.2,16.26,9.98,4.52
Montecanal,41.62965,-0.93873,ES,20000,6615443,Montecanal,6.25,11.62,11.76,11.82,19.46,21.52,25.5,25.13,21.88,15.9,9.73,4.5
Oliver-Valdefierro,41.64454,-0.93349,ES,30228,6615444,Oliver-Valdefierro,6.4,11.77,11.92,11.98,19.62,21.66,25.66,25.28,22.03,16.05,9.88,4.65
Santutxu,43.25347,-2.9161,ES,60000,6618856,Santutxu,9.29,12.82,11.5,10.9,16.08,16.74,19.75,20.79,19.19,16.18,11.03,7.08
Fort Pienc,41.39458,2.17946,ES,31963,6690784,Fort Pienc,9.69,12.74,12.57,13.24,18.11,20.96,24.23,24.58,22.14,18.26,12.3,7.66
Dreta de l'Eixample,41.39606,2.16688,ES,43994,6690786,Dreta de l'Eixample,9.54,12.59,12.42,13.09,17.96,20.81,24.08,24.43,21.99,18.11,12.15,7.51
Vallcarca,41.41209,2.14394,ES,15571,6690791,Vallcarca,8.33,11.57,11.32,11.94,16.95,19.89,23.41,23.69,21.23,17.27,11.04,6.4
Sagrada Família,41.40408,2.17332,ES,51623,6690794,Sagrada Família,9.54,12.59,12.42,13.09,17.96,20.81,24.08,24.43,21.99,18.11,12.15,7.51
Sant Martí de Provençals,41.4202,2.19632,ES,26196,6690839,Sant Martí de Provençals,9.79,12.84,12.67,13.34,18.21,21.06,24.33,24.68,22.24,18.36,12.4,7.76
Los Realejos,28.38487,-16.58275,ES,36405,6692471,Los Realejos,14.84,17.96,18.75,15.59,17.79,19.53,22.84,25.03,22.03,20.63,19.05,16.63
Pasaia,43.3253,-1.92707,ES,15990,6693088,Pasaia,9.06,12.81,11.56,10.93,16.39,16.85,19.91,20.99,19.25,16.17,10.97,6.3
Basauri,43.2397,-2.8858,ES,42657,6697039,Basauri,9.39,12.92,11.6,11.0,16.18,16.84,19.85,20.89,19.29,16.28,11.13,7.18
Llefià,41.43806,2.2195,ES,43827,6943537,Llefià,9.74,12.79,12.62,13.29,18.16,21.01,24.28,24.63,22.19,18.31,12.35,7.71
Corvera de Asturias,43.53554,-5.88893,ES,15955,7115111,Corvera de Asturias,8.44,12.37,11.23,10.74,15.52,16.32,19.8,20.03,18.42,15.3,10.16,7.34
Tres Cantos,40.60092,-3.70806,ES,41896,7577022,Tres Cantos,4.05,8.38,9.26,9.02,15.68,21.49,25.19,24.36,20.48,13.21,7.04,2.91
Iturrama,42.80847,-1.65825,ES,24846,8050879,Iturrama,4.95,9.24,8.81,8.78,15.42,16.23,19.78,20.68,17.84,13.41,7.4,2.1
Ermitagaña,42.81084,-1.66409,ES,17163,8050880,Ermitagaña,5.0,9.29,8.86,8.83,15.46,16.28,19.83,20.73,17.89,13.46,7.45,2.15
Primer Ensanche,42.81483,-1.64898,ES,22538,8050888,Primer Ensanche,5.0,9.25,8.79,8.77,15.42,16.34,19.88,20.72,17.83,13.45,7.39,2.08
Segundo Ensanche,42.8139,-1.64295,ES,22538,8050889,Segundo Ensanche,5.0,9.25,8.79,8.77,15.42,16.34,19.88,20.72,17.83,13.45,7.39,2.08
Fuencarral-El Pardo,40.4984,-3.7314,ES,220085,8285534,Fuencarral-El Pardo,4.29,8.72,9.54,9.23,15.96,21.91,25.63,24.79,20.74,13.45,7.3,3.29
Villa de Vallecas,40.36695,-3.60146,ES,65162,8285535,Villa de Vallecas,4.76,8.96,9.98,9.84,16.82,23.13,26.75,25.72,21.3,13.86,7.77,3.56
Natahoyo,43.54035,-5.68233,ES,20000,8629192,Natahoyo,9.71,12.8,11.64,11.25,15.69,16.56,19.65,20.28,18.79,15.88,11.14,8.51
Sarrià,41.40269,2.1162,ES,24819,11549772,Sarrià,8.13,11.37,11.12,11.74,16.75,19.69,23.21,23.49,21.03,17.07,10.84,6.2
l'Antiga Esquerra de l'Eixample,41.38939,2.15517,ES,42161,11549773,l'Antiga Esquerra de l'Eixample,9.54,12.59,12.42,13.09,17.96,20.81,24.08,24.43,21.99,18.11,12.15,7.51
el Baix Guinardó,41.41175,2.16784,ES,25766,11549774,el Baix Guinardó,9.29,12.34,12.17,12.84,17.71,20.56,23.83,24.18,21.74,17.86,11.9,7.26
la Prosperitat,41.44269,2.182,ES,26295,11549776,la Prosperitat,9.44,12.49,12.32,12.99,17.86,20.71,23.98,24.33,21.89,18.01,12.05,7.41
el Putxet i el Farró,41.40693,2.14392,ES,29278,11549777,el Putxet i el Farró,8.28,11.53,11.26,11.89,16.9,19.84,23.37,23.64,21.18,17.22,10.99,6.35
Provenals del Poblenou,41.41109,2.2026,ES,20306,11549778,Provenals del Poblenou,9.79,12.84,12.67,13.34,18.21,21.06,24.33,24.68,22.24,18.36,12.4,7.76
Sant Antoni,41.37857,2.15937,ES,38512,11549779,Sant Antoni,9.69,12.74,12.57,13.24,18.11,20.96,24.23,24.58,22.14,18.26,12.3,7.66
la Vila de Gràcia,41.40315,2.15687,ES,50928,11549783,la Vila de Gràcia,9.39,12.44,12.27,12.94,17.81,20.66,23.93,24.28,21.84,17.96,12.0,7.36
la Nova Esquerra de l'Eixample,41.38309,2.149,ES,58224,11549784,la Nova Esquerra de l'Eixample,8.83,12.07,11.82,12.44,17.45,20.39,23.91,24.19,21.73,17.77,11.54,6.9
Porta,41.4349,2.17883,ES,24604,11549785,Porta,9.54,12.59,12.42,13.09,17.96,20.81,24.08,24.43,21.99,18.11,12.15,7.51
Sants - Badal,41.37471,2.12775,ES,24344,11549787,Sants - Badal,8.83,12.07,11.82,12.44,17.45,20.39,23.91,24.19,21.73,17.77,11.54,6.9
la Maternitat i Sant Ramon,41.38125,2.11744,ES,24058,11549788,la Maternitat i Sant Ramon,8.68,11.93,11.66,12.29,17.3,20.24,23.77,24.04,21.58,17.62,11.39,6.75
Sant Gervasi - Galvany,41.3975,2.14301,ES,47043,11549789,Sant Gervasi - Galvany,8.53,11.77,11.52,12.14,17.15,20.09,23.61,23.89,21.43,17.47,11.24,6.6
el Camp d'en Grassot i Gràcia Nova,41.40634,2.16503,ES,34356,11549791,el Camp d'en Grassot i Gràcia Nova,9.39,12.44,12.27,12.94,17.81,20.66,23.93,24.28,21.84,17.96,12.0,7.36
la Marina de Port,41.36,2.13986,ES,30479,11549793,la Marina de Port,9.03,12.27,12.02,12.64,17.65,20.59,24.11,24.39,21.93,17.97,11.74,7.1
Vilapicina i la Torre Llobeta,41.42861,2.1741,ES,25581,11549794,Vilapicina i la Torre Llobeta,9.49,12.54,12.37,13.04,17.91,20.76,24.03,24.38,21.94,18.06,12.1,7.46
el Camp de l'Arpa del Clot,41.41204,2.18247,ES,38361,11549795,el Camp de l'Arpa del Clot,9.64,12.69,12.52,13.19,18.06,20.91,24.18,24.53,22.09,18.21,12.25,7.61
Navas,41.41803,2.18596,ES,22059,11549805,Navas,9.64,12.69,12.52,13.19,18.06,20.91,24.18,24.53,22.09,18.21,12.25,7.61
la Guineueta,41.43884,2.16893,ES,15147,11549806,la Guineueta,9.29,12.34,12.17,12.84,17.71,20.56,23.83,24.18,21.74,17.86,11.9,7.26
les Roquetes,41.44809,2.17519,ES,15633,11549807,les Roquetes,7.81,11.26,11.22,11.87,16.99,19.87,23.52,23.67,21.05,16.95,10.53,5.63
la Verneda i la Pau,41.42399,2.20304,ES,29013,11549811,la Verneda i la Pau,9.74,12.79,12.62,13.29,18.16,21.01,24.28,24.63,22.19,18.31,12.35,7.71
el Turó de la Peira,41.43232,2.16895,ES,15554,11549813,el Turó de la Peira,9.24,12.29,12.12,12.79,17.66,20.51,23.78,24.13,21.69,17.81,11.85,7.21
el Besòs i el Maresme,41.41309,2.21736,ES,23254,11549814,el Besòs i el Maresme,9.79,12.84,12.67,13.34,18.21,21.06,24.33,24.68,22.24,18.36,12.4,7.76
el Guinardó,41.41885,2.17364,ES,35991,11549815,el Guinardó,9.19,12.24,12.07,12.74,17.61,20.46,23.73,24.08,21.64,17.76,11.8,7.16
Barri de Sant Andreu,41.43693,2.19022,ES,56818,11549820,Barri de Sant Andreu,9.64,12.69,12.52,13.19,18.06,20.91,24.18,24.53,22.09,18.21,12.25,7.61
Barri de les Corts,41.38697,2.13472,ES,46412,11549821,Barri de les Corts,8.68,11.93,11.66,12.29,17.3,20.24,23.77,24.04,21.58,17.62,11.39,6.75
