name,latitude,longitude,country,population,id,city,jan,feb,mar,apr,may,jun,jul,aug,sep,oct,nov,dec
Yerres,48.71785,2.49338,FR,28897,2967245,Yerres,1.51,6.16,5.92,8.4,12.34,14.95,15.93,18.03,16.41,10.43,5.01,2.76
Wittenheim,47.8109,7.32756,FR,15747,2967318,Wittenheim,-0.26,4.2,5.48,7.12,11.48,14.62,15.65,18.07,15.63,8.91,2.96,-0.14
Wattrelos,50.70118,3.21812,FR,42826,2967421,Wattrelos,1.24,6.18,5.49,7.99,12.14,14.77,15.56,17.07,15.75,9.92,5.16,3.83
Wasquehal,50.67043,3.13382,FR,19320,2967438,Wasquehal,1.31,6.23,5.55,8.02,12.13,14.79,15.58,17.11,15.77,9.97,5.25,3.97
Voiron,45.36471,5.5856,FR,22114,2967758,Voiron,0.83,5.49,5.5,7.7,12.24,15.49,17.22,19.41,17.16,10.32,4.25,-0.96
Vitry-sur-Seine,48.78716,2.40332,FR,81001,2967849,Vitry-sur-Seine,1.77,6.4,6.17,8.72,12.62,15.23,16.21,18.26,16.6,10.68,5.34,3.12
Vitry-le-François,48.72472,4.58439,FR,17250,2967856,Vitry-le-François,0.99,6.05,5.97,8.01,12.32,14.92,15.78,17.93,16.23,10.26,4.42,2.08
Vitrolles,43.46,5.24861,FR,38591,2967870,Vitrolles,4.39,7.88,8.11,10.21,14.03,18.61,20.65,23.39,19.81,13.18,7.83,2.45
Vitré,48.12279,-1.20983,FR,17266,2967879,Vitré,2.56,6.93,6.16,9.05,12.17,14.73,15.84,17.52,15.9,10.86,5.75,4.7
Viry-Châtillon,48.67211,2.39318,FR,31131,2967917,Viry-Châtillon,1.81,6.45,6.19,8.71,12.62,15.22,16.22,18.32,16.72,10.72,5.33,3.09
Viroflay,48.80078,2.16181,FR,16137,2967934,Viroflay,1.46,6.03,5.71,8.26,12.11,14.72,15.75,17.79,16.19,10.27,5.01,2.86
Vincennes,48.8486,2.43769,FR,45923,2968054,Vincennes,1.62,6.26,6.02,8.57,12.47,15.08,16.06,18.11,16.45,10.54,5.19,2.97
Villiers-sur-Marne,48.831,2.54844,FR,30252,2968142,Villiers-sur-Marne,1.37,6.03,5.77,8.29,12.22,14.81,15.79,17.86,16.22,10.29,4.91,2.68
Villiers-le-Bel,49.00875,2.39819,FR,27028,2968176,Villiers-le-Bel,1.43,6.04,5.72,8.26,12.12,14.74,15.72,17.7,16.11,10.27,5.04,2.95
Villeurbanne,45.76601,4.8795,FR,131445,2968254,Villeurbanne,1.94,6.37,6.36,8.25,12.77,15.98,17.51,19.66,17.43,10.87,5.03,1.08
Villers-lès-Nancy,48.67333,6.15283,FR,15899,2968368,Villers-lès-Nancy,0.24,4.92,5.63,7.17,11.72,14.63,15.46,17.65,15.72,9.44,3.72,1.17
Villepinte,48.96203,2.53253,FR,37114,2968482,Villepinte,1.57,6.22,5.9,8.41,12.29,14.92,15.89,17.88,16.27,10.43,5.2,3.05
Villeparisis,48.94208,2.61463,FR,23931,2968496,Villeparisis,1.53,6.22,5.92,8.42,12.36,14.96,15.92,17.97,16.36,10.45,5.1,2.89
Villeneuve-sur-Lot,44.40854,0.70415,FR,25869,2968515,Villeneuve-sur-Lot,4.43,8.35,8.1,10.33,13.67,16.44,18.28,20.71,19.03,12.9,8.04,4.15
Villeneuve-Saint-Georges,48.73219,2.44925,FR,30881,2968529,Villeneuve-Saint-Georges,1.87,6.5,6.24,8.76,12.67,15.27,16.27,18.36,16.77,10.77,5.38,3.14
Villeneuve-le-Roi,48.73684,2.40081,FR,17575,2968546,Villeneuve-le-Roi,1.51,6.15,5.89,8.41,12.32,14.92,15.92,18.02,16.42,10.42,5.03,2.79
Villeneuve-la-Garenne,48.93935,2.31478,FR,22036,2968555,Villeneuve-la-Garenne,1.68,6.29,6.08,8.68,12.53,15.16,16.14,18.13,16.45,10.6,5.31,3.15
Villenave-d'Ornon,44.77935,-0.56707,FR,30347,2968620,Villenave-d'Ornon,4.92,8.59,8.41,10.74,13.91,16.51,18.0,20.68,19.2,13.25,8.01,4.85
Villemomble,48.88333,2.5,FR,28001,2968653,Villemomble,1.48,6.13,5.88,8.42,12.33,14.94,15.9,17.92,16.28,10.39,5.06,2.87
Villejuif,48.7939,2.35992,FR,48048,2968705,Villejuif,1.27,5.9,5.67,8.22,12.12,14.73,15.71,17.76,16.1,10.18,4.84,2.62
Villefranche-sur-Saône,45.98967,4.71961,FR,32994,2968748,Villefranche-sur-Saône,1.89,6.64,6.57,8.6,13.08,16.15,17.72,19.85,17.59,10.94,4.71,1.46
Villefontaine,45.61278,5.15058,FR,19749,2968771,Villefontaine,1.34,5.58,5.79,7.76,12.16,15.41,16.99,19.2,16.97,10.29,4.4,-0.2
Vigneux-sur-Seine,48.70291,2.41357,FR,26692,2969109,Vigneux-sur-Seine,1.87,6.5,6.24,8.76,12.67,15.27,16.27,18.36,16.77,10.77,5.38,3.14
Vierzon,47.22186,2.0684,FR,29876,2969257,Vierzon,2.1,6.84,6.56,8.89,12.77,15.41,16.72,18.96,17.38,10.97,5.28,2.61
Vienne,45.52569,4.87484,FR,32293,2969284,Vienne,2.16,6.39,6.39,8.38,12.83,16.24,17.79,19.91,17.48,10.99,5.14,0.68
Vichy,46.12709,3.42577,FR,27019,2969392,Vichy,1.96,6.55,5.87,7.66,11.78,14.78,16.66,18.85,16.98,10.58,4.38,1.54
Vesoul,47.62604,6.14251,FR,19892,2969562,Vesoul,1.06,5.34,6.01,7.45,11.92,14.64,15.89,18.43,16.19,9.65,4.12,0.92
Vertou,47.16878,-1.4729,FR,22921,2969612,Vertou,3.48,7.64,6.82,9.6,12.71,15.33,16.38,18.02,16.75,11.67,6.47,5.0
Versailles,48.80359,2.13424,FR,85416,2969679,Versailles,1.37,5.91,5.55,8.09,11.91,14.54,15.59,17.62,16.03,10.13,4.92,2.79
Verrières-le-Buisson,48.74565,2.26796,FR,16789,2969692,Verrières-le-Buisson,1.55,6.17,5.89,8.41,12.29,14.9,15.93,18.01,16.42,10.43,5.08,2.86
Vernon,49.09292,1.46332,FR,26037,2969766,Vernon,1.88,6.4,6.02,8.51,12.09,14.83,15.88,17.76,16.17,10.63,5.57,3.91
Verneuil-sur-Seine,48.97388,1.9648,FR,16790,2969796,Verneuil-sur-Seine,1.66,6.18,5.85,8.44,12.18,14.83,15.84,17.79,16.18,10.44,5.29,3.33
Verdun,49.15964,5.3829,FR,21798,2969958,Verdun,0.21,5.08,5.36,7.22,11.61,14.29,15.03,16.99,15.4,9.36,3.72,1.31
Vénissieux,45.69706,4.88593,FR,57584,2970072,Vénissieux,1.89,6.24,6.24,8.16,12.66,15.93,17.45,19.53,17.28,10.77,4.94,0.89
Vendôme,47.79292,1.06556,FR,19226,2970110,Vendôme,1.97,6.59,6.32,8.76,12.46,15.19,16.61,18.64,16.97,10.88,5.23,3.28
Vence,43.72254,7.11183,FR,18668,2970148,Vence,4.75,7.02,7.7,9.19,12.3,16.96,19.48,22.02,18.89,13.56,8.74,4.76
Vélizy-Villacoublay,48.78198,2.19395,FR,21741,2970203,Vélizy-Villacoublay,1.01,5.58,5.26,7.81,11.66,14.27,15.3,17.34,15.74,9.82,4.56,2.41
Vauréal,49.03333,2.03333,FR,20699,2970432,Vauréal,1.81,6.33,6.0,8.59,12.33,14.98,15.99,17.94,16.34,10.59,5.44,3.48
Vaulx-en-Velin,45.78693,4.9251,FR,37489,2970456,Vaulx-en-Velin,1.94,6.37,6.36,8.25,12.77,15.98,17.51,19.66,17.43,10.87,5.03,1.08
Vanves,48.82345,2.29025,FR,26068,2970761,Vanves,1.61,6.21,5.95,8.52,12.39,15.0,16.0,18.04,16.41,10.49,5.18,2.98
Vannes,47.65688,-2.76205,FR,54020,2970777,Vannes,4.36,8.29,7.25,9.77,12.54,14.97,16.04,17.54,16.38,12.01,7.24,6.72
Vandœuvre-lès-Nancy,48.66115,6.17114,FR,31785,2970797,Vandœuvre-lès-Nancy,0.09,4.77,5.48,7.02,11.57,14.49,15.31,17.49,15.57,9.29,3.57,1.02
Vallauris,43.57803,7.05451,FR,27286,2970962,Vallauris,5.8,7.95,8.54,10.11,13.15,17.62,19.93,22.5,19.45,14.35,9.43,5.66
Valenciennes,50.35909,3.52506,FR,44821,2971041,Valenciennes,1.15,6.25,5.55,8.03,12.13,14.82,15.63,17.15,15.88,10.01,4.95,3.25
Valence,44.9256,4.90956,FR,63864,2971053,Valence,2.53,6.7,6.74,8.8,13.14,16.91,18.42,20.82,18.12,11.43,5.54,1.09
Tulle,45.26582,1.77233,FR,16969,2971482,Tulle,3.58,7.09,6.75,8.91,12.37,15.06,16.87,19.52,17.72,11.21,6.39,2.4
Troyes,48.30073,4.08524,FR,60785,2971549,Troyes,1.29,6.31,6.09,8.22,12.36,15.09,16.03,18.35,16.64,10.58,4.65,2.21
Tremblay-en-France,48.94956,2.5684,FR,35591,2971874,Tremblay-en-France,1.53,6.22,5.92,8.42,12.36,14.96,15.92,17.97,16.36,10.45,5.1,2.89
Trappes,48.77413,2.01781,FR,28367,2972049,Trappes,1.13,5.65,5.29,7.83,11.62,14.27,15.34,17.36,15.74,9.87,4.7,2.59
Tours,47.39484,0.70398,FR,141621,2972191,Tours,2.53,7.03,6.63,9.23,12.82,15.57,16.92,18.86,17.36,11.27,5.64,3.64
Tournefeuille,43.58872,1.31922,FR,29124,2972237,Tournefeuille,3.98,8.2,7.82,9.6,12.97,15.97,18.11,20.52,18.74,12.72,7.91,3.73
Tourlaville,49.63829,-1.56639,FR,18273,2972270,Tourlaville,4.88,7.91,6.84,9.31,11.62,14.25,15.45,16.89,16.1,11.95,8.4,7.49
Tourcoing,50.72391,3.16117,FR,98656,2972284,Tourcoing,1.19,6.13,5.44,7.94,12.09,14.72,15.51,17.02,15.7,9.87,5.11,3.78
Toulouse,43.60426,1.44367,FR,493465,2972315,Toulouse,4.03,8.35,7.95,9.78,13.16,16.18,18.34,20.73,18.88,12.88,8.05,3.82
Toulon,43.12442,5.92836,FR,168701,2972328,Toulon,7.64,9.86,9.94,11.74,14.41,18.46,20.48,23.55,20.6,15.44,10.63,6.85
Toul,48.68075,5.89115,FR,17680,2972350,Toul,0.34,5.09,5.72,7.37,11.79,14.67,15.51,17.67,15.82,9.59,3.84,1.39
Torcy,48.85064,2.65078,FR,24386,2972444,Torcy,1.32,6.03,5.71,8.17,12.15,14.73,15.69,17.75,16.16,10.25,4.86,2.63
Thonon-les-Bains,46.37049,6.47985,FR,31684,2972742,Thonon-les-Bains,0.89,4.13,5.02,6.8,11.4,14.32,16.14,18.74,17.06,10.11,4.8,0.44
Thionville,49.35994,6.16044,FR,44311,2972811,Thionville,0.04,4.79,5.6,7.39,11.95,14.76,15.37,17.26,15.39,9.25,3.7,1.22
Thiais,48.76496,2.3961,FR,29724,2972893,Thiais,1.62,6.26,6.02,8.57,12.47,15.08,16.06,18.11,16.45,10.54,5.19,2.97
Tergnier,49.65607,3.30107,FR,15475,2973146,Tergnier,1.09,6.13,5.66,8.03,12.05,14.63,15.58,17.31,15.89,10.09,4.96,2.78
Taverny,49.02542,2.21691,FR,27271,2973258,Taverny,1.45,6.01,5.72,8.32,12.11,14.75,15.73,17.69,16.08,10.29,5.09,3.04
Tassin-la-Demi-Lune,45.75499,4.78812,FR,16920,2973317,Tassin-la-Demi-Lune,1.57,6.06,6.02,7.93,12.45,15.64,17.17,19.32,17.01,10.47,4.55,0.79
Tarbes,43.23407,0.07139,FR,52106,2973385,Tarbes,4.06,7.36,7.0,8.34,11.14,14.32,16.49,19.07,17.62,11.67,6.63,2.49
Talence,44.80849,-0.58915,FR,42579,2973495,Talence,4.87,8.54,8.35,10.69,13.86,16.46,17.95,20.63,19.15,13.2,7.97,4.8
Suresnes,48.87143,2.22929,FR,44697,2973675,Suresnes,1.76,6.33,6.07,8.67,12.5,15.12,16.11,18.11,16.47,10.62,5.37,3.26
Sucy-en-Brie,48.76872,2.53474,FR,25014,2973745,Sucy-en-Brie,1.37,6.03,5.77,8.29,12.22,14.81,15.79,17.86,16.22,10.29,4.91,2.68
Strasbourg,48.58392,7.74553,FR,274845,2973783,Strasbourg,-0.05,4.57,5.79,7.4,11.99,15.17,15.84,18.05,15.84,9.16,3.67,0.87
Stains,48.95,2.38333,FR,32601,2973841,Stains,1.73,6.34,6.02,8.56,12.42,15.04,16.02,18.0,16.41,10.57,5.34,3.25
Sotteville-lès-Rouen,49.40972,1.09005,FR,30619,2974153,Sotteville-lès-Rouen,1.88,6.4,6.02,8.56,12.04,14.74,15.7,17.44,15.89,10.61,5.72,4.39
Sorgues,44.01023,4.87381,FR,18681,2974188,Sorgues,4.48,8.08,8.4,10.54,14.44,19.02,21.28,23.8,20.32,13.25,7.5,2.8
Soisy-sous-Montmorency,48.98813,2.30156,FR,17436,2974385,Soisy-sous-Montmorency,1.68,6.26,5.95,8.52,12.35,14.97,15.95,17.93,16.33,10.51,5.29,3.23
Soissons,49.38167,3.32361,FR,31100,2974389,Soissons,1.35,6.32,5.88,8.24,12.24,14.84,15.79,17.64,16.22,10.37,5.12,2.93
Six-Fours-les-Plages,43.09174,5.82465,FR,34779,2974427,Six-Fours-les-Plages,7.54,9.76,9.84,11.64,14.31,18.36,20.38,23.45,20.5,15.34,10.53,6.75
Sin-le-Noble,50.36159,3.13113,FR,17682,2974494,Sin-le-Noble,1.28,6.33,5.64,8.11,12.11,14.8,15.65,17.23,15.9,10.07,5.13,3.66
Seynod,45.88549,6.08831,FR,18590,2974655,Seynod,-1.38,3.29,3.79,5.6,10.44,13.61,15.66,18.16,15.91,8.44,3.17,-3.18
Sèvres,48.82292,2.21757,FR,23724,2974678,Sèvres,1.61,6.18,5.86,8.41,12.26,14.87,15.9,17.94,16.34,10.42,5.16,3.01
Sevran,48.94472,2.52746,FR,47334,2974681,Sevran,1.53,6.18,5.92,8.47,12.38,14.99,15.95,17.97,16.33,10.44,5.11,2.93
Sète,43.4028,3.69278,FR,40736,2974733,Sète,6.46,9.74,9.2,11.46,14.59,18.27,20.05,22.85,19.99,14.42,9.68,5.94
Sens,48.19738,3.28328,FR,28700,2975050,Sens,1.72,6.68,6.35,8.58,12.63,15.39,16.34,18.7,17.09,10.92,5.1,2.67
Senlis,49.20724,2.58661,FR,19160,2975088,Senlis,1.32,6.01,5.61,8.08,11.98,14.57,15.56,17.5,15.97,10.16,4.99,2.92
Sélestat,48.26195,7.4489,FR,18941,2975233,Sélestat,0.19,4.88,6.08,7.78,12.26,15.48,16.31,18.45,16.03,9.38,3.71,0.63
Sedan,49.70187,4.94028,FR,20620,2975349,Sedan,0.04,5.27,5.21,7.5,11.74,14.32,15.08,16.76,15.18,9.3,3.84,1.31
Schiltigheim,48.60749,7.74931,FR,32289,2975446,Schiltigheim,0.0,4.62,5.84,7.45,12.04,15.22,15.89,18.1,15.89,9.21,3.72,0.92
Sceaux,48.77644,2.29026,FR,21511,2975469,Sceaux,1.46,6.06,5.8,8.37,12.24,14.85,15.85,17.89,16.26,10.34,5.02,2.83
Savigny-sur-Orge,48.67677,2.34835,FR,39698,2975525,Savigny-sur-Orge,1.65,6.27,5.99,8.51,12.39,15.0,16.03,18.11,16.52,10.53,5.18,2.96
Savigny-le-Temple,48.57409,2.58287,FR,25925,2975536,Savigny-le-Temple,1.52,6.24,6.0,8.44,12.38,15.02,15.98,18.13,16.53,10.5,5.01,2.73
Saumur,47.25931,-0.07808,FR,33229,2975758,Saumur,3.02,7.28,6.71,9.52,12.91,15.65,16.75,18.67,17.24,11.46,6.02,4.14
Sartrouville,48.9482,2.19169,FR,53980,2975921,Sartrouville,1.61,6.19,5.92,8.52,12.35,14.97,15.97,17.96,16.32,10.47,5.22,3.11
Sarreguemines,49.10995,7.06747,FR,24446,2975964,Sarreguemines,-0.05,4.48,5.51,7.11,11.81,14.72,15.33,17.43,15.45,9.04,3.67,0.96
Sarcelles,48.99739,2.37821,FR,57979,2976043,Sarcelles,1.58,6.19,5.87,8.41,12.27,14.89,15.87,17.85,16.26,10.42,5.2,3.1
Saran,47.95013,1.87601,FR,16243,2976050,Saran,1.56,6.35,6.07,8.47,12.26,14.95,16.2,18.46,16.91,10.6,5.0,2.67
Sannois,48.96667,2.25,FR,26869,2976179,Sannois,1.32,5.91,5.61,8.17,12.0,14.62,15.6,17.58,15.98,10.15,4.94,2.88
Sanary-sur-Mer,43.11985,5.80155,FR,19166,2976258,Sanary-sur-Mer,7.69,9.91,9.99,11.79,14.46,18.51,20.53,23.6,20.65,15.5,10.68,6.9
Salon-de-Provence,43.64229,5.09478,FR,41397,2976341,Salon-de-Provence,4.7,8.38,8.55,10.65,14.49,19.17,21.27,23.92,20.4,13.63,8.13,2.82
Sallanches,45.94423,6.63162,FR,16725,2976406,Sallanches,-1.6,2.94,4.42,5.48,10.25,13.79,16.6,19.32,16.76,8.32,3.7,-3.07
Saint-Sébastien-sur-Loire,47.20768,-1.50332,FR,29238,2976984,Saint-Sébastien-sur-Loire,3.58,7.74,6.92,9.7,12.81,15.43,16.48,18.12,16.85,11.77,6.57,5.1
Saint-Raphaël,43.42332,6.7735,FR,34918,2977246,Saint-Raphaël,6.98,9.22,9.71,11.36,14.37,18.87,21.01,23.49,20.6,15.33,10.63,6.62
Saint-Quentin,49.84889,3.28757,FR,55407,2977295,Saint-Quentin,0.73,5.8,5.3,7.69,11.75,14.31,15.26,16.96,15.54,9.73,4.62,2.47
Saint-Priest,45.69651,4.94385,FR,41641,2977356,Saint-Priest,1.74,6.09,6.09,8.01,12.51,15.78,17.29,19.38,17.13,10.61,4.79,0.74
Saint-Pol-sur-Mer,51.03116,2.33983,FR,23635,2977388,Saint-Pol-sur-Mer,2.15,6.48,5.74,8.23,11.78,14.84,15.56,17.17,15.97,10.51,6.27,5.42
Saint-Pierre-des-Corps,47.38623,0.74849,FR,15284,2977491,Saint-Pierre-des-Corps,2.53,7.03,6.63,9.23,12.82,15.57,16.92,18.86,17.36,11.27,5.64,3.64
Saint-Ouen-l'Aumône,49.04353,2.12134,FR,22977,2977800,Saint-Ouen-l'Aumône,1.83,6.37,6.06,8.65,12.42,15.06,16.05,18.01,16.41,10.64,5.46,3.46
Saint-Ouen,48.90654,2.33339,FR,39353,2977824,Saint-Ouen,1.64,6.24,6.03,8.62,12.48,15.12,16.09,18.08,16.4,10.55,5.26,3.1
Saint-Omer,50.74834,2.26091,FR,18250,2977845,Saint-Omer,1.64,6.36,5.64,8.18,11.88,14.73,15.53,17.09,15.79,10.15,5.65,4.78
Saint-Nazaire,47.27506,-2.2179,FR,67054,2977921,Saint-Nazaire,4.44,8.35,7.52,10.09,12.97,15.35,16.42,17.92,16.88,12.45,7.34,6.5
Saint-Michel-sur-Orge,48.63479,2.30831,FR,20824,2977952,Saint-Michel-sur-Orge,1.65,6.31,6.06,8.54,12.41,15.05,16.08,18.21,16.65,10.6,5.17,2.93
Saint-Médard-en-Jalles,44.8955,-0.71779,FR,29742,2978072,Saint-Médard-en-Jalles,4.82,8.52,8.27,10.66,13.82,16.39,17.85,20.5,19.03,13.17,7.9,4.87
Saint-Maximin-la-Sainte-Baume,43.44813,5.86081,FR,15225,2978100,Saint-Maximin-la-Sainte-Baume,3.58,6.91,7.26,9.37,12.5,17.22,20.19,22.75,18.56,12.21,7.15,1.85
Saint-Maur-des-Fossés,48.79395,2.49323,FR,75402,2978179,Saint-Maur-des-Fossés,1.77,6.43,6.17,8.69,12.62,15.21,16.19,18.26,16.62,10.69,5.31,3.08
Saint-Martin-d'Hères,45.1787,5.76281,FR,35528,2978317,Saint-Martin-d'Hères,1.52,6.06,5.98,8.03,12.79,16.42,18.16,20.43,18.23,10.85,5.22,-0.11
Saint-Mandé,48.83864,2.41579,FR,21261,2978621,Saint-Mandé,1.62,6.26,6.02,8.57,12.47,15.08,16.06,18.11,16.45,10.54,5.19,2.97
Saint-Malo,48.64738,-2.00877,FR,50676,2978640,Saint-Malo,4.17,7.98,7.03,9.49,12.05,14.63,16.04,17.56,16.25,11.94,7.69,6.98
Saint-Loup,43.27766,5.43133,FR,16084,2978722,Saint-Loup,6.75,9.56,9.52,11.3,14.6,18.63,20.29,23.35,20.35,14.7,9.89,5.35
Saint-Louis,47.59206,7.55923,FR,20871,2978742,Saint-Louis,-0.42,4.17,5.73,7.17,11.72,14.86,15.99,18.3,15.74,9.05,3.17,-0.3
Saint-Lô,49.11624,-1.09031,FR,21722,2978758,Saint-Lô,3.07,7.42,6.42,9.19,12.06,14.72,15.88,17.41,15.93,11.22,6.79,6.01
Saint-Leu-la-Forêt,49.01667,2.25,FR,16075,2978768,Saint-Leu-la-Forêt,1.42,6.01,5.71,8.27,12.1,14.72,15.7,17.68,16.08,10.25,5.04,2.98
Saint-Leu,46.7306,4.50083,FR,29278,2978771,Saint-Leu,0.87,5.56,5.31,7.23,11.47,14.36,15.91,18.44,16.33,9.69,3.64,0.96
Saint-Laurent-du-Var,43.67323,7.19,FR,29516,2978891,Saint-Laurent-du-Var,6.4,8.55,9.14,10.71,13.75,18.23,20.53,23.1,20.05,14.95,10.03,6.26
Saint-Jean-de-la-Ruelle,47.91127,1.86483,FR,17522,2979316,Saint-Jean-de-la-Ruelle,1.62,6.43,6.19,8.61,12.4,15.09,16.33,18.57,16.98,10.69,5.05,2.7
Saint-Jean-de-Braye,47.91303,1.97705,FR,19874,2979341,Saint-Jean-de-Braye,1.61,6.45,6.2,8.62,12.42,15.11,16.33,18.59,17.02,10.71,5.05,2.68
Saint-Herblain,47.21154,-1.651,FR,46898,2979590,Saint-Herblain,3.73,7.88,7.01,9.74,12.79,15.36,16.42,18.01,16.79,11.89,6.69,5.4
Saint-Gratien,48.9735,2.28729,FR,19737,2979627,Saint-Gratien,1.68,6.26,5.95,8.52,12.35,14.97,15.95,17.93,16.33,10.51,5.29,3.23
Saint-Germain-en-Laye,48.89643,2.0904,FR,41142,2979783,Saint-Germain-en-Laye,1.46,6.01,5.69,8.3,12.09,14.71,15.73,17.72,16.11,10.27,5.06,2.99
Saint-Genis-Laval,45.69542,4.79316,FR,20883,2979985,Saint-Genis-Laval,1.79,6.21,6.17,8.09,12.58,15.85,17.37,19.46,17.14,10.63,4.79,0.86
Saint-Fons,45.70875,4.85325,FR,16053,2980097,Saint-Fons,2.04,6.39,6.39,8.31,12.81,16.08,17.59,19.68,17.43,10.91,5.09,1.04
Saint-Étienne-du-Rouvray,49.37794,1.10467,FR,28953,2980236,Saint-Étienne-du-Rouvray,1.88,6.4,6.02,8.56,12.04,14.74,15.7,17.44,15.89,10.61,5.72,4.39
Saint-Étienne,45.43389,4.39,FR,176280,2980291,Saint-Étienne,0.09,4.66,4.26,6.03,10.59,13.91,15.74,17.77,15.6,8.83,2.72,-0.94
Saintes,45.74742,-0.63489,FR,29512,2980340,Saintes,4.34,8.23,7.66,10.18,13.49,16.11,17.34,19.77,18.31,12.58,7.21,4.7
Sainte-Marguerite,43.26196,5.40125,FR,19997,2980467,Sainte-Marguerite,6.95,9.76,9.72,11.5,14.8,18.83,20.49,23.55,20.55,14.9,10.09,5.55
Sainte-Geneviève-des-Bois,48.64682,2.31965,FR,33689,2980558,Sainte-Geneviève-des-Bois,1.6,6.26,6.01,8.49,12.36,15.0,16.03,18.16,16.6,10.55,5.12,2.88
Sainte-Foy-lès-Lyon,45.73375,4.80259,FR,21893,2980586,Sainte-Foy-lès-Lyon,1.43,5.85,5.83,7.74,12.24,15.5,17.02,19.11,16.79,10.28,4.44,0.5
Saint-Égrève,45.23313,5.68154,FR,15904,2980636,Saint-Égrève,1.6,6.26,6.14,8.35,12.94,16.37,18.17,20.41,18.27,11.23,5.3,-0.04
Saint-Dizier,48.63773,4.94892,FR,31918,2980816,Saint-Dizier,0.79,5.85,5.85,7.84,12.16,14.77,15.67,17.85,16.1,10.06,4.16,1.78
Saint-Dié-des-Vosges,48.28429,6.94921,FR,24628,2980827,Saint-Dié-des-Vosges,-0.86,4.34,5.0,6.42,11.23,14.05,15.0,17.3,15.29,8.85,3.2,-0.19
Saint-Denis,48.93564,2.35387,FR,96128,2980916,Saint-Denis,1.64,6.27,6.05,8.63,12.5,15.14,16.09,18.09,16.43,10.56,5.25,3.08
Saint-Cyr-sur-Loire,47.4,0.66667,FR,17337,2980935,Saint-Cyr-sur-Loire,2.28,6.78,6.38,8.98,12.57,15.32,16.67,18.61,17.11,11.02,5.39,3.39
Saint-Cyr-l'École,48.79865,2.06814,FR,16365,2980942,Saint-Cyr-l'École,1.31,5.86,5.5,8.05,11.86,14.49,15.54,17.58,15.98,10.08,4.87,2.74
Saint-Cloud,48.84598,2.20289,FR,28839,2981041,Saint-Cloud,1.31,5.88,5.56,8.11,11.96,14.57,15.6,17.64,16.04,10.12,4.86,2.71
Saint-Chamond,45.4759,4.51294,FR,38014,2981206,Saint-Chamond,1.75,6.02,5.69,7.32,11.88,15.25,16.95,19.08,16.87,10.28,4.49,0.73
Saint-Brieuc,48.51513,-2.76838,FR,52774,2981280,Saint-Brieuc,3.81,7.61,6.34,8.85,11.33,14.19,15.48,17.11,15.54,11.14,7.11,6.55
Saint-Avold,49.10465,6.70402,FR,18281,2981492,Saint-Avold,0.01,4.62,5.49,7.02,11.72,14.59,15.27,17.35,15.41,9.1,3.67,1.01
Saint-Avertin,47.36357,0.73993,FR,16007,2981512,Saint-Avertin,2.28,6.78,6.38,8.98,12.57,15.32,16.67,18.61,17.11,11.02,5.39,3.39
Saint-Amand-les-Eaux,50.44718,3.43076,FR,17808,2981839,Saint-Amand-les-Eaux,1.29,6.36,5.66,8.12,12.21,14.88,15.7,17.23,15.97,10.12,5.09,3.42
Rueil-Malmaison,48.8765,2.18967,FR,76616,2982235,Rueil-Malmaison,1.61,6.19,5.92,8.52,12.35,14.97,15.97,17.96,16.32,10.47,5.22,3.11
Royan,45.62811,-1.03153,FR,19017,2982343,Royan,4.85,8.65,8.21,10.99,13.91,16.51,17.82,19.94,18.12,12.8,7.46,5.45
Rouen,49.44313,1.09932,FR,234475,2982652,Rouen,1.88,6.4,6.02,8.56,12.04,14.74,15.7,17.44,15.89,10.61,5.72,4.39
Roubaix,50.69421,3.17456,FR,98828,2982681,Roubaix,1.19,6.13,5.44,7.94,12.09,14.72,15.51,17.02,15.7,9.87,5.11,3.78
Rosny-sous-Bois,48.87017,2.4991,FR,41627,2982757,Rosny-sous-Bois,1.33,5.98,5.72,8.27,12.18,14.79,15.75,17.77,16.13,10.24,4.91,2.73
Ronchin,50.59883,3.09056,FR,18331,2982944,Ronchin,1.14,6.11,5.42,7.87,11.95,14.64,15.44,16.99,15.65,9.84,5.05,3.71
Romorantin-Lanthenay,47.36667,1.75,FR,19953,2982967,Romorantin-Lanthenay,2.0,6.73,6.5,8.94,12.79,15.42,16.72,18.91,17.43,10.93,5.26,2.79
Romans-sur-Isère,45.0496,5.06602,FR,35002,2983011,Romans-sur-Isère,1.97,6.09,6.09,8.11,12.5,16.1,17.63,19.89,17.41,10.84,4.94,0.18
Romainville,48.8854,2.43482,FR,24772,2983026,Romainville,1.09,5.73,5.5,8.07,11.95,14.59,15.54,17.54,15.88,10.01,4.7,2.53
Roissy-en-Brie,48.79159,2.64747,FR,20933,2983074,Roissy-en-Brie,1.37,6.05,5.75,8.21,12.18,14.76,15.73,17.83,16.24,10.28,4.88,2.64
Rodez,44.35258,2.57338,FR,28337,2983154,Rodez,1.45,5.46,4.66,6.66,10.2,13.15,15.4,17.78,15.63,9.46,4.78,-0.34
Rochefort,45.94304,-0.96774,FR,29427,2983276,Rochefort,4.54,8.34,7.76,10.42,13.55,16.09,17.27,19.39,18.08,12.75,7.34,5.23
Roanne,46.03624,4.06802,FR,39840,2983362,Roanne,1.37,6.2,5.71,7.69,12.04,15.08,16.85,18.95,16.91,10.25,3.77,1.0
Ris-Orangis,48.6511,2.41406,FR,25082,2983440,Ris-Orangis,1.61,6.25,5.99,8.51,12.42,15.02,16.02,18.12,16.52,10.52,5.13,2.89
Riom,45.89362,3.11264,FR,20142,2983489,Riom,1.32,5.78,5.06,6.78,10.85,13.9,15.84,17.98,16.21,9.73,3.62,0.9
Rillieux-la-Pape,45.81667,4.9,FR,28076,2983536,Rillieux-la-Pape,1.24,5.67,5.66,7.55,12.07,15.28,16.81,18.96,16.73,10.17,4.33,0.38
Rezé,47.19058,-1.56885,FR,39248,2983770,Rezé,3.68,7.84,6.99,9.76,12.84,15.44,16.5,18.11,16.85,11.85,6.65,5.26
Rennes,48.11198,-1.67429,FR,220488,2983990,Rennes,2.9,7.35,6.48,9.32,12.34,14.96,16.04,17.7,15.98,11.13,6.12,5.33
Reims,49.26526,4.02853,FR,196565,2984114,Reims,0.86,5.94,5.73,7.94,12.01,14.75,15.6,17.39,15.87,10.1,4.64,2.38
Rambouillet,48.64374,1.82992,FR,26674,2984513,Rambouillet,1.23,5.84,5.47,7.98,11.76,14.44,15.57,17.69,16.07,10.07,4.76,2.69
Quimper,47.99597,-4.09795,FR,63849,2984701,Quimper,5.93,8.9,7.6,9.94,12.37,14.39,15.51,17.03,16.11,12.41,8.38,8.22
Puteaux,48.88341,2.23894,FR,40646,2985034,Puteaux,1.76,6.33,6.07,8.67,12.5,15.12,16.11,18.11,16.47,10.62,5.37,3.26
Port-de-Bouc,43.40657,4.9809,FR,15934,2986025,Port-de-Bouc,5.96,9.48,9.52,11.55,15.37,19.85,21.33,24.15,20.94,14.63,9.22,4.74
Pontoise,49.05,2.1,FR,30290,2986140,Pontoise,1.67,6.19,5.84,8.39,12.14,14.79,15.81,17.74,16.16,10.44,5.33,3.38
Pontivy,48.06835,-2.96645,FR,16752,2986160,Pontivy,3.7,7.69,6.5,9.12,11.88,14.52,15.64,17.3,15.65,11.18,6.7,6.26
Pontarlier,46.90347,6.35542,FR,20313,2986302,Pontarlier,-1.94,1.57,2.48,4.02,9.0,11.83,13.58,16.11,14.32,7.55,2.39,-2.27
Pont-à-Mousson,48.90702,6.05635,FR,15411,2986306,Pont-à-Mousson,0.39,5.09,5.82,7.41,11.94,14.84,15.59,17.68,15.81,9.63,3.97,1.47
Poitiers,46.58261,0.34348,FR,85960,2986495,Poitiers,2.87,7.11,6.47,9.03,12.62,15.4,16.58,18.81,17.44,11.3,5.9,3.58
Poissy,48.92902,2.04952,FR,36431,2986501,Poissy,1.91,6.44,6.11,8.7,12.46,15.1,16.14,18.12,16.5,10.7,5.51,3.48
Ploemeur,47.73512,-3.42952,FR,20652,2986732,Ploemeur,5.12,8.43,7.33,9.69,12.23,14.5,15.56,17.07,16.13,12.13,7.74,7.49
Plaisir,48.82319,1.9541,FR,36121,2986930,Plaisir,1.48,6.0,5.64,8.19,11.97,14.62,15.69,17.71,16.09,10.22,5.05,2.94
Plaisance-du-Touch,43.56554,1.29645,FR,18501,2986933,Plaisance-du-Touch,4.08,8.3,7.92,9.7,13.07,16.07,18.21,20.63,18.84,12.82,8.01,3.83
Pierrefitte-sur-Seine,48.96691,2.36104,FR,27914,2987271,Pierrefitte-sur-Seine,1.58,6.19,5.87,8.41,12.27,14.89,15.87,17.85,16.26,10.42,5.2,3.1
Pessac,44.80565,-0.6324,FR,57944,2987805,Pessac,4.72,8.39,8.21,10.54,13.71,16.31,17.8,20.48,19.0,13.05,7.81,4.65
Pertuis,43.69415,5.50291,FR,19926,2987825,Pertuis,4.05,7.55,7.82,9.99,13.64,18.21,20.66,23.34,19.57,12.88,7.67,2.12
Perpignan,42.69764,2.89541,FR,110706,2987914,Perpignan,4.71,9.23,8.98,11.26,14.76,18.16,20.44,23.11,20.27,14.68,8.53,5.06
Périgueux,45.18691,0.71439,FR,34770,2987967,Périgueux,4.14,8.08,7.65,10.02,13.34,15.96,17.6,20.21,18.58,12.24,7.09,3.72
Pau,43.31117,-0.35583,FR,82697,2988358,Pau,4.48,7.69,7.28,8.61,11.26,14.48,16.61,19.26,18.05,11.94,7.21,3.2
Paris,48.85341,2.3488,FR,2138551,2988507,Paris,1.64,6.24,6.03,8.62,12.48,15.12,16.09,18.08,16.4,10.55,5.26,3.1
Pantin,48.89437,2.40935,FR,52922,2988621,Pantin,1.54,6.17,5.95,8.53,12.4,15.04,15.99,17.99,16.33,10.46,5.15,2.98
Pamiers,43.1165,1.61079,FR,16997,2988670,Pamiers,3.52,7.91,7.25,8.79,12.06,15.11,17.42,20.05,18.23,12.4,7.49,3.0
Palaiseau,48.71828,2.2498,FR,31987,2988758,Palaiseau,1.61,6.19,5.88,8.38,12.23,14.86,15.91,17.99,16.41,10.44,5.14,2.94
Ozoir-la-Ferrière,48.76699,2.66871,FR,22530,2988867,Ozoir-la-Ferrière,1.35,6.04,5.73,8.16,12.15,14.72,15.69,17.8,16.21,10.26,4.84,2.59
Oyonnax,46.25917,5.65727,FR,25697,2988888,Oyonnax,-0.36,4.05,4.16,5.99,10.64,13.33,15.03,17.47,15.48,8.86,3.55,-1.8
Outreau,50.70535,1.5897,FR,15648,2988936,Outreau,2.32,6.41,5.55,7.9,11.23,13.91,14.86,16.46,15.51,10.43,6.09,5.43
Oullins,45.71404,4.80755,FR,25592,2988998,Oullins,2.13,6.55,6.53,8.44,12.94,16.2,17.72,19.81,17.49,10.98,5.14,1.2
Osny,49.0701,2.06277,FR,16545,2989130,Osny,1.37,5.89,5.54,8.09,11.84,14.49,15.51,17.44,15.86,10.14,5.03,3.08
Orvault,47.27117,-1.62361,FR,25338,2989170,Orvault,3.48,7.61,6.78,9.51,12.59,15.25,16.3,17.92,16.63,11.62,6.46,5.09
Orsay,48.69572,2.18727,FR,17817,2989204,Orsay,1.61,6.19,5.88,8.38,12.23,14.86,15.91,17.99,16.41,10.44,5.14,2.94
Orly,48.74792,2.39253,FR,20528,2989297,Orly,1.57,6.2,5.94,8.46,12.37,14.97,15.97,18.06,16.47,10.47,5.08,2.84
Orléans,47.90289,1.90389,FR,116269,2989317,Orléans,1.57,6.39,6.14,8.55,12.35,15.03,16.28,18.52,16.94,10.64,5.0,2.65
Orange,44.13806,4.81025,FR,30530,2989460,Orange,4.39,8.08,8.33,10.46,14.35,18.94,21.16,23.66,20.23,13.18,7.4,2.94
Olivet,47.86219,1.8991,FR,22604,2989611,Olivet,1.67,6.49,6.24,8.65,12.45,15.13,16.38,18.62,17.04,10.74,5.1,2.75
Octeville,49.62612,-1.64349,FR,16951,2989755,Octeville,4.42,7.47,6.38,8.86,11.17,13.8,15.0,16.44,15.65,11.5,7.95,7.04
Noyon,49.58333,3.0,FR,15138,2989877,Noyon,1.24,6.21,5.75,8.12,12.08,14.69,15.66,17.44,16.01,10.19,5.11,3.01
Noisy-le-Sec,48.89148,2.46451,FR,38955,2990187,Noisy-le-Sec,1.48,6.13,5.88,8.42,12.33,14.94,15.9,17.92,16.28,10.39,5.06,2.87
Noisy-le-Grand,48.84979,2.56266,FR,62420,2990189,Noisy-le-Grand,1.52,6.19,5.9,8.36,12.33,14.91,15.89,17.98,16.39,10.43,5.03,2.79
Noisiel,48.84868,2.62435,FR,15362,2990192,Noisiel,1.57,6.25,5.95,8.41,12.38,14.96,15.93,18.03,16.44,10.48,5.08,2.84
Nogent-sur-Oise,49.27158,2.47074,FR,19690,2990264,Nogent-sur-Oise,1.55,6.25,5.87,8.4,12.25,14.83,15.81,17.7,16.17,10.43,5.29,3.27
Nogent-sur-Marne,48.83669,2.48255,FR,31236,2990265,Nogent-sur-Marne,1.42,6.08,5.82,8.34,12.27,14.86,15.84,17.91,16.28,10.34,4.96,2.73
Niort,46.32313,-0.45877,FR,54660,2990355,Niort,3.74,7.72,7.1,9.9,13.26,15.8,16.83,18.91,17.6,12.02,6.62,4.31
Nîmes,43.83665,4.35788,FR,148236,2990363,Nîmes,4.86,8.88,8.9,11.09,14.81,19.6,21.75,24.18,20.68,13.89,8.04,3.85
Nice,43.70313,7.26608,FR,342669,2990440,Nice,7.03,9.01,9.63,11.15,14.22,18.69,20.95,23.58,20.49,15.51,10.69,6.92
Nevers,46.98956,3.159,FR,43988,2990474,Nevers,1.67,6.47,6.1,8.27,12.33,15.03,16.46,18.78,17.05,10.47,4.66,1.99
Neuilly-sur-Seine,48.8846,2.26965,FR,61300,2990611,Neuilly-sur-Seine,1.64,6.24,6.03,8.62,12.48,15.12,16.09,18.08,16.4,10.55,5.26,3.1
Neuilly-sur-Marne,48.85373,2.54903,FR,34465,2990612,Neuilly-sur-Marne,1.68,6.33,6.08,8.62,12.53,15.14,16.1,18.12,16.48,10.59,5.26,3.07
Neuilly-Plaisance,48.86342,2.506,FR,18725,2990616,Neuilly-Plaisance,1.48,6.13,5.88,8.42,12.33,14.94,15.9,17.92,16.28,10.39,5.06,2.87
Narbonne,43.18396,3.00141,FR,50776,2990919,Narbonne,5.53,9.58,8.98,11.05,14.36,17.98,20.41,23.0,20.39,14.35,9.08,5.12
Nantes,47.21725,-1.55336,FR,318808,2990969,Nantes,3.68,7.84,6.99,9.76,12.84,15.44,16.5,18.11,16.85,11.85,6.65,5.26
Nanterre,48.89198,2.20675,FR,86719,2990970,Nanterre,1.71,6.29,6.02,8.62,12.45,15.07,16.07,18.06,16.42,10.57,5.32,3.21
Nancy,48.68439,6.18496,FR,105058,2990999,Nancy,0.39,5.07,5.78,7.32,11.87,14.79,15.61,17.79,15.87,9.59,3.87,1.32
Muret,43.45998,1.32541,FR,24313,2991153,Muret,4.24,8.4,7.99,9.71,13.05,16.11,18.28,20.83,19.04,12.94,8.06,3.97
Mulhouse,47.75205,7.32866,FR,111430,2991214,Mulhouse,-0.31,4.15,5.43,7.07,11.43,14.56,15.6,18.02,15.58,8.86,2.91,-0.19
Moulins,46.56459,3.33243,FR,23095,2991481,Moulins,1.94,6.63,6.21,8.21,12.38,15.14,16.84,19.12,17.29,10.69,4.62,2.18
Mougins,43.60068,6.99523,FR,18973,2991551,Mougins,4.79,7.39,8.0,9.61,12.69,17.47,19.82,22.24,19.12,13.61,8.71,4.59
Morsang-sur-Orge,48.66181,2.35338,FR,19917,2991719,Morsang-sur-Orge,1.61,6.25,5.99,8.51,12.42,15.02,16.02,18.12,16.52,10.52,5.13,2.89
Morlaix,48.57784,-3.82792,FR,17516,2991772,Morlaix,5.79,8.69,7.3,9.64,11.68,14.22,15.49,16.89,15.72,12.01,8.59,8.07
Mont-Saint-Aignan,49.46307,1.09364,FR,23078,2992003,Mont-Saint-Aignan,1.21,5.75,5.32,7.81,11.29,14.01,14.97,16.71,15.21,9.88,5.05,3.76
Montrouge,48.8162,2.31393,FR,38708,2992017,Montrouge,1.56,6.16,5.9,8.47,12.34,14.95,15.95,17.99,16.36,10.44,5.12,2.93
Montreuil,48.86415,2.44322,FR,111240,2992090,Montreuil,1.39,6.03,5.8,8.37,12.25,14.89,15.84,17.84,16.18,10.31,5.0,2.83
Montpellier,43.61093,3.87635,FR,248252,2992166,Montpellier,5.65,9.19,8.85,11.13,14.44,18.52,20.55,23.08,19.94,13.92,8.82,5.01
Montmorency,48.98826,2.3434,FR,21156,2992229,Montmorency,1.52,6.11,5.81,8.37,12.2,14.82,15.8,17.78,16.18,10.35,5.14,3.08
Montluçon,46.34015,2.60254,FR,44960,2992292,Montluçon,2.3,6.79,6.11,8.14,12.08,14.97,16.75,18.92,17.28,10.9,5.19,2.19
Montivilliers,49.54518,0.18769,FR,16706,2992367,Montivilliers,2.96,6.98,6.4,8.79,11.84,14.58,15.59,17.24,16.16,11.32,6.82,5.75
Montigny-lès-Metz,49.0956,6.15271,FR,26369,2992402,Montigny-lès-Metz,0.22,4.92,5.68,7.28,11.9,14.75,15.44,17.46,15.62,9.43,3.85,1.33
Montigny-lès-Cormeilles,48.98201,2.20035,FR,17910,2992404,Montigny-lès-Cormeilles,0.91,5.48,5.11,7.62,11.44,14.08,15.07,17.03,15.47,9.68,4.54,2.54
Montigny-le-Bretonneux,48.76636,2.03405,FR,39063,2992415,Montigny-le-Bretonneux,1.18,5.7,5.34,7.89,11.67,14.32,15.39,17.41,15.79,9.92,4.75,2.64
Montgeron,48.70543,2.45039,FR,22843,2992536,Montgeron,1.51,6.16,5.92,8.4,12.34,14.95,15.93,18.03,16.41,10.43,5.01,2.76
Montfermeil,48.8982,2.57913,FR,23829,2992616,Montfermeil,1.23,5.92,5.62,8.12,12.06,14.66,15.62,17.67,16.06,10.15,4.8,2.59
Montesson,48.90924,2.13754,FR,15256,2992650,Montesson,1.86,6.41,6.09,8.7,12.49,15.11,16.13,18.12,16.51,10.67,5.46,3.39
Montereau-Fault-Yonne,48.38333,2.95,FR,16993,2992671,Montereau-Fault-Yonne,1.75,6.62,6.33,8.69,12.72,15.37,16.33,18.6,17.02,10.89,5.16,2.8
Montélimar,44.55468,4.75469,FR,35637,2992703,Montélimar,3.59,7.35,7.54,9.58,13.64,17.92,19.75,22.38,19.31,12.36,6.49,2.29
Mont-de-Marsan,43.89022,-0.49713,FR,36205,2992771,Mont-de-Marsan,5.68,8.88,8.78,10.72,13.5,16.27,18.19,20.98,19.72,13.63,8.59,4.85
Montceau-les-Mines,46.66667,4.36667,FR,20221,2992863,Montceau-les-Mines,1.2,5.87,5.65,7.58,11.82,14.7,16.23,18.79,16.66,10.02,3.95,1.35
Montbrison,45.60752,4.06525,FR,16164,2992890,Montbrison,0.56,5.28,4.9,6.81,11.32,14.45,16.36,18.35,16.18,9.36,2.87,-0.23
Montbéliard,47.50957,6.79823,FR,28865,2992938,Montbéliard,0.06,4.18,5.28,6.66,11.06,13.99,15.29,17.67,15.47,8.96,3.52,-0.04
Montauban,44.01759,1.3542,FR,52434,2993002,Montauban,3.92,8.21,7.79,9.95,13.41,16.41,18.44,20.59,18.82,12.59,7.89,3.62
Montargis,47.99696,2.73261,FR,17457,2993024,Montargis,1.6,6.51,6.21,8.53,12.42,15.24,16.28,18.63,17.13,10.78,5.03,2.56
Mons-en-Barœul,50.63333,3.11667,FR,23006,2993207,Mons-en-Barœul,1.24,6.21,5.52,7.97,12.05,14.74,15.54,17.09,15.75,9.94,5.15,3.81
Moissy-Cramayel,48.62605,2.60125,FR,16259,2993572,Moissy-Cramayel,1.42,6.14,5.9,8.34,12.28,14.92,15.88,18.03,16.43,10.4,4.91,2.63
Mitry-Mory,48.98333,2.61667,FR,18562,2993679,Mitry-Mory,1.37,6.06,5.74,8.22,12.14,14.77,15.73,17.72,16.1,10.26,5.0,2.82
Miramas,43.58508,5.00268,FR,24173,2993760,Miramas,4.98,8.73,8.82,10.89,14.76,19.44,21.42,24.08,20.64,13.9,8.31,3.26
Millau,44.09973,3.07848,FR,23307,2993875,Millau,2.86,6.7,6.29,8.07,11.64,14.78,17.11,19.44,17.14,10.92,6.02,1.61
Meyzieu,45.76637,5.00277,FR,28929,2994048,Meyzieu,1.6,5.97,5.96,7.82,12.33,15.55,17.11,19.27,17.12,10.53,4.76,0.63
Meylan,45.20978,5.77762,FR,20267,2994087,Meylan,1.42,5.96,5.88,7.93,12.69,16.32,18.06,20.33,18.13,10.75,5.12,-0.21
Meudon,48.81381,2.235,FR,44652,2994144,Meudon,1.46,6.03,5.71,8.26,12.11,14.72,15.75,17.79,16.19,10.27,5.01,2.86
Metz,49.11911,6.17269,FR,123914,2994160,Metz,0.22,4.92,5.68,7.28,11.9,14.75,15.44,17.46,15.62,9.43,3.85,1.33
Mérignac,44.84247,-0.64512,FR,69791,2994393,Mérignac,4.72,8.39,8.21,10.54,13.71,16.31,17.8,20.48,19.0,13.05,7.81,4.65
Menton,43.77649,7.50435,FR,29649,2994497,Menton,7.98,10.03,10.75,12.36,15.35,19.75,21.82,24.37,21.49,16.42,11.66,7.73
Melun,48.5457,2.65356,FR,38953,2994651,Melun,1.61,6.36,6.1,8.54,12.53,15.16,16.11,18.32,16.78,10.62,5.04,2.74
Meaux,48.96014,2.87885,FR,53811,2994798,Meaux,1.51,6.33,5.95,8.4,12.45,14.97,15.93,17.98,16.43,10.5,5.09,2.85
Mazargues,43.24622,5.39788,FR,17527,2994895,Mazargues,6.9,9.72,9.67,11.45,14.75,18.78,20.44,23.49,20.5,14.85,10.04,5.5
Mayenne,48.30337,-0.61383,FR,15583,2994935,Mayenne,2.18,6.6,5.99,8.93,12.12,14.67,15.88,17.58,15.9,10.69,5.49,4.29
Maurepas,48.76486,1.92923,FR,19009,2995041,Maurepas,1.11,5.63,5.27,7.81,11.56,14.24,15.31,17.33,15.69,9.86,4.69,2.63
Mauguio,43.61692,4.00739,FR,18320,2995121,Mauguio,5.71,9.33,9.04,11.32,14.7,18.87,20.91,23.41,20.19,14.1,8.9,5.06
Maubeuge,50.27875,3.97267,FR,33684,2995150,Maubeuge,0.42,5.59,4.88,7.3,11.4,14.21,14.98,16.54,15.25,9.38,4.21,2.22
Massy,48.72692,2.28301,FR,38768,2995206,Massy,1.55,6.17,5.89,8.41,12.29,14.9,15.93,18.01,16.42,10.43,5.08,2.86
Martigues,43.40735,5.05526,FR,45749,2995387,Martigues,5.47,9.11,9.25,11.32,15.13,19.67,21.41,24.15,20.84,14.3,8.75,4.03
Marseille,43.29695,5.38107,FR,870731,2995469,Marseille,6.9,9.72,9.67,11.45,14.75,18.78,20.44,23.49,20.5,14.85,10.04,5.5
Marmande,44.50361,0.16546,FR,19069,2995642,Marmande,4.56,8.38,8.26,10.52,13.74,16.43,18.16,20.77,19.21,13.07,7.91,4.34
Marly-le-Roi,48.86667,2.08333,FR,17404,2995652,Marly-le-Roi,1.06,5.61,5.29,7.9,11.69,14.31,15.33,17.32,15.71,9.87,4.66,2.59
Marignane,43.41727,5.21462,FR,35873,2995750,Marignane,6.84,10.51,10.51,12.78,16.46,21.01,22.5,25.03,21.71,15.25,9.93,5.27
Marcq-en-Barœul,50.66667,3.08333,FR,38629,2995908,Marcq-en-Barœul,1.35,6.28,5.6,8.07,12.18,14.84,15.63,17.16,15.82,10.02,5.3,4.02
Mantes-la-Ville,48.97374,1.70253,FR,19947,2996146,Mantes-la-Ville,1.65,6.16,5.79,8.3,11.95,14.65,15.72,17.66,16.04,10.4,5.29,3.46
Mantes-la-Jolie,48.99048,1.7167,FR,44263,2996148,Mantes-la-Jolie,1.85,6.36,5.99,8.5,12.15,14.85,15.92,17.86,16.24,10.6,5.49,3.66
Manosque,43.82883,5.78688,FR,21351,2996180,Manosque,1.47,5.66,6.1,8.34,11.79,16.15,18.99,21.55,17.79,11.13,6.01,0.74
Mandelieu-la-Napoule,43.54577,6.93734,FR,19292,2996255,Mandelieu-la-Napoule,6.98,9.22,9.71,11.36,14.37,18.87,21.01,23.49,20.6,15.33,10.63,6.62
Malakoff,48.81999,2.29998,FR,29420,2996514,Malakoff,1.61,6.21,5.95,8.52,12.39,15.0,16.0,18.04,16.41,10.49,5.18,2.98
Maisons-Laffitte,48.95264,2.14521,FR,22772,2996564,Maisons-Laffitte,1.73,6.27,5.96,8.55,12.32,14.96,15.95,17.91,16.31,10.54,5.36,3.36
Maisons-Alfort,48.81171,2.43945,FR,53964,2996568,Maisons-Alfort,1.72,6.36,6.12,8.67,12.57,15.18,16.16,18.21,16.55,10.64,5.29,3.07
Mâcon,46.31407,4.82823,FR,35484,2996882,Mâcon,1.8,6.55,6.35,8.34,12.67,15.61,17.2,19.52,17.41,10.74,4.84,1.32
Lyon,45.74846,4.84671,FR,522969,2996944,Lyon,2.23,6.65,6.63,8.54,13.04,16.3,17.82,19.91,17.59,11.08,5.24,1.3
Lunéville,48.59273,6.49383,FR,21582,2997110,Lunéville,0.03,4.64,5.36,6.81,11.47,14.38,15.27,17.49,15.49,9.17,3.52,0.69
Lunel,43.67778,4.13611,FR,26588,2997116,Lunel,5.23,9.16,9.0,11.31,14.9,19.48,21.74,24.09,20.55,14.0,8.52,4.49
Lucé,48.43689,1.46359,FR,17780,2997246,Lucé,1.11,5.78,5.48,7.93,11.71,14.44,15.69,17.77,16.03,10.07,4.63,2.62
Louviers,49.21667,1.16667,FR,19220,2997336,Louviers,1.86,6.36,6.0,8.5,11.98,14.75,15.77,17.57,15.96,10.61,5.62,4.15
Lourdes,43.09461,-0.04611,FR,15786,2997395,Lourdes,3.42,6.68,6.27,7.53,10.36,13.62,15.77,18.3,16.84,10.95,6.02,1.84
Lormont,44.8765,-0.51919,FR,22636,2997556,Lormont,4.6,8.34,8.12,10.48,13.67,16.26,17.72,20.33,18.84,12.96,7.66,4.6
Lorient,47.74817,-3.37177,FR,58112,2997577,Lorient,5.65,8.77,7.73,9.99,12.43,14.66,15.7,17.15,16.49,12.63,8.25,8.0
Loos,50.60982,3.01874,FR,22107,2997620,Loos,1.24,6.23,5.55,8.0,12.04,14.75,15.56,17.12,15.76,9.96,5.18,3.91
Lons-le-Saunier,46.67535,5.55575,FR,20678,2997626,Lons-le-Saunier,1.3,5.67,5.75,7.36,11.88,14.62,16.09,18.61,16.61,10.1,4.64,0.61
Longjumeau,48.69307,2.29431,FR,20771,2997712,Longjumeau,1.8,6.42,6.14,8.65,12.54,15.15,16.18,18.26,16.67,10.68,5.33,3.11
Lomme,50.64358,2.98715,FR,29892,2997803,Lomme,1.16,6.13,5.45,7.9,11.94,14.65,15.46,17.02,15.66,9.86,5.09,3.81
Lognes,48.83541,2.62998,FR,15519,2997904,Lognes,1.42,6.09,5.8,8.26,12.23,14.81,15.79,17.88,16.29,10.33,4.93,2.69
Livry-Gargan,48.9193,2.54305,FR,39518,2998056,Livry-Gargan,1.43,6.08,5.82,8.37,12.28,14.89,15.85,17.87,16.23,10.34,5.01,2.83
L'Isle-sur-la-Sorgue,43.91971,5.05141,FR,16968,2998127,L'Isle-sur-la-Sorgue,4.29,7.89,8.25,10.33,14.12,18.67,21.11,23.71,20.19,13.18,7.71,2.42
Lisieux,49.1466,0.22925,FR,24473,2998150,Lisieux,2.08,6.65,6.03,8.6,11.89,14.71,15.76,17.52,16.01,10.67,5.84,4.76
Lingolsheim,48.55752,7.68253,FR,17284,2998224,Lingolsheim,-0.05,4.57,5.79,7.4,11.99,15.17,15.84,18.05,15.84,9.16,3.67,0.87
Limoges,45.83362,1.24759,FR,141176,2998286,Limoges,2.44,6.37,5.86,7.93,11.52,14.15,15.83,18.19,16.79,10.39,5.18,2.03
Limeil-Brévannes,48.7448,2.48705,FR,19104,2998305,Limeil-Brévannes,1.56,6.21,5.97,8.46,12.39,15.0,15.98,18.08,16.46,10.48,5.07,2.81
Limay,48.99553,1.74081,FR,18559,2998311,Limay,1.8,6.31,5.94,8.45,12.1,14.8,15.87,17.8,16.2,10.55,5.44,3.61
Lille,50.63297,3.05858,FR,234475,2998324,Lille,1.24,6.21,5.52,7.97,12.05,14.74,15.54,17.09,15.75,9.94,5.15,3.81
Liévin,50.4198,2.78068,FR,34370,2998431,Liévin,1.24,6.19,5.52,7.98,11.85,14.55,15.45,17.06,15.73,9.95,5.09,3.82
Libourne,44.91449,-0.24186,FR,24240,2998517,Libourne,4.68,8.51,8.3,10.61,13.84,16.5,18.01,20.64,19.03,13.07,7.77,4.61
L'Haÿ-les-Roses,48.77935,2.33729,FR,29703,2998632,L'Haÿ-les-Roses,1.46,6.06,5.8,8.37,12.24,14.85,15.85,17.89,16.26,10.34,5.02,2.83
Le Vésinet,48.89281,2.13308,FR,16740,2998854,Le Vésinet,1.81,6.36,6.04,8.65,12.44,15.06,16.08,18.07,16.46,10.62,5.41,3.34
Levallois-Perret,48.89389,2.28864,FR,62178,2998975,Levallois-Perret,1.64,6.24,6.03,8.62,12.48,15.12,16.09,18.08,16.4,10.55,5.26,3.1
Les Sables-d'Olonne,46.49687,-1.7847,FR,16105,2999683,Les Sables-d'Olonne,5.02,8.73,7.99,10.58,13.2,15.56,16.64,18.25,17.13,13.02,7.87,6.95
Les Pennes-Mirabeau,43.41012,5.30838,FR,19871,3000047,Les Pennes-Mirabeau,5.13,8.41,8.57,10.59,14.29,18.72,20.6,23.45,20.0,13.67,8.49,3.32
Les Pavillons-sous-Bois,48.90683,2.50648,FR,19730,3000060,Les Pavillons-sous-Bois,1.53,6.18,5.92,8.47,12.38,14.99,15.95,17.97,16.33,10.44,5.11,2.93
Les Olives,43.32393,5.4584,FR,15181,3000138,Les Olives,6.32,9.05,9.04,10.83,14.0,18.14,19.92,22.98,19.88,14.23,9.51,4.92
Les Mureaux,48.99173,1.90972,FR,32134,3000192,Les Mureaux,1.9,6.42,6.08,8.65,12.34,15.02,16.05,18.0,16.38,10.68,5.54,3.62
Les Lilas,48.87992,2.42057,FR,21124,3000491,Les Lilas,1.09,5.73,5.5,8.07,11.95,14.59,15.54,17.54,15.88,10.01,4.7,2.53
Les Herbiers,46.87095,-1.0156,FR,15664,3000648,Les Herbiers,3.17,7.25,6.45,9.22,12.45,15.08,16.21,18.02,16.8,11.39,6.14,4.34
Les Clayes-sous-Bois,48.82206,1.98677,FR,17776,3001402,Les Clayes-sous-Bois,1.43,5.95,5.59,8.14,11.92,14.57,15.64,17.66,16.04,10.17,5.0,2.89
Le Puy-en-Velay,45.04366,3.88523,FR,22718,3002465,Le Puy-en-Velay,0.1,4.57,3.92,5.5,10.08,13.32,15.38,17.63,15.54,8.84,3.39,-1.25
Le Pré-Saint-Gervais,48.88549,2.40422,FR,17786,3002499,Le Pré-Saint-Gervais,1.44,6.07,5.85,8.43,12.3,14.94,15.89,17.89,16.23,10.36,5.05,2.88
Le Pontet,43.96119,4.86008,FR,16182,3002570,Le Pontet,4.53,8.13,8.46,10.59,14.49,19.07,21.33,23.85,20.37,13.29,7.55,2.85
Le Plessis-Trévise,48.81074,2.57363,FR,18618,3002647,Le Plessis-Trévise,1.37,6.05,5.75,8.21,12.18,14.76,15.73,17.83,16.24,10.28,4.88,2.64
Le Plessis-Robinson,48.78889,2.27078,FR,22510,3002650,Le Plessis-Robinson,1.01,5.61,5.35,7.92,11.79,14.4,15.4,17.44,15.81,9.89,4.58,2.38
Le Petit-Quevilly,49.41338,1.06155,FR,22691,3002880,Le Petit-Quevilly,1.78,6.3,5.92,8.46,11.94,14.64,15.6,17.34,15.79,10.51,5.62,4.29
Le Perreux-sur-Marne,48.85,2.5,FR,32015,3002965,Le Perreux-sur-Marne,1.53,6.18,5.92,8.47,12.38,14.99,15.95,17.97,16.33,10.44,5.11,2.93
Le Pecq,48.89317,2.10371,FR,16534,3002984,Le Pecq,1.86,6.41,6.09,8.7,12.49,15.11,16.13,18.12,16.51,10.67,5.46,3.39
Lens,50.43302,2.82791,FR,38265,3003093,Lens,1.29,6.25,5.56,8.03,11.9,14.6,15.5,17.11,15.78,10.0,5.14,3.87
Le Mée-sur-Seine,48.53157,2.62829,FR,22058,3003481,Le Mée-sur-Seine,1.65,6.38,6.12,8.56,12.52,15.15,16.13,18.35,16.83,10.66,5.09,2.8
Le Mans,48.0021,0.20251,FR,144515,3003603,Le Mans,2.08,6.54,6.16,8.89,12.39,15.06,16.3,18.13,16.51,10.8,5.28,3.69
Le Kremlin-Bicêtre,48.81471,2.36073,FR,27867,3003737,Le Kremlin-Bicêtre,1.52,6.16,5.92,8.47,12.37,14.98,15.96,18.01,16.35,10.44,5.09,2.87
Le Havre,49.49346,0.10785,FR,185972,3003796,Le Havre,2.57,6.91,6.36,8.85,12.06,14.83,15.77,17.43,16.15,11.08,6.49,5.45
Le Grand-Quevilly,49.40076,1.04582,FR,26522,3003952,Le Grand-Quevilly,1.68,6.21,5.8,8.36,11.8,14.52,15.46,17.21,15.65,10.4,5.53,4.25
Le Creusot,46.80714,4.41632,FR,25590,3004427,Le Creusot,0.93,5.56,5.37,7.29,11.53,14.36,15.87,18.46,16.34,9.73,3.71,1.1
Le Chesnay,48.8222,2.12213,FR,29154,3004630,Le Chesnay,1.41,5.96,5.6,8.15,11.96,14.59,15.64,17.68,16.08,10.18,4.97,2.84
Le Cannet,43.57662,7.01912,FR,43353,3004871,Le Cannet,5.71,8.11,8.71,10.29,13.36,17.99,20.36,22.85,19.76,14.45,9.51,5.57
Le Bouscat,44.86488,-0.59864,FR,24232,3005066,Le Bouscat,4.81,8.54,8.3,10.69,13.87,16.44,17.88,20.51,19.03,13.16,7.87,4.82
Le Blanc-Mesnil,48.93872,2.46138,FR,48077,3005269,Le Blanc-Mesnil,1.58,6.23,5.98,8.52,12.43,15.04,16.0,18.02,16.38,10.49,5.16,2.97
Laxou,48.68372,6.14929,FR,16323,3005417,Laxou,0.32,5.03,5.69,7.3,11.78,14.68,15.5,17.68,15.83,9.52,3.78,1.31
La Valette-du-Var,43.13763,5.98317,FR,23134,3005825,La Valette-du-Var,7.64,10.38,10.58,12.69,15.24,19.93,22.61,24.81,21.13,15.33,10.71,6.15
Laval,48.07247,-0.77019,FR,50489,3005866,Laval,2.72,7.08,6.45,9.39,12.57,15.14,16.3,17.98,16.33,11.17,5.92,4.68
Lattes,43.56775,3.90279,FR,17390,3006121,Lattes,5.95,9.49,9.15,11.43,14.74,18.82,20.85,23.38,20.24,14.22,9.12,5.31
La Teste-de-Buch,44.63278,-1.14513,FR,27253,3006283,La Teste-de-Buch,5.89,9.18,8.87,11.13,13.95,16.43,18.02,20.58,19.47,14.02,8.97,6.09
La Seyne-sur-Mer,43.10322,5.87816,FR,62330,3006414,La Seyne-sur-Mer,7.69,9.91,9.99,11.79,14.46,18.51,20.53,23.6,20.65,15.5,10.68,6.9
La Roche-sur-Yon,46.66974,-1.42757,FR,59410,3006767,La Roche-sur-Yon,3.76,7.64,6.88,9.54,12.71,15.28,16.4,18.19,16.96,11.88,6.66,4.96
La Rochelle,46.16308,-1.15222,FR,76810,3006787,La Rochelle,4.45,8.33,7.71,10.42,13.48,15.92,17.06,18.89,17.76,12.75,7.31,5.4
La Pomme,43.28987,5.44153,FR,17787,3007221,La Pomme,6.8,9.62,9.57,11.35,14.65,18.68,20.34,23.39,20.4,14.75,9.94,5.4
Laon,49.5631,3.62714,FR,28688,3007477,Laon,0.42,5.42,5.04,7.35,11.42,13.98,14.9,16.66,15.24,9.44,4.26,1.98
Lannion,48.73264,-3.45657,FR,21473,3007609,Lannion,5.83,8.6,7.28,9.55,11.51,14.02,15.37,16.76,15.72,12.11,8.74,8.11
Lanester,47.76316,-3.3393,FR,24352,3007794,Lanester,5.09,8.48,7.38,9.77,12.32,14.65,15.7,17.21,16.23,12.18,7.76,7.48
Landerneau,48.4515,-4.25175,FR,16052,3007874,Landerneau,6.09,8.88,7.42,9.8,11.92,14.29,15.45,16.85,15.73,12.06,8.66,8.38
Lambersart,50.65,3.03333,FR,28613,3008218,Lambersart,1.26,6.23,5.55,8.0,12.04,14.75,15.56,17.12,15.76,9.96,5.19,3.91
La Madeleine,50.64603,3.07585,FR,23572,3008379,La Madeleine,1.24,6.21,5.52,7.97,12.05,14.74,15.54,17.09,15.75,9.94,5.15,3.81
Lagny-sur-Marne,48.86667,2.71667,FR,20649,3009071,Lagny-sur-Marne,1.26,5.98,5.66,8.12,12.1,14.67,15.64,17.7,16.11,10.2,4.82,2.58
La Garenne-Colombes,48.90472,2.2469,FR,26385,3009169,La Garenne-Colombes,1.71,6.29,6.02,8.62,12.45,15.07,16.07,18.06,16.42,10.57,5.32,3.21
La Garde,43.12468,6.01033,FR,28257,3009223,La Garde,7.94,10.68,10.88,12.99,15.54,20.23,22.91,25.11,21.43,15.63,11.01,6.45
La Flèche,47.69815,-0.07553,FR,18536,3009443,La Flèche,2.88,7.21,6.68,9.48,12.82,15.53,16.72,18.55,17.0,11.39,5.9,4.26
La Crau,43.14962,6.07399,FR,17905,3009791,La Crau,7.04,9.42,9.57,11.56,14.22,18.49,20.89,23.78,20.42,15.06,10.11,6.19
La Courneuve,48.92805,2.39627,FR,37287,3009824,La Courneuve,1.64,6.27,6.05,8.63,12.5,15.14,16.09,18.09,16.43,10.56,5.25,3.08
La Ciotat,43.17476,5.60449,FR,33113,3010025,La Ciotat,7.81,10.09,9.97,11.66,14.46,18.28,19.77,23.05,20.39,15.26,10.78,6.8
La Chapelle-sur-Erdre,47.29964,-1.55239,FR,18481,3010237,La Chapelle-sur-Erdre,3.58,7.71,6.88,9.61,12.69,15.35,16.4,18.02,16.73,11.72,6.56,5.19
La Celle-Saint-Cloud,48.85029,2.14523,FR,21539,3010529,La Celle-Saint-Cloud,1.16,5.71,5.39,8.0,11.79,14.41,15.43,17.42,15.81,9.97,4.76,2.69
Jouy-le-Moutier,49.01068,2.04028,FR,19087,3012162,Jouy-le-Moutier,1.51,6.03,5.7,8.29,12.03,14.68,15.69,17.64,16.04,10.29,5.14,3.18
Joué-lès-Tours,47.34907,0.66513,FR,37466,3012219,Joué-lès-Tours,2.39,6.88,6.44,9.01,12.61,15.38,16.69,18.66,17.21,11.1,5.5,3.45
Joinville-le-Pont,48.82538,2.47458,FR,18154,3012313,Joinville-le-Pont,1.72,6.38,6.12,8.64,12.57,15.16,16.14,18.21,16.58,10.64,5.26,3.03
Ivry-sur-Seine,48.81568,2.38487,FR,57897,3012621,Ivry-sur-Seine,1.72,6.36,6.12,8.67,12.57,15.18,16.16,18.21,16.55,10.64,5.29,3.07
Istres,43.51345,4.98747,FR,44373,3012647,Istres,5.42,9.06,9.2,11.27,15.08,19.62,21.36,24.11,20.79,14.25,8.7,3.98
Issy-les-Moulineaux,48.82104,2.27718,FR,61447,3012649,Issy-les-Moulineaux,1.61,6.21,5.95,8.52,12.39,15.0,16.0,18.04,16.41,10.49,5.18,2.98
Issoire,45.54422,3.24901,FR,15984,3012664,Issoire,1.06,5.64,5.0,6.7,10.86,14.0,15.89,18.09,16.14,9.66,3.33,0.36
Illzach,47.7742,7.35175,FR,15457,3012829,Illzach,-0.41,4.08,5.4,6.98,11.4,14.52,15.55,17.95,15.53,8.78,2.97,-0.23
Illkirch-Graffenstaden,48.52894,7.71523,FR,27261,3012834,Illkirch-Graffenstaden,-0.07,4.66,5.83,7.47,12.03,15.23,15.95,18.16,15.88,9.23,3.68,0.79
Hyères,43.12038,6.12857,FR,50487,3012937,Hyères,6.99,9.36,9.52,11.51,14.17,18.43,20.85,23.73,20.37,15.01,10.06,6.14
Houilles,48.92161,2.19263,FR,31121,3013097,Houilles,1.81,6.39,6.12,8.72,12.55,15.17,16.17,18.16,16.52,10.67,5.42,3.31
Hérouville-Saint-Clair,49.21088,-0.30653,FR,24258,3013403,Hérouville-Saint-Clair,2.43,6.99,6.3,8.91,12.03,15.02,15.97,17.61,16.15,11.01,6.42,5.48
Herblay,48.98994,2.1699,FR,25153,3013477,Herblay,1.55,6.11,5.82,8.42,12.21,14.85,15.83,17.79,16.18,10.39,5.19,3.14
Hénin-Beaumont,50.41359,2.96485,FR,25371,3013525,Hénin-Beaumont,1.16,6.21,5.53,8.0,11.96,14.66,15.52,17.11,15.76,9.94,5.02,3.63
Hem,50.65256,3.18681,FR,19699,3013549,Hem,1.24,6.18,5.49,7.99,12.14,14.77,15.56,17.07,15.75,9.92,5.16,3.83
Hazebrouck,50.72374,2.53729,FR,23307,3013619,Hazebrouck,1.49,6.21,5.52,8.01,11.78,14.61,15.41,17.0,15.67,10.02,5.47,4.51
Hayange,49.32881,6.06278,FR,15501,3013627,Hayange,0.11,4.82,5.54,7.24,11.79,14.6,15.25,17.22,15.42,9.27,3.74,1.24
Hautmont,50.25077,3.92143,FR,15540,3013681,Hautmont,0.43,5.6,4.87,7.3,11.39,14.19,14.98,16.52,15.23,9.37,4.21,2.26
Yutz,49.35571,6.1926,FR,15659,3013701,Yutz,0.04,4.79,5.6,7.39,11.95,14.76,15.37,17.26,15.39,9.25,3.7,1.22
Haubourdin,50.60826,2.99143,FR,15694,3013862,Haubourdin,1.21,6.18,5.5,7.95,11.99,14.69,15.51,17.07,15.71,9.91,5.14,3.86
Halluin,50.78628,3.12611,FR,20171,3014034,Halluin,1.44,6.3,5.64,8.12,12.21,14.87,15.66,17.17,15.89,10.09,5.42,4.22
Haguenau,48.81557,7.79051,FR,38721,3014078,Haguenau,-0.07,4.48,5.73,7.37,12.08,15.13,15.74,17.92,15.79,9.22,3.85,1.05
Guyancourt,48.77334,2.07393,FR,31989,3014143,Guyancourt,1.17,5.71,5.35,7.9,11.71,14.34,15.39,17.42,15.83,9.93,4.72,2.59
Gujan-Mestras,44.636,-1.06815,FR,19184,3014175,Gujan-Mestras,5.94,9.23,8.92,11.18,14.0,16.48,18.07,20.63,19.52,14.07,9.02,6.14
Guéret,46.17185,1.87166,FR,15853,3014383,Guéret,1.52,5.71,4.9,6.9,10.6,13.45,15.18,17.47,16.22,9.78,4.41,1.12
Guérande,47.32829,-2.42934,FR,16523,3014392,Guérande,4.51,8.24,7.41,9.92,12.71,15.03,16.09,17.62,16.68,12.4,7.38,6.64
Grigny,48.65412,2.39343,FR,24940,3014646,Grigny,1.57,6.2,5.94,8.46,12.37,14.97,15.97,18.06,16.47,10.47,5.08,2.84
Grenoble,45.17869,5.71479,FR,158552,3014728,Grenoble,1.65,6.31,6.19,8.4,12.99,16.42,18.23,20.46,18.32,11.29,5.35,0.01
Grasse,43.65783,6.92537,FR,47581,3014856,Grasse,4.14,6.9,7.55,9.25,12.37,17.31,19.66,21.96,18.8,13.04,8.2,3.87
Grande-Synthe,51.0154,2.29975,FR,23213,3015160,Grande-Synthe,2.15,6.48,5.74,8.23,11.78,14.84,15.56,17.17,15.97,10.51,6.27,5.42
Gradignan,44.77362,-0.61395,FR,24385,3015419,Gradignan,4.77,8.44,8.25,10.59,13.76,16.36,17.85,20.53,19.05,13.1,7.86,4.7
Goussainville,49.01367,2.46595,FR,30047,3015490,Goussainville,1.42,6.07,5.75,8.25,12.15,14.77,15.74,17.73,16.12,10.28,5.05,2.9
Gonesse,48.98693,2.44892,FR,26758,3015689,Gonesse,1.63,6.24,5.92,8.46,12.32,14.94,15.92,17.9,16.31,10.47,5.24,3.15
Givors,45.59063,4.76878,FR,18198,3015902,Givors,2.14,6.49,6.49,8.41,12.91,16.18,17.69,19.78,17.53,11.01,5.19,1.14
Gif-sur-Yvette,48.68333,2.13333,FR,23541,3016078,Gif-sur-Yvette,1.25,5.82,5.48,7.98,11.8,14.44,15.51,17.59,16.01,10.05,4.8,2.62
Gien,47.69332,2.63094,FR,15966,3016097,Gien,1.48,6.35,6.01,8.3,12.22,15.02,16.13,18.46,16.99,10.52,4.84,2.32
Gentilly,48.81294,2.3417,FR,15939,3016292,Gentilly,1.61,6.21,5.95,8.52,12.39,15.0,16.0,18.04,16.41,10.49,5.18,2.98
Gennevilliers,48.93333,2.3,FR,42294,3016321,Gennevilliers,1.68,6.29,6.08,8.68,12.53,15.16,16.14,18.13,16.45,10.6,5.31,3.15
Garges-lès-Gonesse,48.96791,2.39781,FR,39847,3016621,Garges-lès-Gonesse,1.53,6.14,5.82,8.36,12.22,14.84,15.82,17.8,16.21,10.37,5.14,3.05
Gardanne,43.45491,5.46913,FR,21140,3016667,Gardanne,4.86,8.05,8.22,10.24,13.78,18.25,20.31,23.16,19.58,13.35,8.3,2.96
Garches,48.84226,2.18232,FR,18930,3016675,Garches,1.26,5.83,5.51,8.06,11.91,14.52,15.55,17.59,15.99,10.07,4.81,2.66
Gap,44.55858,6.07868,FR,42715,3016702,Gap,-1.34,2.66,3.1,5.18,9.34,13.72,16.18,18.57,15.58,8.6,3.24,-2.8
Gagny,48.88333,2.53333,FR,38134,3016830,Gagny,1.48,6.13,5.88,8.42,12.33,14.94,15.9,17.92,16.28,10.39,5.06,2.87
Frontignan,43.44775,3.75524,FR,22251,3016956,Frontignan,6.61,9.9,9.35,11.61,14.74,18.42,20.2,23.0,20.14,14.57,9.83,6.09
Fresnes,48.75568,2.32241,FR,24803,3017178,Fresnes,1.61,6.21,5.95,8.52,12.39,15.0,16.0,18.04,16.41,10.49,5.18,2.98
Fréjus,43.43325,6.73555,FR,53098,3017253,Fréjus,6.85,9.31,9.71,11.48,14.42,19.08,21.47,23.88,20.81,15.24,10.53,6.14
Franconville,48.98333,2.23333,FR,34284,3017341,Franconville,1.5,6.06,5.77,8.37,12.17,14.8,15.78,17.74,16.13,10.34,5.14,3.09
Fougères,48.35157,-1.19961,FR,23719,3017609,Fougères,2.42,6.87,6.1,8.92,12.02,14.43,15.67,17.36,15.71,10.76,5.8,4.85
Fos-sur-Mer,43.43774,4.94457,FR,17317,3017651,Fos-sur-Mer,5.76,9.45,9.47,11.52,15.38,19.93,21.51,24.26,21.01,14.55,8.95,4.51
Forbach,49.18848,6.89255,FR,21358,3017805,Forbach,-0.2,4.45,5.42,7.09,11.77,14.63,15.24,17.3,15.32,8.94,3.53,0.83
Fontenay-sous-Bois,48.85442,2.48268,FR,52075,3017910,Fontenay-sous-Bois,1.48,6.13,5.88,8.42,12.33,14.94,15.9,17.92,16.28,10.39,5.06,2.87
Fontenay-le-Comte,46.46671,-0.80624,FR,16316,3017921,Fontenay-le-Comte,3.75,7.7,7.07,9.91,13.17,15.71,16.81,18.78,17.49,12.02,6.65,4.53
Fontenay-aux-Roses,48.79325,2.29275,FR,24680,3017924,Fontenay-aux-Roses,1.41,6.01,5.75,8.32,12.19,14.8,15.8,17.84,16.21,10.29,4.98,2.78
Fontainebleau,48.40908,2.70177,FR,19717,3018074,Fontainebleau,1.63,6.42,6.14,8.56,12.55,15.2,16.17,18.42,16.89,10.69,5.05,2.74
Fontaine,45.19275,5.68821,FR,24588,3018095,Fontaine,1.7,6.36,6.24,8.45,13.04,16.47,18.27,20.51,18.37,11.33,5.4,0.06
Floirac,44.83061,-0.52675,FR,16497,3018246,Floirac,5.03,8.7,8.51,10.82,14.0,16.6,18.15,20.81,19.35,13.37,8.11,4.96
Fleury-les-Aubrais,47.93328,1.91811,FR,21085,3018280,Fleury-les-Aubrais,1.57,6.39,6.14,8.55,12.35,15.03,16.28,18.52,16.94,10.64,5.0,2.65
Flers,48.73722,-0.57466,FR,17430,3018339,Flers,1.62,6.15,5.34,8.1,11.19,13.83,15.1,16.81,15.27,10.09,5.12,4.11
Firminy,45.38956,4.2886,FR,17902,3018455,Firminy,0.39,4.96,4.56,6.33,10.89,14.21,16.04,18.07,15.9,9.13,3.02,-0.64
Fécamp,49.75787,0.37457,FR,22003,3018794,Fécamp,3.37,7.12,6.51,8.72,11.45,14.18,15.36,17.12,16.1,11.46,7.24,6.23
Faches-Thumesnil,50.58333,3.06667,FR,16163,3019153,Faches-Thumesnil,1.14,6.11,5.42,7.87,11.95,14.64,15.44,16.99,15.65,9.84,5.05,3.71
Eysines,44.88442,-0.65141,FR,21394,3019193,Eysines,4.87,8.57,8.32,10.71,13.87,16.43,17.9,20.55,19.08,13.23,7.95,4.92
Évry,48.6328,2.44049,FR,51900,3019256,Évry,1.56,6.22,5.98,8.46,12.36,15.0,16.0,18.14,16.57,10.51,5.05,2.8
Évreux,49.02414,1.15082,FR,57795,3019265,Évreux,1.71,6.24,5.84,8.28,11.81,14.68,15.76,17.66,15.99,10.48,5.39,3.85
Étampes,48.43507,2.16233,FR,23012,3019459,Étampes,1.66,6.37,6.11,8.48,12.33,15.01,16.15,18.37,16.81,10.65,5.16,2.89
La Baule-Escoublac,47.29221,-2.36395,FR,17775,3019766,La Baule-Escoublac,4.66,8.38,7.56,10.07,12.86,15.18,16.24,17.76,16.83,12.56,7.53,6.79
Ermont,48.99004,2.25804,FR,28117,3019897,Ermont,1.62,6.21,5.91,8.47,12.3,14.92,15.9,17.88,16.28,10.45,5.24,3.18
Éragny,49.01667,2.1,FR,15385,3019952,Éragny,1.68,6.22,5.9,8.5,12.27,14.91,15.9,17.86,16.26,10.49,5.31,3.31
Équeurdreville-Hainneville,49.64868,-1.65306,FR,18862,3019960,Équeurdreville-Hainneville,4.89,7.95,6.86,9.37,11.72,14.31,15.49,16.91,16.09,11.93,8.4,7.54
Épinay-sur-Seine,48.9535,2.31514,FR,46145,3020020,Épinay-sur-Seine,1.78,6.36,6.05,8.62,12.45,15.07,16.05,18.03,16.43,10.61,5.39,3.33
Épinal,48.18324,6.45304,FR,39518,3020035,Épinal,-0.77,4.09,4.69,6.18,10.77,13.58,14.7,17.03,14.95,8.54,2.92,-0.41
Épernay,49.04,3.95922,FR,27082,3020062,Épernay,1.16,6.17,5.93,8.22,12.31,14.93,15.85,17.8,16.22,10.38,4.75,2.54
Elbeuf,49.28669,1.00288,FR,17231,3020307,Elbeuf,1.98,6.47,6.05,8.56,11.96,14.73,15.71,17.49,15.93,10.68,5.79,4.46
Élancourt,48.78421,1.9552,FR,30831,3020310,Élancourt,1.38,5.9,5.54,8.09,11.87,14.52,15.59,17.61,15.99,10.12,4.95,2.84
Écully,45.77437,4.77758,FR,19437,3020392,Écully,1.67,6.16,6.12,8.03,12.55,15.74,17.27,19.42,17.11,10.57,4.65,0.89
Échirolles,45.14603,5.71441,FR,33088,3020495,Échirolles,1.37,5.91,5.83,7.88,12.64,16.27,18.01,20.28,18.08,10.71,5.07,-0.26
Eaubonne,48.99712,2.28249,FR,24096,3020601,Eaubonne,1.62,6.21,5.91,8.47,12.3,14.92,15.9,17.88,16.28,10.45,5.24,3.18
Dunkerque,51.0344,2.37681,FR,71287,3020686,Dunkerque,2.0,6.42,5.7,8.21,11.82,14.88,15.57,17.18,15.94,10.43,6.16,5.28
Dreux,48.73649,1.36566,FR,31058,3020810,Dreux,1.51,6.09,5.71,8.21,11.87,14.66,15.82,17.83,16.11,10.36,5.07,3.27
Draveil,48.68466,2.41418,FR,29316,3020832,Draveil,1.71,6.35,6.09,8.61,12.52,15.12,16.12,18.22,16.62,10.62,5.23,2.99
Drancy,48.92578,2.44533,FR,62488,3020839,Drancy,1.54,6.17,5.95,8.53,12.4,15.04,15.99,17.99,16.33,10.46,5.15,2.98
Draguignan,43.53692,6.46458,FR,38573,3020850,Draguignan,4.93,7.92,8.51,10.59,13.39,18.29,20.97,23.31,19.6,13.66,8.7,4.15
Douarnenez,48.09542,-4.32904,FR,16590,3020996,Douarnenez,6.71,9.14,7.99,10.02,12.15,13.99,15.13,16.58,16.02,12.81,9.05,8.94
Douai,50.37069,3.07922,FR,46531,3021000,Douai,1.18,6.23,5.54,8.01,12.01,14.7,15.55,17.13,15.8,9.97,5.03,3.56
Domont,49.02782,2.32638,FR,16684,3021150,Domont,1.12,5.71,5.41,7.97,11.8,14.42,15.4,17.38,15.78,9.95,4.74,2.68
Dole,47.09225,5.48966,FR,25878,3021263,Dole,1.47,5.78,6.12,7.75,12.14,14.9,16.25,18.9,16.67,10.12,4.56,1.06
Dijon,47.31667,5.01667,FR,158002,3021372,Dijon,1.05,5.74,6.02,7.81,12.12,14.93,16.25,18.7,16.44,9.93,4.07,1.37
Digne-les-Bains,44.09252,6.23199,FR,18986,3021382,Digne-les-Bains,-1.31,4.02,4.48,6.82,10.32,14.8,17.41,19.86,16.57,9.97,4.82,0.19
Dieppe,49.9216,1.07772,FR,35707,3021411,Dieppe,2.24,6.63,6.06,8.42,11.78,14.61,15.51,17.23,15.96,10.76,6.14,5.07
Deuil-la-Barre,48.97674,2.32722,FR,21560,3021516,Deuil-la-Barre,1.62,6.21,5.91,8.47,12.3,14.92,15.9,17.88,16.28,10.45,5.24,3.18
Denain,50.3293,3.3943,FR,21412,3021605,Denain,1.09,6.22,5.52,7.96,12.01,14.71,15.57,17.11,15.82,9.99,4.91,3.15
Décines-Charpieu,45.76873,4.95883,FR,24674,3021662,Décines-Charpieu,1.75,6.12,6.11,7.97,12.48,15.7,17.26,19.42,17.28,10.68,4.91,0.78
Dax,43.71032,-1.05366,FR,22305,3021670,Dax,6.42,9.38,9.19,11.05,13.71,16.27,17.85,20.48,19.45,13.91,9.09,5.49
Dammarie-les-Lys,48.51667,2.65,FR,21066,3021852,Dammarie-les-Lys,1.7,6.43,6.17,8.61,12.57,15.2,16.18,18.4,16.87,10.71,5.14,2.85
Cugnaux,43.53635,1.34428,FR,15393,3022151,Cugnaux,4.24,8.4,7.99,9.71,13.05,16.11,18.28,20.83,19.04,12.94,8.06,3.97
Croix,50.67846,3.1493,FR,21361,3022376,Croix,1.21,6.13,5.45,7.92,12.03,14.69,15.48,17.01,15.67,9.87,5.15,3.87
Créteil,48.79266,2.46569,FR,84833,3022530,Créteil,1.67,6.33,6.07,8.59,12.52,15.11,16.09,18.16,16.52,10.59,5.21,2.98
Crépy-en-Valois,49.23359,2.88807,FR,15694,3022569,Crépy-en-Valois,1.23,6.06,5.6,8.0,11.98,14.55,15.53,17.49,15.99,10.14,4.91,2.75
Creil,49.25672,2.48477,FR,31863,3022610,Creil,1.33,6.05,5.66,8.2,12.05,14.63,15.61,17.5,15.97,10.23,5.08,3.06
Cran-Gevrier,45.9,6.1,FR,19354,3022700,Cran-Gevrier,-0.96,3.52,4.38,6.51,11.1,14.01,15.97,18.32,16.14,8.9,3.46,-2.48
Cournon-d'Auvergne,45.74123,3.19643,FR,18848,3022988,Cournon-d'Auvergne,0.97,5.54,4.81,6.52,10.65,13.79,15.68,17.86,15.96,9.52,3.3,0.25
Courbevoie,48.89672,2.25666,FR,85158,3023141,Courbevoie,1.58,6.19,5.98,8.58,12.43,15.06,16.04,18.03,16.35,10.5,5.21,3.05
Coulommiers,48.81451,3.08498,FR,15274,3023240,Coulommiers,1.47,6.32,6.01,8.38,12.48,14.96,15.93,18.09,16.51,10.53,4.94,2.65
Couëron,47.21473,-1.72452,FR,19466,3023324,Couëron,3.78,7.93,7.07,9.8,12.84,15.41,16.47,18.06,16.84,11.94,6.74,5.45
Coudekerque-Branche,51.02288,2.39359,FR,25201,3023356,Coudekerque-Branche,2.0,6.42,5.7,8.21,11.82,14.88,15.57,17.18,15.94,10.43,6.16,5.28
Cormeilles-en-Parisis,48.97111,2.20491,FR,21973,3023645,Cormeilles-en-Parisis,1.45,6.01,5.72,8.32,12.11,14.75,15.73,17.69,16.08,10.29,5.09,3.04
Corbeil-Essonnes,48.60603,2.48757,FR,40527,3023763,Corbeil-Essonnes,1.79,6.48,6.24,8.71,12.63,15.26,16.24,18.39,16.81,10.76,5.28,3.01
Conflans-Sainte-Honorine,49.00158,2.09694,FR,36358,3023924,Conflans-Sainte-Honorine,1.73,6.27,5.96,8.55,12.32,14.96,15.95,17.91,16.31,10.54,5.36,3.36
Concarneau,47.87536,-3.91896,FR,21397,3024035,Concarneau,5.43,8.66,7.48,9.95,12.5,14.57,15.68,17.22,16.17,12.29,7.93,7.78
Compiègne,49.41794,2.82606,FR,44243,3024066,Compiègne,1.34,6.21,5.77,8.25,12.18,14.75,15.72,17.57,16.08,10.29,5.13,3.06
Combs-la-Ville,48.66497,2.56957,FR,22322,3024107,Combs-la-Ville,1.51,6.19,5.92,8.36,12.32,14.93,15.89,18.01,16.41,10.43,4.99,2.73
Pontault-Combault,48.79813,2.60676,FR,34798,3024195,Pontault-Combault,1.37,6.05,5.75,8.21,12.18,14.76,15.73,17.83,16.24,10.28,4.88,2.64
Colomiers,43.61058,1.33467,FR,31363,3024223,Colomiers,3.98,8.2,7.82,9.6,12.97,15.97,18.11,20.52,18.74,12.72,7.91,3.73
Colombes,48.91882,2.25404,FR,82300,3024266,Colombes,1.64,6.24,6.03,8.62,12.48,15.12,16.09,18.08,16.4,10.55,5.26,3.1
Colmar,48.08078,7.35584,FR,65405,3024297,Colmar,-0.01,4.71,5.92,7.66,12.04,15.23,16.17,18.42,16.02,9.21,3.36,0.18
Cognac,45.69581,-0.32867,FR,20868,3024440,Cognac,4.19,8.14,7.58,10.09,13.45,16.07,17.28,19.76,18.28,12.41,7.06,4.45
Cluses,46.06251,6.57497,FR,19789,3024532,Cluses,-1.01,3.38,4.6,5.72,10.59,14.47,16.63,19.18,16.71,8.83,3.76,-2.36
Clichy-sous-Bois,48.9102,2.55323,FR,29062,3024596,Clichy-sous-Bois,1.18,5.87,5.57,8.07,12.02,14.61,15.57,17.62,16.01,10.1,4.74,2.54
Clichy,48.90018,2.30952,FR,57467,3024597,Clichy,1.68,6.29,6.08,8.68,12.53,15.16,16.14,18.13,16.45,10.6,5.31,3.15
Clermont-Ferrand,45.77969,3.08682,FR,147865,3024635,Clermont-Ferrand,0.94,5.42,4.71,6.46,10.57,13.67,15.55,17.7,15.83,9.38,3.23,0.26
Clamart,48.80299,2.26692,FR,51400,3024783,Clamart,1.41,6.01,5.75,8.32,12.19,14.8,15.8,17.84,16.21,10.29,4.98,2.78
Cholet,47.05893,-0.87974,FR,53160,3025053,Cholet,3.11,7.29,6.49,9.22,12.48,15.22,16.33,18.1,16.89,11.42,6.14,4.38
Choisy-le-Roi,48.76846,2.41874,FR,35590,3025055,Choisy-le-Roi,1.77,6.4,6.17,8.72,12.62,15.23,16.21,18.26,16.6,10.68,5.34,3.12
Chilly-Mazarin,48.71489,2.31638,FR,18870,3025144,Chilly-Mazarin,1.6,6.22,5.94,8.45,12.34,14.95,15.98,18.06,16.47,10.48,5.13,2.91
Chevilly-Larue,48.76476,2.3503,FR,20125,3025314,Chevilly-Larue,1.37,6.0,5.77,8.32,12.22,14.83,15.81,17.86,16.2,10.28,4.94,2.72
Cherbourg-Octeville,49.63984,-1.61636,FR,26655,3025466,Cherbourg-Octeville,4.98,8.01,6.94,9.41,11.72,14.35,15.55,16.99,16.2,12.05,8.5,7.59
Chenôve,47.29323,5.00457,FR,15791,3025496,Chenôve,0.85,5.54,5.82,7.61,11.92,14.73,16.05,18.5,16.24,9.73,3.87,1.17
Chennevières-sur-Marne,48.79702,2.54046,FR,18314,3025509,Chennevières-sur-Marne,1.32,5.98,5.72,8.24,12.17,14.76,15.74,17.81,16.18,10.24,4.86,2.63
Chelles,48.88109,2.59295,FR,46947,3025622,Chelles,1.68,6.37,6.07,8.57,12.52,15.11,16.07,18.12,16.51,10.6,5.24,3.04
Chaville,48.80565,2.18864,FR,18735,3025715,Chaville,1.51,6.08,5.76,8.31,12.16,14.77,15.8,17.84,16.24,10.32,5.06,2.91
Chaumont,48.11121,5.14134,FR,28981,3025892,Chaumont,0.2,5.14,5.19,7.03,11.31,13.99,15.15,17.45,15.54,9.29,3.46,0.76
Chatou,48.8898,2.15863,FR,30091,3026033,Chatou,1.71,6.29,6.02,8.62,12.45,15.07,16.07,18.06,16.42,10.57,5.32,3.21
Châtillon,48.8024,2.29346,FR,32383,3026083,Châtillon,1.36,5.96,5.7,8.27,12.14,14.75,15.75,17.79,16.16,10.24,4.92,2.73
Châtenay-Malabry,48.76507,2.26655,FR,32715,3026108,Châtenay-Malabry,1.21,5.81,5.55,8.12,11.99,14.6,15.6,17.64,16.01,10.09,4.78,2.58
Châtellerault,46.81705,0.54518,FR,37210,3026141,Châtellerault,3.09,7.41,6.82,9.36,12.99,15.77,16.97,19.14,17.81,11.6,6.21,3.89
Château-Thierry,49.04636,3.40304,FR,15938,3026194,Château-Thierry,1.22,6.16,5.75,8.16,12.29,14.78,15.75,17.79,16.27,10.33,4.78,2.54
Châteauroux,46.81248,1.69362,FR,53301,3026204,Châteauroux,2.27,6.76,6.3,8.49,12.27,15.16,16.67,18.92,17.42,10.94,5.33,2.66
Châteaudun,48.07086,1.33783,FR,16006,3026285,Châteaudun,1.35,5.99,5.74,8.17,11.89,14.6,15.99,18.04,16.33,10.31,4.77,2.69
Chartres,48.44685,1.48925,FR,43838,3026467,Chartres,1.11,5.78,5.48,7.93,11.71,14.44,15.69,17.77,16.03,10.07,4.63,2.62
Charleville-Mézières,49.7685,4.72487,FR,52415,3026613,Charleville-Mézières,0.17,5.4,5.2,7.59,11.79,14.36,15.17,16.81,15.26,9.42,4.0,1.48
Charenton-le-Pont,48.82209,2.41217,FR,30910,3026637,Charenton-le-Pont,1.62,6.26,6.02,8.57,12.47,15.08,16.06,18.11,16.45,10.54,5.19,2.97
Champs-sur-Marne,48.85,2.6,FR,27776,3027014,Champs-sur-Marne,1.48,6.17,5.87,8.37,12.32,14.91,15.87,17.92,16.31,10.4,5.04,2.84
Champigny-sur-Marne,48.81642,2.49366,FR,76726,3027105,Champigny-sur-Marne,1.72,6.38,6.12,8.64,12.57,15.16,16.14,18.21,16.58,10.64,5.26,3.03
Chambéry,45.56628,5.92079,FR,61640,3027422,Chambéry,0.84,5.52,5.96,8.2,12.67,15.71,17.58,19.88,17.71,10.44,4.49,-0.73
Chamalières,45.77364,3.06703,FR,20298,3027453,Chamalières,0.89,5.37,4.67,6.41,10.51,13.62,15.5,17.65,15.78,9.33,3.18,0.21
Chalon-sur-Saône,46.78112,4.85372,FR,47251,3027484,Chalon-sur-Saône,1.49,6.3,6.36,8.35,12.57,15.44,16.83,19.28,16.98,10.49,4.49,1.51
Châlons-en-Champagne,48.95393,4.36724,FR,51257,3027487,Châlons-en-Champagne,0.93,6.03,5.94,8.13,12.33,14.96,15.78,17.73,16.1,10.23,4.51,2.25
Challans,46.8458,-1.87942,FR,18947,3027513,Challans,4.63,8.42,7.63,10.23,13.14,15.55,16.68,18.29,17.29,12.78,7.54,6.37
Cestas,44.74471,-0.68194,FR,18036,3027763,Cestas,4.92,8.54,8.3,10.63,13.71,16.27,17.89,20.57,19.18,13.21,8.06,4.87
Cesson-Sévigné,48.1212,-1.603,FR,16222,3027767,Cesson-Sévigné,2.9,7.34,6.49,9.35,12.39,14.99,16.08,17.74,16.03,11.15,6.12,5.27
Cergy,49.03645,2.07613,FR,57576,3027883,Cergy,1.68,6.22,5.9,8.5,12.27,14.91,15.9,17.86,16.26,10.49,5.31,3.31
Cenon,44.85614,-0.53355,FR,22393,3027950,Cenon,4.9,8.64,8.42,10.78,13.97,16.56,18.02,20.63,19.14,13.26,7.96,4.9
Cavaillon,43.83125,5.03586,FR,26689,3028134,Cavaillon,4.41,8.14,8.38,10.43,14.29,19.03,21.36,23.92,20.42,13.46,7.88,2.55
Castres,43.60527,2.24088,FR,47275,3028263,Castres,3.79,7.92,7.45,9.19,12.7,15.74,18.03,20.16,18.35,12.37,7.49,3.22
Castelnau-le-Lez,43.63605,3.90137,FR,18011,3028337,Castelnau-le-Lez,5.6,9.14,8.8,11.08,14.39,18.47,20.5,23.03,19.9,13.87,8.77,4.97
Carvin,50.49235,2.95815,FR,18561,3028486,Carvin,1.2,6.22,5.53,7.99,11.99,14.7,15.53,17.1,15.75,9.94,5.09,3.77
Carrières-sous-Poissy,48.94952,2.04068,FR,15465,3028521,Carrières-sous-Poissy,1.91,6.44,6.11,8.7,12.46,15.1,16.14,18.12,16.5,10.7,5.51,3.48
Carquefou,47.29722,-1.4921,FR,18056,3028535,Carquefou,3.43,7.58,6.77,9.54,12.65,15.31,16.34,17.97,16.67,11.61,6.41,4.99
Carpentras,44.05507,5.04813,FR,29709,3028542,Carpentras,3.66,7.34,7.65,9.78,13.7,18.17,20.41,22.99,19.54,12.45,6.79,2.02
Carcassonne,43.21649,2.34863,FR,49600,3028641,Carcassonne,3.98,8.38,8.08,9.71,13.11,16.19,18.6,21.08,18.73,12.85,7.42,3.9
Canteleu,49.44065,1.02459,FR,15742,3028779,Canteleu,1.23,5.76,5.35,7.91,11.35,14.07,15.01,16.76,15.21,9.95,5.08,3.8
Cannes,43.55135,7.01275,FR,74545,3028808,Cannes,6.5,8.65,9.24,10.81,13.85,18.33,20.63,23.2,20.15,15.05,10.13,6.36
Cambrai,50.17596,3.23472,FR,36492,3029030,Cambrai,0.95,6.06,5.4,7.81,11.77,14.46,15.39,16.99,15.68,9.86,4.79,3.05
Caluire-et-Cuire,45.79462,4.8464,FR,42763,3029096,Caluire-et-Cuire,1.57,6.06,6.02,7.93,12.45,15.64,17.17,19.32,17.01,10.47,4.55,0.79
Calais,50.95194,1.85635,FR,74433,3029162,Calais,2.21,6.53,5.83,8.44,11.6,14.44,15.31,17.05,15.71,10.13,6.22,5.76
Cahors,44.4491,1.43663,FR,23331,3029213,Cahors,4.22,8.26,7.74,10.01,13.38,16.29,18.18,20.48,18.77,12.48,7.83,3.6
Cagnes-sur-Mer,43.66352,7.1479,FR,46923,3029227,Cagnes-sur-Mer,6.4,8.55,9.14,10.71,13.75,18.23,20.53,23.1,20.05,14.95,10.03,6.26
Caen,49.18585,-0.35912,FR,110624,3029241,Caen,2.46,7.0,6.26,8.87,11.95,14.96,15.93,17.56,16.11,11.0,6.45,5.52
Cachan,48.79632,2.33661,FR,26540,3029276,Cachan,1.76,6.36,6.1,8.67,12.54,15.15,16.15,18.19,16.56,10.64,5.32,3.13
Bry-sur-Marne,48.83811,2.52488,FR,16226,3029706,Bry-sur-Marne,1.62,6.28,6.02,8.54,12.47,15.06,16.04,18.11,16.48,10.54,5.16,2.93
Brunoy,48.6942,2.49223,FR,24096,3029748,Brunoy,1.51,6.16,5.92,8.4,12.34,14.95,15.93,18.03,16.41,10.43,5.01,2.76
Bruay-la-Buissière,50.48333,2.55,FR,24474,3029825,Bruay-la-Buissière,1.26,6.07,5.38,7.84,11.63,14.35,15.25,16.86,15.56,9.87,5.12,4.02
Bron,45.73865,4.91303,FR,37825,3029931,Bron,1.84,6.19,6.19,8.11,12.61,15.88,17.39,19.48,17.23,10.71,4.89,0.84
Brive-la-Gaillarde,45.1589,1.53326,FR,53466,3029974,Brive-la-Gaillarde,3.85,7.51,7.27,9.57,13.03,15.66,17.42,19.97,18.17,11.64,6.67,2.92
Brignoles,43.4058,6.06172,FR,15027,3030057,Brignoles,4.55,7.62,7.98,10.05,13.08,17.89,20.91,23.43,19.24,13.05,8.06,2.77
Brie-Comte-Robert,48.69247,2.6109,FR,15892,3030101,Brie-Comte-Robert,1.51,6.19,5.92,8.36,12.32,14.93,15.89,18.01,16.41,10.43,4.99,2.73
Brétigny-sur-Orge,48.61135,2.30593,FR,24317,3030257,Brétigny-sur-Orge,1.6,6.26,6.01,8.49,12.36,15.0,16.03,18.16,16.6,10.55,5.12,2.88
Brest,48.39029,-4.48628,FR,144899,3030300,Brest,6.4,8.88,7.45,9.67,11.74,13.86,14.99,16.36,15.51,12.1,8.8,8.58
Bressuire,46.84158,-0.49042,FR,20743,3030303,Bressuire,2.62,6.83,6.02,8.79,12.15,14.8,15.96,17.91,16.68,11.01,5.66,3.71
Bourg-lès-Valence,44.94703,4.89463,FR,19770,3030985,Bourg-lès-Valence,2.58,6.75,6.79,8.84,13.19,16.96,18.47,20.87,18.17,11.48,5.59,1.14
Bourg-la-Reine,48.77888,2.31781,FR,18870,3030990,Bourg-la-Reine,1.66,6.26,6.0,8.57,12.44,15.05,16.05,18.09,16.46,10.54,5.22,3.03
Bourges,47.08333,2.4,FR,67987,3031005,Bourges,1.94,6.66,6.35,8.62,12.55,15.22,16.56,18.84,17.16,10.75,5.03,2.3
Bourg-en-Bresse,46.20574,5.2258,FR,45340,3031009,Bourg-en-Bresse,1.54,6.04,6.01,7.78,12.21,15.15,16.74,19.18,17.06,10.5,4.98,0.41
Boulogne-sur-Mer,50.72571,1.61392,FR,47013,3031133,Boulogne-sur-Mer,2.32,6.41,5.55,7.9,11.23,13.91,14.86,16.46,15.51,10.43,6.09,5.43
Boulogne-Billancourt,48.83545,2.24128,FR,108782,3031137,Boulogne-Billancourt,1.91,6.48,6.16,8.71,12.56,15.17,16.2,18.24,16.64,10.72,5.46,3.31
Bouguenais,47.17941,-1.62468,FR,16824,3031268,Bouguenais,3.63,7.79,6.94,9.71,12.79,15.39,16.45,18.06,16.8,11.8,6.61,5.21
Bordeaux,44.84044,-0.5805,FR,260958,3031582,Bordeaux,4.87,8.54,8.35,10.69,13.86,16.46,17.95,20.63,19.15,13.2,7.97,4.8
Bonneuil-sur-Marne,48.7695,2.4793,FR,18723,3031709,Bonneuil-sur-Marne,1.67,6.33,6.07,8.59,12.52,15.11,16.09,18.16,16.52,10.59,5.21,2.98
Bondy,48.9018,2.48931,FR,48268,3031815,Bondy,1.58,6.23,5.98,8.52,12.43,15.04,16.0,18.02,16.38,10.49,5.16,2.97
Boissy-Saint-Léger,48.75149,2.51163,FR,15877,3031898,Boissy-Saint-Léger,1.42,6.08,5.82,8.34,12.27,14.86,15.84,17.91,16.28,10.34,4.96,2.73
Bois-Colombes,48.91936,2.27485,FR,24300,3032070,Bois-Colombes,1.68,6.29,6.08,8.68,12.53,15.16,16.14,18.13,16.45,10.6,5.31,3.15
Bobigny,48.90982,2.45012,FR,44962,3032179,Bobigny,1.58,6.23,5.98,8.52,12.43,15.04,16.0,18.02,16.38,10.49,5.16,2.97
Blois,47.59432,1.32912,FR,53660,3032213,Blois,1.89,6.56,6.28,8.72,12.47,15.18,16.56,18.69,17.09,10.8,5.13,2.99
Blanquefort,44.91065,-0.63758,FR,16636,3032340,Blanquefort,4.76,8.48,8.25,10.64,13.82,16.39,17.83,20.46,18.98,13.11,7.82,4.77
Blagnac,43.63675,1.38971,FR,24263,3032469,Blagnac,4.08,8.4,8.0,9.83,13.21,16.23,18.39,20.79,18.93,12.93,8.1,3.87
Bischheim,48.61612,7.75343,FR,17434,3032551,Bischheim,-0.18,4.48,5.7,7.3,11.98,15.1,15.76,18.0,15.79,9.13,3.68,0.7
Biarritz,43.48055,-1.55684,FR,33188,3032797,Biarritz,7.69,10.25,9.63,10.98,13.37,16.09,17.36,19.86,19.41,14.75,10.64,7.19
Bezons,48.92426,2.2128,FR,27570,3032824,Bezons,1.81,6.39,6.12,8.72,12.55,15.17,16.17,18.16,16.52,10.67,5.42,3.31
Béziers,43.34122,3.21402,FR,74081,3032833,Béziers,5.37,9.15,8.48,10.61,13.88,17.52,19.82,22.51,19.71,13.79,8.8,4.77
Béthune,50.52965,2.64003,FR,31568,3033002,Béthune,1.41,6.21,5.53,7.99,11.78,14.5,15.4,17.01,15.7,10.01,5.27,4.17
Besançon,47.24878,6.01815,FR,128426,3033123,Besançon,0.9,5.36,5.77,7.15,11.79,14.44,15.89,18.47,16.44,9.93,4.5,0.55
Bergerac,44.85157,0.48171,FR,28317,3033391,Bergerac,4.63,8.59,8.3,10.68,13.9,16.56,18.28,20.76,19.18,12.99,7.83,4.37
Berck,50.4,1.6,FR,15609,3033415,Berck,2.3,6.64,5.91,8.3,11.9,14.37,15.31,16.97,15.85,10.65,6.11,5.36
Berck-Plage,50.40704,1.56446,FR,15675,3033416,Berck-Plage,2.25,6.59,5.86,8.25,11.85,14.32,15.26,16.91,15.8,10.6,6.06,5.31
Belfort,47.64218,6.85385,FR,54562,3033791,Belfort,-0.02,4.26,5.42,6.91,11.27,14.15,15.34,17.81,15.55,8.96,3.35,-0.05
Bègles,44.80759,-0.55144,FR,23504,3033881,Bègles,4.92,8.59,8.41,10.74,13.91,16.51,18.0,20.68,19.2,13.25,8.01,4.85
Beauvais,49.43333,2.08333,FR,53393,3034006,Beauvais,1.44,6.07,5.66,8.2,11.91,14.57,15.61,17.45,15.91,10.28,5.22,3.45
Beaune,47.02413,4.83887,FR,24162,3034126,Beaune,1.32,5.99,6.13,7.99,12.27,15.15,16.51,18.99,16.7,10.21,4.24,1.51
Bayonne,43.49316,-1.473,FR,44396,3034475,Bayonne,7.46,10.06,9.57,10.99,13.45,16.1,17.42,19.88,19.28,14.57,10.29,6.95
Bayeux,49.27732,-0.7039,FR,15963,3034483,Bayeux,2.83,7.09,6.27,8.89,11.8,14.83,15.79,17.38,15.98,11.15,6.83,5.91
Bastia,42.70219,9.45123,FR,41001,3034640,Bastia,9.08,10.43,11.07,12.03,14.84,19.31,21.21,23.88,21.37,16.71,12.83,8.64
Bar-le-Duc,48.77275,5.16108,FR,18595,3034911,Bar-le-Duc,0.69,5.64,5.76,7.62,11.99,14.6,15.46,17.65,16.01,9.88,4.11,1.67
Balma,43.61111,1.49944,FR,15553,3035204,Balma,3.98,8.38,7.92,9.72,13.14,16.19,18.39,20.79,18.88,12.88,8.09,3.78
Bagnols-sur-Cèze,44.16259,4.61974,FR,19640,3035396,Bagnols-sur-Cèze,4.46,8.21,8.5,10.62,14.39,19.06,21.24,23.69,20.28,13.34,7.47,3.12
Bagnolet,48.86667,2.41667,FR,33504,3035403,Bagnolet,1.29,5.93,5.7,8.27,12.15,14.79,15.74,17.74,16.08,10.21,4.9,2.73
Bagneux,48.79565,2.30796,FR,38900,3035409,Bagneux,1.36,5.96,5.7,8.27,12.14,14.75,15.75,17.79,16.16,10.24,4.92,2.73
Avon,48.40219,2.72022,FR,15009,3035654,Avon,1.63,6.42,6.14,8.56,12.55,15.2,16.17,18.42,16.89,10.69,5.05,2.74
Avion,50.41038,2.83053,FR,18470,3035667,Avion,1.34,6.29,5.62,8.08,11.95,14.65,15.55,17.16,15.83,10.05,5.19,3.92
Avignon,43.94834,4.80892,FR,89769,3035681,Avignon,4.65,8.41,8.68,10.78,14.65,19.37,21.6,24.1,20.63,13.64,7.82,3.08
Auxerre,47.7996,3.57033,FR,41516,3035843,Auxerre,1.55,6.48,6.19,8.32,12.29,15.17,16.19,18.56,16.88,10.62,4.85,2.26
Autun,46.95104,4.29869,FR,18283,3035883,Autun,0.96,5.67,5.54,7.55,11.82,14.58,15.97,18.47,16.4,9.81,3.84,1.25
Aurillac,44.92539,2.43983,FR,34724,3036016,Aurillac,1.2,5.24,4.36,6.61,10.13,12.97,15.0,17.55,15.52,9.28,4.33,-0.34
Aulnay-sous-Bois,48.93814,2.49402,FR,80615,3036145,Aulnay-sous-Bois,1.63,6.28,6.02,8.57,12.48,15.09,16.05,18.07,16.43,10.54,5.21,3.03
Audincourt,47.48327,6.85341,FR,15577,3036240,Audincourt,-0.02,4.12,5.26,6.68,11.08,14.06,15.33,17.69,15.48,8.88,3.35,-0.07
Auch,43.64561,0.58856,FR,24494,3036281,Auch,5.04,8.76,8.46,10.16,13.29,16.31,18.45,20.96,19.49,13.31,8.41,4.55
Aubervilliers,48.91667,2.38333,FR,70914,3036386,Aubervilliers,1.64,6.27,6.05,8.63,12.5,15.14,16.09,18.09,16.43,10.56,5.25,3.08
Aubagne,43.29276,5.57067,FR,44844,3036433,Aubagne,7.11,9.39,9.27,10.96,13.76,17.58,19.07,22.35,19.69,14.56,10.08,6.1
Athis-Mons,48.70522,2.39147,FR,31225,3036460,Athis-Mons,1.81,6.45,6.19,8.71,12.62,15.22,16.22,18.32,16.72,10.72,5.33,3.09
Asnières-sur-Seine,48.91667,2.28333,FR,86742,3036572,Asnières-sur-Seine,1.68,6.29,6.08,8.68,12.53,15.16,16.14,18.13,16.45,10.6,5.31,3.15
Arras,50.29301,2.78186,FR,47052,3036784,Arras,1.04,6.02,5.37,7.83,11.69,14.37,15.31,16.92,15.58,9.81,4.89,3.52
Armentières,50.68568,2.88214,FR,26646,3036903,Armentières,1.37,6.24,5.58,8.01,12.03,14.74,15.54,17.1,15.75,9.98,5.34,4.17
Arles,43.67681,4.63031,FR,53431,3036938,Arles,5.19,9.24,9.19,11.33,15.18,19.95,21.87,24.42,20.98,14.2,8.3,4.05
Argenteuil,48.94788,2.24744,FR,101475,3037044,Argenteuil,1.76,6.33,6.07,8.67,12.5,15.12,16.11,18.11,16.47,10.62,5.37,3.26
Argentan,48.74441,-0.02023,FR,18230,3037051,Argentan,1.53,6.05,5.44,8.18,11.42,14.22,15.43,17.22,15.57,10.15,5.05,3.87
Arcueil,48.79993,2.33256,FR,17308,3037157,Arcueil,1.76,6.36,6.1,8.67,12.54,15.15,16.15,18.19,16.56,10.64,5.32,3.13
Antony,48.75329,2.29668,FR,59845,3037423,Antony,1.61,6.21,5.95,8.52,12.39,15.0,16.0,18.04,16.41,10.49,5.18,2.98
Antibes,43.58127,7.12487,FR,76393,3037456,Antibes,6.5,8.65,9.24,10.81,13.85,18.33,20.63,23.2,20.15,15.05,10.13,6.36
Annonay,45.23992,4.6707,FR,18423,3037514,Annonay,1.13,5.26,5.24,7.18,11.55,15.22,16.74,19.08,16.5,9.9,4.08,-0.43
Annemasse,46.19439,6.23775,FR,28275,3037538,Annemasse,-0.54,3.37,4.12,6.37,11.03,14.08,15.97,18.31,16.14,8.82,3.42,-1.79
Annecy-le-Vieux,45.91971,6.14393,FR,21521,3037540,Annecy-le-Vieux,-0.91,3.57,4.43,6.56,11.15,14.05,16.02,18.37,16.19,8.95,3.52,-2.43
Annecy,45.90878,6.12565,FR,49232,3037543,Annecy,-0.78,3.92,4.68,6.79,11.41,14.39,16.36,18.74,16.53,9.17,3.68,-2.5
Angoulême,45.64997,0.15345,FR,49468,3037598,Angoulême,3.89,7.85,7.3,9.67,13.08,15.69,17.07,19.58,18.14,12.06,6.72,3.89
Anglet,43.48921,-1.51921,FR,40658,3037612,Anglet,7.31,9.92,9.42,10.84,13.3,15.95,17.27,19.73,19.13,14.42,10.14,6.8
Angers,47.47156,-0.55202,FR,168279,3037656,Angers,3.0,7.23,6.57,9.42,12.68,15.4,16.49,18.24,16.82,11.42,5.99,4.38
Amiens,49.9,2.3,FR,143086,3037854,Amiens,1.44,6.23,5.67,8.1,11.89,14.55,15.54,17.23,15.84,10.2,5.3,3.84
Allauch,43.33573,5.48201,FR,21406,3038159,Allauch,5.77,8.5,8.49,10.28,13.44,17.59,19.37,22.43,19.33,13.68,8.96,4.38
Alfortville,48.80575,2.4204,FR,37290,3038213,Alfortville,1.72,6.36,6.12,8.67,12.57,15.18,16.16,18.21,16.55,10.64,5.29,3.07
Alès,44.12489,4.08082,FR,42410,3038224,Alès,3.68,7.62,7.9,10.04,13.57,18.05,20.5,22.68,19.21,12.44,6.94,2.57
Alençon,48.43476,0.09311,FR,30786,3038230,Alençon,1.43,5.9,5.49,8.34,11.67,14.32,15.58,17.4,15.66,10.14,4.85,3.47
Albi,43.9298,2.148,FR,52409,3038261,Albi,3.58,7.82,7.02,8.97,12.44,15.57,17.77,20.0,18.16,11.95,7.44,2.92
Albertville,45.67452,6.39061,FR,19113,3038266,Albertville,0.27,5.03,5.68,6.77,11.03,15.13,17.39,20.06,17.65,9.83,4.88,-1.79
Ajaccio,41.91886,8.73812,FR,54364,3038334,Ajaccio,9.81,11.26,11.33,12.34,14.98,18.97,20.91,23.73,21.66,17.07,14.08,9.17
Aix-les-Bains,45.69173,5.90863,FR,27651,3038350,Aix-les-Bains,1.24,5.63,6.27,8.47,12.99,15.93,17.76,20.06,17.89,10.64,4.83,-0.22
Aix-en-Provence,43.5283,5.44973,FR,146821,3038354,Aix-en-Provence,4.51,7.86,8.09,10.19,13.79,18.38,20.67,23.41,19.67,13.19,8.05,2.54
Agen,44.20199,0.62055,FR,34367,3038634,Agen,4.55,8.42,8.26,10.37,13.71,16.54,18.4,20.85,19.22,13.1,8.16,4.25
Agde,43.31083,3.47583,FR,23001,3038638,Agde,6.29,9.89,9.08,11.28,14.5,18.18,20.39,23.19,20.35,14.45,9.61,5.56
Achères,48.96115,2.06882,FR,22555,3038712,Achères,1.83,6.37,6.06,8.65,12.42,15.06,16.05,18.01,16.41,10.64,5.46,3.46
Abbeville,50.10521,1.83547,FR,26461,3038789,Abbeville,1.83,6.5,5.87,8.21,11.93,14.48,15.43,17.16,15.9,10.49,5.71,4.66
Villeneuve-d'Ascq,50.61669,3.16664,FR,62400,6543862,Villeneuve-d'Ascq,1.23,6.2,5.5,7.95,12.06,14.73,15.53,17.06,15.74,9.92,5.11,3.72
Lyon 02,45.75423,4.83089,FR,31303,6543968,Lyon 02,2.07,6.56,6.52,8.43,12.95,16.14,17.67,19.82,17.51,10.97,5.05,1.29
Lyon 03,45.76124,4.85184,FR,102725,6543969,Lyon 03,1.99,6.42,6.41,8.3,12.82,16.02,17.56,19.71,17.48,10.92,5.08,1.12
Lyon 04,45.77507,4.82712,FR,36064,6543970,Lyon 04,1.57,6.06,6.02,7.93,12.45,15.64,17.17,19.32,17.01,10.47,4.55,0.79
Lyon 05,45.76106,4.82677,FR,49664,6543971,Lyon 05,2.07,6.56,6.52,8.43,12.95,16.14,17.67,19.82,17.51,10.97,5.05,1.29
Lyon 06,45.76788,4.85064,FR,52862,6543972,Lyon 06,1.94,6.37,6.36,8.25,12.77,15.98,17.51,19.66,17.43,10.87,5.03,1.08
Lyon 07,45.74525,4.84197,FR,82573,6543973,Lyon 07,2.23,6.65,6.63,8.54,13.04,16.3,17.82,19.91,17.59,11.08,5.24,1.3
Lyon 08,45.73626,4.86866,FR,86154,6543974,Lyon 08,2.04,6.39,6.39,8.31,12.81,16.08,17.59,19.68,17.43,10.91,5.09,1.04
Lyon 09,45.77255,4.80326,FR,51983,6543975,Lyon 09,2.12,6.61,6.57,8.48,13.0,16.19,17.72,19.87,17.56,11.02,5.1,1.34
Les Ulis,48.68167,2.16944,FR,25785,6615536,Les Ulis,1.16,5.74,5.43,7.93,11.78,14.41,15.46,17.54,15.96,9.99,4.69,2.49
Bourgoin-Jallieu,45.58611,5.27361,FR,23517,6615539,Bourgoin-Jallieu,1.59,5.83,6.04,8.02,12.41,15.65,17.24,19.45,17.22,10.54,4.65,0.05
Lyon 01,45.76758,4.8345,FR,29641,6949674,Lyon 01,2.02,6.51,6.47,8.38,12.9,16.09,17.62,19.77,17.46,10.92,5.0,1.24
Marseille 01,43.29814,5.38407,FR,40919,7284882,Marseille 01,6.9,9.72,9.67,11.45,14.75,18.78,20.44,23.49,20.5,14.85,10.04,5.5
Marseille 02,43.29664,5.37034,FR,25779,7284883,Marseille 02,6.03,9.31,9.47,11.49,15.19,19.62,21.5,24.35,20.9,14.57,9.39,4.22
Marseille 03,43.30257,5.37583,FR,45414,7284884,Marseille 03,6.9,9.72,9.67,11.45,14.75,18.78,20.44,23.49,20.5,14.85,10.04,5.5
Marseille 04,43.30213,5.40141,FR,47193,7284885,Marseille 04,6.8,9.62,9.57,11.35,14.65,18.68,20.34,23.39,20.4,14.75,9.94,5.4
Marseille 05,43.29551,5.40055,FR,44583,7284886,Marseille 05,6.85,9.66,9.62,11.4,14.7,18.73,20.39,23.45,20.45,14.8,9.99,5.45
Marseille 06,43.28764,5.37918,FR,43360,7284887,Marseille 06,6.9,9.72,9.67,11.45,14.75,18.78,20.44,23.49,20.5,14.85,10.04,5.5
Marseille 07,43.28289,5.36021,FR,35981,7284888,Marseille 07,6.75,9.56,9.52,11.3,14.6,18.63,20.29,23.35,20.35,14.7,9.89,5.35
Marseille 08,43.27083,5.3821,FR,78837,7284889,Marseille 08,6.9,9.72,9.67,11.45,14.75,18.78,20.44,23.49,20.5,14.85,10.04,5.5
Marseille 10,43.27889,5.41523,FR,51299,7284890,Marseille 10,6.95,9.76,9.72,11.5,14.8,18.83,20.49,23.55,20.55,14.9,10.09,5.55
Marseille 09,43.25433,5.4057,FR,76868,7284891,Marseille 09,6.9,9.72,9.67,11.45,14.75,18.78,20.44,23.49,20.5,14.85,10.04,5.5
Marseille 11,43.2907,5.4384,FR,56792,7284892,Marseille 11,6.75,9.56,9.52,11.3,14.6,18.63,20.29,23.35,20.35,14.7,9.89,5.35
Marseille 12,43.29614,5.43617,FR,58734,7284893,Marseille 12,6.5,9.32,9.27,11.05,14.35,18.38,20.04,23.09,20.1,14.45,9.64,5.1
Marseille 13,43.31856,5.40836,FR,89316,7284894,Marseille 13,6.65,9.46,9.42,11.2,14.5,18.53,20.19,23.25,20.25,14.6,9.79,5.25
Marseille 14,43.34447,5.38004,FR,61920,7284895,Marseille 14,6.6,9.42,9.37,11.15,14.45,18.48,20.14,23.19,20.2,14.55,9.74,5.2
Marseille 15,43.37224,5.35386,FR,77770,7284896,Marseille 15,5.16,8.35,8.52,10.54,14.08,18.55,20.61,23.46,19.88,13.65,8.61,3.26
Marseille 16,43.35982,5.33421,FR,17630,7284897,Marseille 16,5.88,9.16,9.32,11.34,15.04,19.47,21.35,24.2,20.74,14.42,9.24,4.07
La Defense,48.89198,2.23881,FR,20000,8504417,La Defense,1.61,6.19,5.92,8.52,12.35,14.97,15.97,17.96,16.32,10.47,5.22,3.11
Saint-Quentin-en-Yvelines,48.77186,2.01891,FR,146598,8533870,Saint-Quentin-en-Yvelines,1.18,5.7,5.34,7.89,11.67,14.32,15.39,17.41,15.79,9.92,4.75,2.64
Cergy-Pontoise,49.03894,2.07805,FR,183430,8555643,Cergy-Pontoise,1.73,6.27,5.96,8.55,12.32,14.96,15.95,17.91,16.31,10.54,5.36,3.36
La Blancarde,43.30047,5.40563,FR,15292,11919748,La Blancarde,6.75,9.56,9.52,11.3,14.6,18.63,20.29,23.35,20.35,14.7,9.89,5.35
Le Camas,43.29469,5.39415,FR,16585,11919749,Le Camas,6.85,9.66,9.62,11.4,14.7,18.73,20.39,23.45,20.45,14.8,9.99,5.45
Saint-Barthélémy,43.33105,5.40241,FR,18655,11919779,Saint-Barthélémy,6.35,9.16,9.12,10.9,14.2,18.23,19.89,22.95,19.95,14.3,9.49,4.95
