name,latitude,longitude,country,population,id,city,jan,feb,mar,apr,may,jun,jul,aug,sep,oct,nov,dec
Yerres,48.71785,2.49338,FR,28897,2967245,Yerres,2.49,3.0,8.79,11.1,14.13,20.36,20.65,23.4,16.65,9.81,8.62,4.59
Wittenheim,47.8109,7.32756,FR,15747,2967318,Wittenheim,0.36,0.3,7.43,9.67,15.06,22.5,21.16,24.37,16.25,7.48,6.48,1.99
Wattrelos,50.70118,3.21812,FR,42826,2967421,Wattrelos,2.86,2.77,7.86,10.19,13.56,18.66,19.01,20.52,15.48,8.62,8.4,4.36
Wasquehal,50.67043,3.13382,FR,19320,2967438,Wasquehal,2.97,2.84,7.89,10.22,13.57,18.66,19.03,20.55,15.53,8.68,8.43,4.41
Voiron,45.36471,5.5856,FR,22114,2967758,Voiron,1.06,1.81,8.91,11.66,16.15,24.11,22.96,25.87,17.22,10.29,7.26,2.86
Vitry-sur-Seine,48.78716,2.40332,FR,81001,2967849,Vitry-sur-Seine,2.82,3.32,9.05,11.4,14.43,20.55,20.83,23.55,16.94,10.03,8.89,4.85
Vitry-le-François,48.72472,4.58439,FR,17250,2967856,Vitry-le-François,1.54,2.02,8.51,10.84,14.51,20.89,20.71,23.65,16.21,9.38,8.54,4.32
Vitrolles,43.46,5.24861,FR,38591,2967870,Vitrolles,3.84,4.33,9.42,12.6,18.54,25.2,25.68,27.68,19.05,13.53,10.49,6.38
Vitré,48.12279,-1.20983,FR,17266,2967879,Vitré,3.11,4.14,9.6,11.37,13.57,19.09,19.0,22.1,16.36,10.38,9.53,5.59
Viry-Châtillon,48.67211,2.39318,FR,31131,2967917,Viry-Châtillon,2.8,3.36,9.16,11.41,14.44,20.61,20.87,23.63,16.96,10.11,8.92,4.91
Viroflay,48.80078,2.16181,FR,16137,2967934,Viroflay,2.51,3.06,8.77,10.94,13.96,20.03,20.23,22.97,16.48,9.63,8.54,4.54
Vincennes,48.8486,2.43769,FR,45923,2968054,Vincennes,2.67,3.17,8.9,11.25,14.29,20.4,20.68,23.39,16.79,9.88,8.74,4.7
Villiers-sur-Marne,48.831,2.54844,FR,30252,2968142,Villiers-sur-Marne,2.39,2.89,8.69,10.99,14.01,20.14,20.44,23.16,16.53,9.63,8.5,4.46
Villiers-le-Bel,49.00875,2.39819,FR,27028,2968176,Villiers-le-Bel,2.56,3.01,8.69,10.99,13.97,19.92,20.24,22.82,16.43,9.52,8.56,4.54
Villeurbanne,45.76601,4.8795,FR,131445,2968254,Villeurbanne,2.02,2.72,8.92,12.18,16.91,24.87,23.32,26.34,17.5,10.85,8.44,4.32
Villers-lès-Nancy,48.67333,6.15283,FR,15899,2968368,Villers-lès-Nancy,0.45,0.5,7.64,10.09,14.74,21.51,20.62,23.7,15.79,8.45,7.64,2.97
Villepinte,48.96203,2.53253,FR,37114,2968482,Villepinte,2.7,3.12,8.79,11.14,14.13,20.12,20.47,23.06,16.59,9.69,8.73,4.68
Villeparisis,48.94208,2.61463,FR,23931,2968496,Villeparisis,2.56,3.05,8.86,11.17,14.15,20.23,20.61,23.24,16.68,9.74,8.7,4.65
Villeneuve-sur-Lot,44.40854,0.70415,FR,25869,2968515,Villeneuve-sur-Lot,4.48,5.18,11.25,13.68,16.19,23.77,22.93,26.29,19.49,13.34,11.15,7.19
Villeneuve-Saint-Georges,48.73219,2.44925,FR,30881,2968529,Villeneuve-Saint-Georges,2.85,3.41,9.21,11.46,14.49,20.66,20.92,23.67,17.01,10.16,8.97,4.96
Villeneuve-le-Roi,48.73684,2.40081,FR,17575,2968546,Villeneuve-le-Roi,2.5,3.06,8.86,11.11,14.14,20.31,20.57,23.33,16.66,9.81,8.62,4.61
Villeneuve-la-Garenne,48.93935,2.31478,FR,22036,2968555,Villeneuve-la-Garenne,2.81,3.26,8.93,11.34,14.37,20.4,20.7,23.35,16.81,9.89,8.78,4.72
Villenave-d'Ornon,44.77935,-0.56707,FR,30347,2968620,Villenave-d'Ornon,4.91,5.46,11.53,14.03,16.15,22.78,22.11,25.87,19.49,13.31,10.88,7.66
Villemomble,48.88333,2.5,FR,28001,2968653,Villemomble,2.55,3.01,8.76,11.14,14.13,20.21,20.57,23.2,16.63,9.68,8.62,4.56
Villejuif,48.7939,2.35992,FR,48048,2968705,Villejuif,2.32,2.82,8.55,10.9,13.93,20.05,20.33,23.05,16.44,9.53,8.39,4.35
Villefranche-sur-Saône,45.98967,4.71961,FR,32994,2968748,Villefranche-sur-Saône,2.08,2.95,9.11,12.39,17.03,24.63,23.5,26.38,17.45,10.87,8.57,4.43
Villefontaine,45.61278,5.15058,FR,19749,2968771,Villefontaine,1.42,1.91,8.61,11.7,16.4,24.84,23.27,26.23,17.35,10.26,7.43,3.22
Vigneux-sur-Seine,48.70291,2.41357,FR,26692,2969109,Vigneux-sur-Seine,2.85,3.41,9.21,11.46,14.49,20.66,20.92,23.67,17.01,10.16,8.97,4.96
Vierzon,47.22186,2.0684,FR,29876,2969257,Vierzon,2.63,3.49,9.53,12.02,14.84,21.67,21.14,25.31,16.95,10.75,8.96,5.06
Vienne,45.52569,4.87484,FR,32293,2969284,Vienne,2.11,2.81,8.93,12.25,17.13,25.15,23.71,26.39,17.61,11.09,8.66,4.4
Vichy,46.12709,3.42577,FR,27019,2969392,Vichy,1.88,2.94,8.56,11.32,15.21,22.83,22.33,25.41,16.4,10.28,8.51,4.06
Vesoul,47.62604,6.14251,FR,19892,2969562,Vesoul,1.24,0.98,8.35,10.59,15.17,22.83,21.44,24.69,16.39,9.04,7.55,3.41
Vertou,47.16878,-1.4729,FR,22921,2969612,Vertou,3.87,4.79,10.21,12.14,14.27,19.87,20.05,23.03,17.65,11.27,10.26,6.4
Versailles,48.80359,2.13424,FR,85416,2969679,Versailles,2.44,2.99,8.63,10.75,13.77,19.85,20.02,22.78,16.32,9.49,8.43,4.44
Verrières-le-Buisson,48.74565,2.26796,FR,16789,2969692,Verrières-le-Buisson,2.56,3.13,8.89,11.1,14.12,20.28,20.52,23.31,16.66,9.82,8.65,4.65
Vernon,49.09292,1.46332,FR,26037,2969766,Vernon,3.26,3.72,9.01,11.19,13.98,19.75,20.09,22.84,16.55,9.88,9.02,5.02
Verneuil-sur-Seine,48.97388,1.9648,FR,16790,2969796,Verneuil-sur-Seine,2.85,3.34,8.86,11.12,14.06,19.92,20.22,22.83,16.53,9.7,8.75,4.76
Verdun,49.15964,5.3829,FR,21798,2969958,Verdun,0.48,0.99,7.82,9.81,13.89,20.12,19.79,22.4,15.35,8.31,7.84,3.45
Vénissieux,45.69706,4.88593,FR,57584,2970072,Vénissieux,1.89,2.61,8.72,12.14,16.89,24.96,23.33,26.35,17.41,10.78,8.31,4.19
Vendôme,47.79292,1.06556,FR,19226,2970110,Vendôme,2.82,3.67,9.5,11.67,14.45,20.89,20.97,24.8,17.27,10.55,8.97,5.1
Vence,43.72254,7.11183,FR,18668,2970148,Vence,5.48,4.3,8.79,10.96,17.07,23.01,23.67,25.39,18.81,13.24,10.41,7.04
Vélizy-Villacoublay,48.78198,2.19395,FR,21741,2970203,Vélizy-Villacoublay,2.06,2.61,8.32,10.48,13.51,19.58,19.78,22.52,16.03,9.18,8.09,4.09
Vauréal,49.03333,2.03333,FR,20699,2970432,Vauréal,3.0,3.49,9.01,11.26,14.21,20.06,20.37,22.98,16.68,9.84,8.9,4.91
Vaulx-en-Velin,45.78693,4.9251,FR,37489,2970456,Vaulx-en-Velin,2.02,2.72,8.92,12.18,16.91,24.87,23.32,26.34,17.5,10.85,8.44,4.32
Vanves,48.82345,2.29025,FR,26068,2970761,Vanves,2.67,3.19,8.9,11.19,14.22,20.31,20.57,23.3,16.74,9.84,8.71,4.69
Vannes,47.65688,-2.76205,FR,54020,2970777,Vannes,5.06,5.58,10.15,11.63,13.59,18.53,19.09,21.87,17.2,11.63,10.83,7.24
Vandœuvre-lès-Nancy,48.66115,6.17114,FR,31785,2970797,Vandœuvre-lès-Nancy,0.3,0.36,7.49,9.94,14.59,21.36,20.47,23.55,15.63,8.29,7.49,2.82
Vallauris,43.57803,7.05451,FR,27286,2970962,Vallauris,6.57,5.39,9.42,11.79,17.7,23.52,24.23,26.06,19.65,14.1,11.26,8.0
Valenciennes,50.35909,3.52506,FR,44821,2971041,Valenciennes,2.65,2.68,8.12,10.34,13.72,18.96,19.2,20.86,15.58,8.68,8.51,4.4
Valence,44.9256,4.90956,FR,63864,2971053,Valence,2.87,3.34,9.36,12.6,17.51,25.47,24.63,27.35,17.89,11.89,9.32,5.25
Tulle,45.26582,1.77233,FR,16969,2971482,Tulle,3.35,4.05,10.19,12.34,15.02,23.17,21.67,25.08,17.33,11.39,9.84,5.79
Troyes,48.30073,4.08524,FR,60785,2971549,Troyes,1.92,2.42,8.66,11.06,14.66,21.26,20.98,23.88,16.38,9.75,8.71,4.44
Tremblay-en-France,48.94956,2.5684,FR,35591,2971874,Tremblay-en-France,2.56,3.05,8.86,11.17,14.15,20.23,20.61,23.24,16.68,9.74,8.7,4.65
Trappes,48.77413,2.01781,FR,28367,2972049,Trappes,2.22,2.76,8.31,10.45,13.48,19.59,19.76,22.55,16.06,9.24,8.18,4.18
Tours,47.39484,0.70398,FR,141621,2972191,Tours,3.17,4.04,9.87,12.19,14.87,21.15,21.07,25.01,17.62,11.03,9.39,5.53
Tournefeuille,43.58872,1.31922,FR,29124,2972237,Tournefeuille,4.3,5.07,10.69,12.9,16.0,23.89,23.72,26.72,19.18,13.14,10.84,6.79
Tourlaville,49.63829,-1.56639,FR,18273,2972270,Tourlaville,6.25,5.85,8.94,10.4,12.44,16.61,17.98,19.37,16.75,12.13,10.89,7.79
Tourcoing,50.72391,3.16117,FR,98656,2972284,Tourcoing,2.81,2.73,7.8,10.14,13.51,18.61,18.96,20.47,15.43,8.57,8.35,4.31
Toulouse,43.60426,1.44367,FR,493465,2972315,Toulouse,4.39,5.22,10.78,13.05,16.24,24.15,24.03,26.93,19.3,13.3,10.99,6.94
Toulon,43.12442,5.92836,FR,168701,2972328,Toulon,7.72,7.08,10.64,13.25,18.44,24.51,25.2,27.36,20.83,15.23,12.72,9.45
Toul,48.68075,5.89115,FR,17680,2972350,Toul,0.51,0.72,7.8,10.14,14.71,21.34,20.64,23.6,15.83,8.56,7.83,3.17
Torcy,48.85064,2.65078,FR,24386,2972444,Torcy,2.31,2.81,8.66,10.93,13.92,20.02,20.41,23.04,16.45,9.54,8.51,4.44
Thonon-les-Bains,46.37049,6.47985,FR,31684,2972742,Thonon-les-Bains,1.3,1.26,8.0,10.05,14.81,22.51,21.17,24.42,16.34,9.61,7.75,3.46
Thionville,49.35994,6.16044,FR,44311,2972811,Thionville,0.29,0.76,7.62,9.99,14.51,20.82,20.44,22.87,15.27,8.25,7.6,3.18
Thiais,48.76496,2.3961,FR,29724,2972893,Thiais,2.67,3.17,8.9,11.25,14.29,20.4,20.68,23.39,16.79,9.88,8.74,4.7
Tergnier,49.65607,3.30107,FR,15475,2973146,Tergnier,2.39,2.53,8.4,10.7,13.82,19.33,19.74,21.95,16.19,9.14,8.49,4.38
Taverny,49.02542,2.21691,FR,27271,2973258,Taverny,2.62,3.09,8.67,11.01,13.98,19.89,20.23,22.83,16.45,9.53,8.56,4.55
Tassin-la-Demi-Lune,45.75499,4.78812,FR,16920,2973317,Tassin-la-Demi-Lune,1.63,2.41,8.43,11.83,16.54,24.4,22.97,25.85,17.01,10.47,8.06,3.93
Tarbes,43.23407,0.07139,FR,52106,2973385,Tarbes,3.75,4.07,10.15,11.61,13.99,21.14,20.3,23.09,17.08,11.8,9.47,5.8
Talence,44.80849,-0.58915,FR,42579,2973495,Talence,4.86,5.41,11.48,13.97,16.09,22.73,22.06,25.81,19.44,13.25,10.83,7.61
Suresnes,48.87143,2.22929,FR,44697,2973675,Suresnes,2.88,3.37,9.02,11.34,14.35,20.34,20.62,23.27,16.82,9.92,8.85,4.83
Sucy-en-Brie,48.76872,2.53474,FR,25014,2973745,Sucy-en-Brie,2.39,2.89,8.69,10.99,14.01,20.14,20.44,23.16,16.53,9.63,8.5,4.46
Strasbourg,48.58392,7.74553,FR,274845,2973783,Strasbourg,0.63,0.37,7.49,10.03,15.58,21.96,20.91,24.17,16.55,8.26,7.26,2.61
Stains,48.95,2.38333,FR,32601,2973841,Stains,2.86,3.31,8.99,11.29,14.27,20.22,20.54,23.12,16.73,9.82,8.86,4.84
Sotteville-lès-Rouen,49.40972,1.09005,FR,30619,2974153,Sotteville-lès-Rouen,3.46,3.88,8.96,11.14,13.66,19.06,19.38,22.11,16.35,9.89,9.09,5.15
Sorgues,44.01023,4.87381,FR,18681,2974188,Sorgues,3.97,4.84,10.46,13.35,19.38,26.6,26.56,28.86,19.39,13.69,10.64,6.64
Soisy-sous-Montmorency,48.98813,2.30156,FR,17436,2974385,Soisy-sous-Montmorency,2.82,3.29,8.94,11.23,14.21,20.13,20.45,23.03,16.66,9.75,8.79,4.78
Soissons,49.38167,3.32361,FR,31100,2974389,Soissons,2.47,2.74,8.7,10.96,14.07,19.8,20.28,22.71,16.54,9.43,8.76,4.62
Six-Fours-les-Plages,43.09174,5.82465,FR,34779,2974427,Six-Fours-les-Plages,7.62,6.98,10.54,13.15,18.34,24.41,25.1,27.26,20.73,15.13,12.62,9.35
Sin-le-Noble,50.36159,3.13113,FR,17682,2974494,Sin-le-Noble,2.91,2.82,8.13,10.37,13.69,18.84,19.23,21.0,15.66,8.77,8.53,4.44
Seynod,45.88549,6.08831,FR,18590,2974655,Seynod,-0.81,0.13,7.42,9.76,14.58,22.12,20.73,23.44,15.55,8.44,5.69,0.97
Sèvres,48.82292,2.21757,FR,23724,2974678,Sèvres,2.66,3.21,8.92,11.08,14.11,20.18,20.38,23.12,16.63,9.78,8.69,4.69
Sevran,48.94472,2.52746,FR,47334,2974681,Sevran,2.61,3.06,8.8,11.19,14.18,20.26,20.62,23.25,16.69,9.74,8.67,4.61
Sète,43.4028,3.69278,FR,40736,2974733,Sète,6.56,6.78,10.64,12.97,17.29,23.51,24.76,26.5,19.5,14.75,12.0,8.97
Sens,48.19738,3.28328,FR,28700,2975050,Sens,2.34,3.08,9.07,11.45,14.66,21.37,21.26,24.34,16.88,10.26,9.02,4.83
Senlis,49.20724,2.58661,FR,19160,2975088,Senlis,2.5,2.93,8.64,10.8,13.82,19.6,19.96,22.41,16.27,9.35,8.53,4.48
Sélestat,48.26195,7.4489,FR,18941,2975233,Sélestat,0.57,0.15,7.82,10.4,15.79,22.47,21.31,24.39,16.72,8.26,7.13,2.56
Sedan,49.70187,4.94028,FR,20620,2975349,Sedan,0.78,1.04,7.76,9.92,13.6,19.41,19.31,21.74,15.22,8.3,7.84,3.61
Schiltigheim,48.60749,7.74931,FR,32289,2975446,Schiltigheim,0.68,0.42,7.54,10.08,15.64,22.01,20.96,24.22,16.6,8.31,7.31,2.66
Sceaux,48.77644,2.29026,FR,21511,2975469,Sceaux,2.52,3.04,8.75,11.04,14.07,20.16,20.42,23.15,16.59,9.69,8.57,4.54
Savigny-sur-Orge,48.67677,2.34835,FR,39698,2975525,Savigny-sur-Orge,2.66,3.23,8.99,11.2,14.22,20.38,20.62,23.41,16.76,9.92,8.75,4.75
Savigny-le-Temple,48.57409,2.58287,FR,25925,2975536,Savigny-le-Temple,2.47,2.99,8.78,11.13,14.16,20.54,20.83,23.61,16.66,9.88,8.63,4.62
Saumur,47.25931,-0.07808,FR,33229,2975758,Saumur,3.51,4.39,10.0,12.43,14.8,20.89,20.8,24.45,17.76,11.14,9.76,5.86
Sartrouville,48.9482,2.19169,FR,53980,2975921,Sartrouville,2.73,3.22,8.87,11.19,14.2,20.19,20.47,23.13,16.67,9.77,8.7,4.68
Sarreguemines,49.10995,7.06747,FR,24446,2975964,Sarreguemines,0.31,0.53,7.5,9.94,14.85,21.4,20.46,23.63,15.64,8.14,7.53,2.92
Sarcelles,48.99739,2.37821,FR,57979,2976043,Sarcelles,2.71,3.17,8.84,11.14,14.12,20.07,20.39,22.98,16.58,9.67,8.71,4.69
Saran,47.95013,1.87601,FR,16243,2976050,Saran,2.35,3.22,9.24,11.36,14.22,20.74,20.81,24.44,16.87,10.16,8.58,4.73
Sannois,48.96667,2.25,FR,26869,2976179,Sannois,2.47,2.94,8.59,10.88,13.85,19.78,20.1,22.68,16.31,9.4,8.44,4.42
Sanary-sur-Mer,43.11985,5.80155,FR,19166,2976258,Sanary-sur-Mer,7.77,7.13,10.68,13.3,18.49,24.56,25.25,27.41,20.88,15.28,12.77,9.5
Salon-de-Provence,43.64229,5.09478,FR,41397,2976341,Salon-de-Provence,4.22,4.73,9.98,13.15,19.18,25.95,26.35,28.35,19.46,13.97,10.77,6.73
Sallanches,45.94423,6.63162,FR,16725,2976406,Sallanches,-2.14,-2.62,6.77,8.94,15.2,22.77,21.46,23.59,16.11,7.56,5.01,-0.59
Saint-Sébastien-sur-Loire,47.20768,-1.50332,FR,29238,2976984,Saint-Sébastien-sur-Loire,3.97,4.89,10.31,12.24,14.37,19.97,20.15,23.13,17.75,11.37,10.36,6.5
Saint-Raphaël,43.42332,6.7735,FR,34918,2977246,Saint-Raphaël,7.87,6.73,10.37,13.03,18.62,24.44,25.3,27.17,20.81,15.05,12.42,9.18
Saint-Quentin,49.84889,3.28757,FR,55407,2977295,Saint-Quentin,2.11,2.23,8.06,10.33,13.47,18.94,19.27,21.43,15.76,8.76,8.15,4.05
Saint-Priest,45.69651,4.94385,FR,41641,2977356,Saint-Priest,1.74,2.46,8.57,11.99,16.73,24.81,23.18,26.21,17.26,10.63,8.16,4.03
Saint-Pol-sur-Mer,51.03116,2.33983,FR,23635,2977388,Saint-Pol-sur-Mer,4.09,3.61,7.9,10.31,13.23,18.07,19.01,20.28,16.09,9.53,8.99,5.2
Saint-Pierre-des-Corps,47.38623,0.74849,FR,15284,2977491,Saint-Pierre-des-Corps,3.17,4.04,9.87,12.19,14.87,21.15,21.07,25.01,17.62,11.03,9.39,5.53
Saint-Ouen-l'Aumône,49.04353,2.12134,FR,22977,2977800,Saint-Ouen-l'Aumône,3.01,3.49,9.05,11.34,14.29,20.17,20.5,23.1,16.77,9.88,8.93,4.93
Saint-Ouen,48.90654,2.33339,FR,39353,2977824,Saint-Ouen,2.75,3.21,8.88,11.28,14.32,20.35,20.65,23.29,16.77,9.84,8.73,4.67
Saint-Omer,50.74834,2.26091,FR,18250,2977845,Saint-Omer,3.59,3.38,8.06,10.33,13.38,18.23,18.91,20.6,15.79,9.05,8.74,4.76
Saint-Nazaire,47.27506,-2.2179,FR,67054,2977921,Saint-Nazaire,4.97,5.58,10.39,12.14,14.22,19.3,19.79,22.4,17.59,12.04,11.0,7.4
Saint-Michel-sur-Orge,48.63479,2.30831,FR,20824,2977952,Saint-Michel-sur-Orge,2.64,3.25,8.99,11.24,14.23,20.51,20.81,23.65,16.8,10.0,8.75,4.76
Saint-Médard-en-Jalles,44.8955,-0.71779,FR,29742,2978072,Saint-Médard-en-Jalles,4.87,5.44,11.49,13.93,16.01,22.53,21.91,25.71,19.37,13.2,10.82,7.66
Saint-Maximin-la-Sainte-Baume,43.44813,5.86081,FR,15225,2978100,Saint-Maximin-la-Sainte-Baume,3.45,3.3,8.5,11.64,17.89,24.2,25.08,26.74,18.78,12.64,9.54,5.18
Saint-Maur-des-Fossés,48.79395,2.49323,FR,75402,2978179,Saint-Maur-des-Fossés,2.79,3.29,9.09,11.39,14.41,20.54,20.84,23.56,16.93,10.03,8.9,4.86
Saint-Martin-d'Hères,45.1787,5.76281,FR,35528,2978317,Saint-Martin-d'Hères,1.18,1.41,9.67,12.11,17.12,24.59,23.77,26.22,18.03,11.17,8.03,3.42
Saint-Mandé,48.83864,2.41579,FR,21261,2978621,Saint-Mandé,2.67,3.17,8.9,11.25,14.29,20.4,20.68,23.39,16.79,9.88,8.74,4.7
Saint-Malo,48.64738,-2.00877,FR,50676,2978640,Saint-Malo,5.3,5.6,9.66,11.21,13.05,17.49,18.51,20.13,17.06,11.86,10.75,7.26
Saint-Loup,43.27766,5.43133,FR,16084,2978722,Saint-Loup,6.54,6.5,10.71,13.27,18.41,24.37,25.14,27.09,20.1,14.92,12.42,8.78
Saint-Louis,47.59206,7.55923,FR,20871,2978742,Saint-Louis,0.7,-0.76,7.41,9.67,15.25,23.18,21.66,24.87,16.27,7.77,6.16,2.03
Saint-Lô,49.11624,-1.09031,FR,21722,2978758,Saint-Lô,4.3,4.76,9.49,11.16,13.15,18.17,18.82,20.98,16.46,10.79,10.05,6.13
Saint-Leu-la-Forêt,49.01667,2.25,FR,16075,2978768,Saint-Leu-la-Forêt,2.57,3.04,8.69,10.98,13.95,19.88,20.2,22.78,16.41,9.5,8.54,4.52
Saint-Leu,46.7306,4.50083,FR,29278,2978771,Saint-Leu,1.3,1.92,8.22,10.72,14.92,22.55,21.62,25.08,16.14,9.25,7.54,3.37
Saint-Laurent-du-Var,43.67323,7.19,FR,29516,2978891,Saint-Laurent-du-Var,7.17,5.99,10.02,12.39,18.3,24.12,24.83,26.66,20.25,14.7,11.86,8.6
Saint-Jean-de-la-Ruelle,47.91127,1.86483,FR,17522,2979316,Saint-Jean-de-la-Ruelle,2.38,3.26,9.3,11.5,14.38,20.87,20.87,24.57,16.9,10.29,8.64,4.79
Saint-Jean-de-Braye,47.91303,1.97705,FR,19874,2979341,Saint-Jean-de-Braye,2.36,3.25,9.26,11.5,14.41,20.91,20.87,24.54,16.87,10.28,8.64,4.78
Saint-Herblain,47.21154,-1.651,FR,46898,2979590,Saint-Herblain,4.14,4.97,10.33,12.16,14.27,19.74,20.0,22.85,17.64,11.48,10.47,6.66
Saint-Gratien,48.9735,2.28729,FR,19737,2979627,Saint-Gratien,2.82,3.29,8.94,11.23,14.21,20.13,20.45,23.03,16.66,9.75,8.79,4.78
Saint-Germain-en-Laye,48.89643,2.0904,FR,41142,2979783,Saint-Germain-en-Laye,2.59,3.11,8.71,10.96,13.94,19.92,20.17,22.85,16.45,9.57,8.55,4.55
Saint-Genis-Laval,45.69542,4.79316,FR,20883,2979985,Saint-Genis-Laval,1.79,2.57,8.53,12.03,16.73,24.65,23.18,26.01,17.19,10.68,8.25,4.06
Saint-Fons,45.70875,4.85325,FR,16053,2980097,Saint-Fons,2.04,2.76,8.87,12.29,17.03,25.11,23.48,26.51,17.56,10.93,8.46,4.33
Saint-Étienne-du-Rouvray,49.37794,1.10467,FR,28953,2980236,Saint-Étienne-du-Rouvray,3.46,3.88,8.96,11.14,13.66,19.06,19.38,22.11,16.35,9.89,9.09,5.15
Saint-Étienne,45.43389,4.39,FR,176280,2980291,Saint-Étienne,0.09,0.98,6.85,9.99,14.64,22.35,21.38,24.16,15.02,9.1,6.83,2.51
Saintes,45.74742,-0.63489,FR,29512,2980340,Saintes,4.34,5.3,11.05,13.25,15.32,21.59,21.27,25.24,18.99,12.64,10.72,7.33
Sainte-Marguerite,43.26196,5.40125,FR,19997,2980467,Sainte-Marguerite,6.74,6.7,10.91,13.47,18.61,24.57,25.34,27.29,20.3,15.12,12.62,8.98
Sainte-Geneviève-des-Bois,48.64682,2.31965,FR,33689,2980558,Sainte-Geneviève-des-Bois,2.59,3.2,8.94,11.19,14.18,20.46,20.76,23.6,16.75,9.95,8.7,4.71
Sainte-Foy-lès-Lyon,45.73375,4.80259,FR,21893,2980586,Sainte-Foy-lès-Lyon,1.43,2.22,8.18,11.68,16.38,24.3,22.83,25.66,16.84,10.33,7.9,3.71
Saint-Égrève,45.23313,5.68154,FR,15904,2980636,Saint-Égrève,1.74,2.13,9.85,12.36,16.99,24.58,23.65,26.15,18.05,11.32,8.28,3.67
Saint-Dizier,48.63773,4.94892,FR,31918,2980816,Saint-Dizier,1.01,1.79,8.43,10.77,14.61,21.11,20.69,23.8,16.18,9.19,8.42,4.04
Saint-Dié-des-Vosges,48.28429,6.94921,FR,24628,2980827,Saint-Dié-des-Vosges,-0.31,-1.26,7.37,9.65,14.47,21.55,20.4,23.76,15.56,7.87,7.32,2.65
Saint-Denis,48.93564,2.35387,FR,96128,2980916,Saint-Denis,2.76,3.2,8.89,11.31,14.33,20.39,20.73,23.37,16.81,9.85,8.76,4.7
Saint-Cyr-sur-Loire,47.4,0.66667,FR,17337,2980935,Saint-Cyr-sur-Loire,2.93,3.79,9.61,11.94,14.62,20.9,20.82,24.76,17.37,10.78,9.14,5.28
Saint-Cyr-l'École,48.79865,2.06814,FR,16365,2980942,Saint-Cyr-l'École,2.38,2.93,8.59,10.7,13.72,19.81,19.97,22.73,16.27,9.44,8.38,4.39
Saint-Cloud,48.84598,2.20289,FR,28839,2981041,Saint-Cloud,2.36,2.91,8.62,10.78,13.81,19.88,20.08,22.82,16.33,9.48,8.39,4.39
Saint-Chamond,45.4759,4.51294,FR,38014,2981206,Saint-Chamond,1.64,2.41,8.02,11.36,16.07,23.77,22.46,25.18,16.4,10.35,8.11,3.89
Saint-Brieuc,48.51513,-2.76838,FR,52774,2981280,Saint-Brieuc,4.79,5.32,9.24,10.59,12.52,17.16,18.07,19.84,16.34,11.03,10.04,6.71
Saint-Avold,49.10465,6.70402,FR,18281,2981492,Saint-Avold,0.38,0.57,7.5,9.99,14.7,21.33,20.33,23.23,15.34,8.18,7.56,2.97
Saint-Avertin,47.36357,0.73993,FR,16007,2981512,Saint-Avertin,2.93,3.79,9.61,11.94,14.62,20.9,20.82,24.76,17.37,10.78,9.14,5.28
Saint-Amand-les-Eaux,50.44718,3.43076,FR,17808,2981839,Saint-Amand-les-Eaux,2.82,2.82,8.2,10.42,13.77,18.98,19.25,20.93,15.67,8.81,8.61,4.52
Rueil-Malmaison,48.8765,2.18967,FR,76616,2982235,Rueil-Malmaison,2.73,3.22,8.87,11.19,14.2,20.19,20.47,23.13,16.67,9.77,8.7,4.68
Royan,45.62811,-1.03153,FR,19017,2982343,Royan,5.13,6.13,11.98,13.72,15.6,21.46,21.56,25.04,19.0,12.65,11.0,7.92
Rouen,49.44313,1.09932,FR,234475,2982652,Rouen,3.46,3.88,8.96,11.14,13.66,19.06,19.38,22.11,16.35,9.89,9.09,5.15
Roubaix,50.69421,3.17456,FR,98828,2982681,Roubaix,2.81,2.73,7.8,10.14,13.51,18.61,18.96,20.47,15.43,8.57,8.35,4.31
Rosny-sous-Bois,48.87017,2.4991,FR,41627,2982757,Rosny-sous-Bois,2.41,2.86,8.6,10.99,13.98,20.06,20.42,23.05,16.49,9.54,8.47,4.41
Ronchin,50.59883,3.09056,FR,18331,2982944,Ronchin,2.79,2.66,7.79,10.08,13.44,18.55,18.93,20.54,15.39,8.53,8.31,4.25
Romorantin-Lanthenay,47.36667,1.75,FR,19953,2982967,Romorantin-Lanthenay,2.67,3.54,9.66,12.19,14.84,21.65,21.3,25.53,16.88,10.65,8.92,5.08
Romans-sur-Isère,45.0496,5.06602,FR,35002,2983011,Romans-sur-Isère,2.08,2.47,8.84,12.06,16.88,25.03,23.89,26.82,17.49,11.15,8.65,4.52
Romainville,48.8854,2.43482,FR,24772,2983026,Romainville,2.21,2.65,8.33,10.76,13.78,19.84,20.18,22.82,16.26,9.31,8.21,4.15
Roissy-en-Brie,48.79159,2.64747,FR,20933,2983074,Roissy-en-Brie,2.34,2.86,8.74,10.96,13.96,20.12,20.45,23.15,16.51,9.62,8.52,4.48
Rodez,44.35258,2.57338,FR,28337,2983154,Rodez,1.02,2.02,7.44,9.79,13.43,21.51,20.59,23.41,15.47,9.52,7.8,3.95
Rochefort,45.94304,-0.96774,FR,29427,2983276,Rochefort,4.63,5.5,11.14,13.13,15.24,21.06,21.02,24.76,18.91,12.76,10.9,7.58
Roanne,46.03624,4.06802,FR,39840,2983362,Roanne,1.51,2.6,8.61,11.52,15.73,23.16,22.74,25.84,16.53,10.08,8.17,3.79
Ris-Orangis,48.6511,2.41406,FR,25082,2983440,Ris-Orangis,2.6,3.16,8.96,11.21,14.24,20.41,20.67,23.43,16.76,9.91,8.72,4.71
Riom,45.89362,3.11264,FR,20142,2983489,Riom,1.15,2.26,7.87,10.56,14.31,21.98,21.42,24.72,15.52,9.64,7.75,3.35
Rillieux-la-Pape,45.81667,4.9,FR,28076,2983536,Rillieux-la-Pape,1.32,2.02,8.22,11.48,16.21,24.17,22.62,25.64,16.8,10.15,7.74,3.62
Rezé,47.19058,-1.56885,FR,39248,2983770,Rezé,4.08,4.96,10.37,12.25,14.37,19.91,20.14,23.06,17.76,11.46,10.44,6.6
Rennes,48.11198,-1.67429,FR,220488,2983990,Rennes,3.72,4.5,9.82,11.67,13.69,19.0,19.13,21.93,16.77,10.74,9.86,5.97
Reims,49.26526,4.02853,FR,196565,2984114,Reims,1.48,1.94,8.17,10.47,13.97,19.8,20.19,22.4,15.83,9.08,8.37,4.28
Rambouillet,48.64374,1.82992,FR,26674,2984513,Rambouillet,2.3,2.98,8.66,10.75,13.63,19.91,20.14,23.11,16.34,9.49,8.34,4.34
Quimper,47.99597,-4.09795,FR,63849,2984701,Quimper,6.56,7.08,10.43,11.39,12.99,17.27,18.26,20.53,16.78,12.25,11.43,8.62
Puteaux,48.88341,2.23894,FR,40646,2985034,Puteaux,2.88,3.37,9.02,11.34,14.35,20.34,20.62,23.27,16.82,9.92,8.85,4.83
Port-de-Bouc,43.40657,4.9809,FR,15934,2986025,Port-de-Bouc,5.61,5.98,10.94,13.7,19.51,25.93,26.36,28.26,19.96,14.93,11.84,8.22
Pontoise,49.05,2.1,FR,30290,2986140,Pontoise,2.9,3.33,8.84,11.07,14.02,19.84,20.18,22.75,16.48,9.66,8.78,4.78
Pontivy,48.06835,-2.96645,FR,16752,2986160,Pontivy,4.46,5.18,9.68,11.09,13.0,17.91,18.54,21.46,16.66,10.94,10.08,6.6
Pontarlier,46.90347,6.35542,FR,20313,2986302,Pontarlier,-1.59,-2.3,5.65,7.35,12.28,19.64,18.03,20.98,13.42,6.48,5.31,0.8
Pont-à-Mousson,48.90702,6.05635,FR,15411,2986306,Pont-à-Mousson,0.58,0.77,7.85,10.3,14.88,21.63,20.88,23.73,15.78,8.61,7.9,3.26
Poitiers,46.58261,0.34348,FR,85960,2986495,Poitiers,3.12,4.12,9.76,12.1,14.6,21.29,21.02,24.95,17.74,11.16,9.56,5.62
Poissy,48.92902,2.04952,FR,36431,2986501,Poissy,3.05,3.58,9.12,11.35,14.32,20.3,20.54,23.24,16.85,10.0,8.99,5.0
Ploemeur,47.73512,-3.42952,FR,20652,2986732,Ploemeur,5.81,6.41,9.96,11.19,13.08,17.64,18.52,20.98,16.88,11.91,11.14,7.93
Plaisir,48.82319,1.9541,FR,36121,2986930,Plaisir,2.57,3.11,8.66,10.81,13.83,19.94,20.11,22.9,16.41,9.59,8.53,4.53
Plaisance-du-Touch,43.56554,1.29645,FR,18501,2986933,Plaisance-du-Touch,4.4,5.17,10.79,13.0,16.1,23.99,23.82,26.82,19.28,13.24,10.94,6.89
Pierrefitte-sur-Seine,48.96691,2.36104,FR,27914,2987271,Pierrefitte-sur-Seine,2.71,3.17,8.84,11.14,14.12,20.07,20.39,22.98,16.58,9.67,8.71,4.69
Pessac,44.80565,-0.6324,FR,57944,2987805,Pessac,4.71,5.26,11.33,13.83,15.95,22.58,21.91,25.67,19.29,13.11,10.68,7.46
Pertuis,43.69415,5.50291,FR,19926,2987825,Pertuis,3.51,3.97,9.36,12.52,18.5,25.07,25.65,27.52,19.08,13.25,10.27,5.92
Perpignan,42.69764,2.89541,FR,110706,2987914,Perpignan,5.67,6.21,11.03,13.53,17.72,25.28,25.97,28.42,20.35,14.66,12.04,8.1
Périgueux,45.18691,0.71439,FR,34770,2987967,Périgueux,3.92,4.91,11.16,13.33,15.53,22.93,21.89,25.61,18.4,12.37,10.55,6.68
Pau,43.31117,-0.35583,FR,82697,2988358,Pau,4.01,4.33,10.63,11.79,14.24,21.25,20.49,23.61,17.44,12.02,9.63,6.15
Paris,48.85341,2.3488,FR,2138551,2988507,Paris,2.75,3.21,8.88,11.28,14.32,20.35,20.65,23.29,16.77,9.84,8.73,4.67
Pantin,48.89437,2.40935,FR,52922,2988621,Pantin,2.66,3.1,8.79,11.21,14.23,20.29,20.63,23.27,16.71,9.75,8.66,4.6
Pamiers,43.1165,1.61079,FR,16997,2988670,Pamiers,3.83,4.38,10.46,12.09,14.99,22.67,22.43,25.11,18.02,12.41,10.38,5.78
Palaiseau,48.71828,2.2498,FR,31987,2988758,Palaiseau,2.62,3.2,8.92,11.06,14.08,20.25,20.44,23.26,16.65,9.83,8.68,4.7
Ozoir-la-Ferrière,48.76699,2.66871,FR,22530,2988867,Ozoir-la-Ferrière,2.29,2.79,8.7,10.91,13.91,20.09,20.44,23.13,16.45,9.6,8.51,4.46
Oyonnax,46.25917,5.65727,FR,25697,2988888,Oyonnax,-0.2,-0.38,7.5,9.64,14.03,21.92,20.44,23.31,15.04,8.18,6.47,2.28
Outreau,50.70535,1.5897,FR,15648,2988936,Outreau,4.3,3.88,7.82,9.96,12.48,16.96,18.06,19.92,15.83,9.72,9.26,5.43
Oullins,45.71404,4.80755,FR,25592,2988998,Oullins,2.13,2.92,8.88,12.38,17.08,25.0,23.53,26.36,17.54,11.03,8.6,4.41
Osny,49.0701,2.06277,FR,16545,2989130,Osny,2.6,3.03,8.54,10.77,13.72,19.54,19.88,22.45,16.18,9.36,8.48,4.48
Orvault,47.27117,-1.62361,FR,25338,2989170,Orvault,3.89,4.73,10.11,12.0,14.14,19.69,19.88,22.81,17.52,11.2,10.22,6.36
Orsay,48.69572,2.18727,FR,17817,2989204,Orsay,2.62,3.2,8.92,11.06,14.08,20.25,20.44,23.26,16.65,9.83,8.68,4.7
Orly,48.74792,2.39253,FR,20528,2989297,Orly,2.55,3.11,8.91,11.16,14.19,20.36,20.62,23.37,16.71,9.86,8.67,4.66
Orléans,47.90289,1.90389,FR,116269,2989317,Orléans,2.33,3.21,9.24,11.45,14.33,20.82,20.83,24.52,16.85,10.24,8.59,4.74
Orange,44.13806,4.81025,FR,30530,2989460,Orange,4.06,4.7,10.45,13.22,19.15,26.52,26.37,28.68,19.16,13.51,10.52,6.6
Olivet,47.86219,1.8991,FR,22604,2989611,Olivet,2.43,3.31,9.34,11.55,14.43,20.92,20.93,24.62,16.95,10.34,8.69,4.84
Octeville,49.62612,-1.64349,FR,16951,2989755,Octeville,5.8,5.4,8.49,9.95,11.99,16.16,17.53,18.92,16.3,11.68,10.44,7.34
Noyon,49.58333,3.0,FR,15138,2989877,Noyon,2.56,2.74,8.53,10.84,13.9,19.37,19.82,22.07,16.33,9.29,8.59,4.48
Noisy-le-Sec,48.89148,2.46451,FR,38955,2990187,Noisy-le-Sec,2.55,3.01,8.76,11.14,14.13,20.21,20.57,23.2,16.63,9.68,8.62,4.56
Noisy-le-Grand,48.84979,2.56266,FR,62420,2990189,Noisy-le-Grand,2.49,3.01,8.89,11.11,14.11,20.27,20.6,23.3,16.66,9.77,8.67,4.63
Noisiel,48.84868,2.62435,FR,15362,2990192,Noisiel,2.54,3.06,8.94,11.16,14.16,20.32,20.65,23.35,16.71,9.82,8.72,4.68
Nogent-sur-Oise,49.27158,2.47074,FR,19690,2990264,Nogent-sur-Oise,2.84,3.21,8.83,11.07,14.08,19.72,20.14,22.54,16.52,9.56,8.77,4.71
Nogent-sur-Marne,48.83669,2.48255,FR,31236,2990265,Nogent-sur-Marne,2.44,2.94,8.74,11.04,14.06,20.19,20.5,23.2,16.58,9.68,8.55,4.51
Niort,46.32313,-0.45877,FR,54660,2990355,Niort,3.81,4.88,10.61,12.74,15.01,21.22,20.86,24.74,18.46,12.04,10.26,6.66
Nîmes,43.83665,4.35788,FR,148236,2990363,Nîmes,4.59,5.29,10.31,13.1,18.78,25.74,26.35,28.24,19.53,14.11,10.62,7.25
Nice,43.70313,7.26608,FR,342669,2990440,Nice,7.72,6.56,10.62,12.85,18.89,24.66,25.28,27.23,20.7,15.24,12.4,9.26
Nevers,46.98956,3.159,FR,43988,2990474,Nevers,2.06,3.05,9.22,11.71,14.87,21.96,21.3,25.54,16.77,10.2,8.45,4.46
Neuilly-sur-Seine,48.8846,2.26965,FR,61300,2990611,Neuilly-sur-Seine,2.75,3.21,8.88,11.28,14.32,20.35,20.65,23.29,16.77,9.84,8.73,4.67
Neuilly-sur-Marne,48.85373,2.54903,FR,34465,2990612,Neuilly-sur-Marne,2.75,3.21,8.96,11.34,14.33,20.41,20.77,23.4,16.83,9.88,8.82,4.76
Neuilly-Plaisance,48.86342,2.506,FR,18725,2990616,Neuilly-Plaisance,2.55,3.01,8.76,11.14,14.13,20.21,20.57,23.2,16.63,9.68,8.62,4.56
Narbonne,43.18396,3.00141,FR,50776,2990919,Narbonne,5.52,6.27,10.89,13.29,17.57,24.71,25.74,27.8,19.85,14.31,11.84,8.45
Nantes,47.21725,-1.55336,FR,318808,2990969,Nantes,4.08,4.96,10.37,12.25,14.37,19.91,20.14,23.06,17.76,11.46,10.44,6.6
Nanterre,48.89198,2.20675,FR,86719,2990970,Nanterre,2.83,3.32,8.97,11.29,14.3,20.29,20.57,23.23,16.77,9.87,8.8,4.78
Nancy,48.68439,6.18496,FR,105058,2990999,Nancy,0.6,0.66,7.79,10.24,14.89,21.66,20.77,23.85,15.93,8.59,7.79,3.12
Muret,43.45998,1.32541,FR,24313,2991153,Muret,4.53,5.3,10.9,12.97,16.09,23.98,23.94,26.85,19.36,13.32,11.0,6.92
Mulhouse,47.75205,7.32866,FR,111430,2991214,Mulhouse,0.31,0.25,7.38,9.62,15.01,22.45,21.11,24.31,16.2,7.43,6.43,1.94
Moulins,46.56459,3.33243,FR,23095,2991481,Moulins,2.26,3.15,9.25,11.77,15.27,22.58,22.03,25.76,16.86,10.4,8.53,4.39
Mougins,43.60068,6.99523,FR,18973,2991551,Mougins,5.69,4.46,8.8,11.45,17.34,23.12,24.0,25.63,19.01,13.4,10.44,7.08
Morsang-sur-Orge,48.66181,2.35338,FR,19917,2991719,Morsang-sur-Orge,2.6,3.16,8.96,11.21,14.24,20.41,20.67,23.43,16.76,9.91,8.72,4.71
Morlaix,48.57784,-3.82792,FR,17516,2991772,Morlaix,6.65,6.92,10.03,11.15,12.61,16.61,17.86,19.37,16.67,12.05,11.15,8.31
Mont-Saint-Aignan,49.46307,1.09364,FR,23078,2992003,Mont-Saint-Aignan,2.82,3.23,8.27,10.4,12.86,18.25,18.58,21.26,15.59,9.17,8.42,4.49
Montrouge,48.8162,2.31393,FR,38708,2992017,Montrouge,2.62,3.14,8.85,11.14,14.17,20.26,20.52,23.25,16.69,9.79,8.67,4.64
Montreuil,48.86415,2.44322,FR,111240,2992090,Montreuil,2.51,2.95,8.63,11.06,14.08,20.14,20.48,23.12,16.56,9.61,8.51,4.45
Montpellier,43.61093,3.87635,FR,248252,2992166,Montpellier,5.44,5.94,10.18,12.72,17.51,24.07,25.18,26.98,19.31,14.23,11.15,7.99
Montmorency,48.98826,2.3434,FR,21156,2992229,Montmorency,2.67,3.14,8.79,11.08,14.05,19.98,20.3,22.88,16.51,9.6,8.64,4.62
Montluçon,46.34015,2.60254,FR,44960,2992292,Montluçon,2.31,3.28,9.28,11.75,14.92,22.45,21.87,25.78,16.89,10.6,9.01,4.75
Montivilliers,49.54518,0.18769,FR,16706,2992367,Montivilliers,4.56,4.9,9.03,11.01,13.12,17.91,18.64,20.8,16.57,10.86,9.97,6.15
Montigny-lès-Metz,49.0956,6.15271,FR,26369,2992402,Montigny-lès-Metz,0.47,0.75,7.75,10.19,14.77,21.39,20.69,23.34,15.49,8.46,7.78,3.21
Montigny-lès-Cormeilles,48.98201,2.20035,FR,17910,2992404,Montigny-lès-Cormeilles,2.09,2.53,8.17,10.34,13.32,19.15,19.46,21.99,15.75,8.9,8.03,4.03
Montigny-le-Bretonneux,48.76636,2.03405,FR,39063,2992415,Montigny-le-Bretonneux,2.27,2.81,8.36,10.51,13.53,19.64,19.81,22.6,16.11,9.29,8.23,4.23
Montgeron,48.70543,2.45039,FR,22843,2992536,Montgeron,2.49,3.0,8.79,11.1,14.13,20.36,20.65,23.4,16.65,9.81,8.62,4.59
Montfermeil,48.8982,2.57913,FR,23829,2992616,Montfermeil,2.26,2.75,8.56,10.87,13.85,19.93,20.31,22.94,16.38,9.44,8.4,4.35
Montesson,48.90924,2.13754,FR,15256,2992650,Montesson,2.99,3.51,9.11,11.36,14.34,20.32,20.57,23.25,16.85,9.97,8.95,4.95
Montereau-Fault-Yonne,48.38333,2.95,FR,16993,2992671,Montereau-Fault-Yonne,2.52,3.14,9.1,11.45,14.58,21.15,21.33,24.21,16.93,10.23,8.98,4.88
Montélimar,44.55468,4.75469,FR,35637,2992703,Montélimar,3.67,4.12,9.97,12.69,18.26,25.97,25.42,27.92,18.27,12.56,9.96,6.0
Mont-de-Marsan,43.89022,-0.49713,FR,36205,2992771,Mont-de-Marsan,5.47,5.66,12.16,13.95,16.37,23.47,22.77,26.16,19.45,13.53,11.05,7.47
Montceau-les-Mines,46.66667,4.36667,FR,20221,2992863,Montceau-les-Mines,1.62,2.28,8.54,11.1,15.23,22.89,22.0,25.51,16.5,9.59,7.89,3.71
Montbrison,45.60752,4.06525,FR,16164,2992890,Montbrison,0.6,1.55,7.5,10.76,15.33,22.89,22.16,24.89,15.49,9.62,7.3,2.87
Montbéliard,47.50957,6.79823,FR,28865,2992938,Montbéliard,0.27,-0.38,7.65,9.44,14.35,21.83,20.35,23.39,15.45,7.65,6.58,2.35
Montauban,44.01759,1.3542,FR,52434,2993002,Montauban,4.08,4.96,10.7,13.29,16.38,24.35,23.77,26.71,19.24,13.21,10.89,6.91
Montargis,47.99696,2.73261,FR,17457,2993024,Montargis,2.28,3.17,9.08,11.44,14.48,21.14,21.12,24.38,16.89,10.24,8.8,4.75
Mons-en-Barœul,50.63333,3.11667,FR,23006,2993207,Mons-en-Barœul,2.89,2.76,7.89,10.18,13.54,18.65,19.03,20.64,15.49,8.63,8.41,4.35
Moissy-Cramayel,48.62605,2.60125,FR,16259,2993572,Moissy-Cramayel,2.37,2.89,8.68,11.03,14.06,20.44,20.73,23.51,16.56,9.78,8.53,4.52
Mitry-Mory,48.98333,2.61667,FR,18562,2993679,Mitry-Mory,2.48,2.89,8.58,10.95,13.95,19.97,20.36,22.94,16.42,9.52,8.55,4.49
Miramas,43.58508,5.00268,FR,24173,2993760,Miramas,4.52,5.07,10.28,13.35,19.34,26.12,26.53,28.52,19.59,14.26,10.96,7.09
Millau,44.09973,3.07848,FR,23307,2993875,Millau,2.07,3.4,8.32,10.81,15.06,22.48,22.54,25.32,16.83,10.91,8.95,5.27
Meyzieu,45.76637,5.00277,FR,28929,2994048,Meyzieu,1.7,2.32,8.69,11.79,16.53,24.59,22.97,26.12,17.25,10.5,8.08,3.95
Meylan,45.20978,5.77762,FR,20267,2994087,Meylan,1.08,1.31,9.57,12.01,17.02,24.49,23.67,26.12,17.93,11.07,7.93,3.32
Meudon,48.81381,2.235,FR,44652,2994144,Meudon,2.51,3.06,8.77,10.94,13.96,20.03,20.23,22.97,16.48,9.63,8.54,4.54
Metz,49.11911,6.17269,FR,123914,2994160,Metz,0.47,0.75,7.75,10.19,14.77,21.39,20.69,23.34,15.49,8.46,7.78,3.21
Mérignac,44.84247,-0.64512,FR,69791,2994393,Mérignac,4.71,5.26,11.33,13.83,15.95,22.58,21.91,25.67,19.29,13.11,10.68,7.46
Menton,43.77649,7.50435,FR,29649,2994497,Menton,8.52,7.43,11.63,13.73,19.39,25.07,25.71,27.29,21.06,15.94,13.13,10.01
Melun,48.5457,2.65356,FR,38953,2994651,Melun,2.48,3.07,8.94,11.3,14.33,20.84,21.06,23.84,16.73,9.99,8.74,4.71
Meaux,48.96014,2.87885,FR,53811,2994798,Meaux,2.5,3.03,8.94,11.19,14.18,20.22,20.72,23.3,16.72,9.76,8.81,4.69
Mazargues,43.24622,5.39788,FR,17527,2994895,Mazargues,6.69,6.65,10.86,13.42,18.56,24.52,25.29,27.24,20.25,15.07,12.57,8.93
Mayenne,48.30337,-0.61383,FR,15583,2994935,Mayenne,2.94,4.09,9.41,11.29,13.62,19.27,19.19,22.51,16.2,10.17,9.28,5.22
Maurepas,48.76486,1.92923,FR,19009,2995041,Maurepas,2.24,2.78,8.28,10.44,13.43,19.55,19.75,22.55,16.03,9.22,8.18,4.18
Mauguio,43.61692,4.00739,FR,18320,2995121,Mauguio,5.48,6.04,10.31,12.97,17.84,24.4,25.51,27.32,19.56,14.46,11.21,8.02
Maubeuge,50.27875,3.97267,FR,33684,2995150,Maubeuge,1.8,1.91,7.61,9.57,13.12,18.52,18.6,20.34,15.04,8.06,8.01,3.82
Massy,48.72692,2.28301,FR,38768,2995206,Massy,2.56,3.13,8.89,11.1,14.12,20.28,20.52,23.31,16.66,9.82,8.65,4.65
Martigues,43.40735,5.05526,FR,45749,2995387,Martigues,5.05,5.54,10.52,13.56,19.36,25.97,26.48,28.43,19.83,14.64,11.36,7.59
Marseille,43.29695,5.38107,FR,870731,2995469,Marseille,6.69,6.65,10.86,13.42,18.56,24.52,25.29,27.24,20.25,15.07,12.57,8.93
Marmande,44.50361,0.16546,FR,19069,2995642,Marmande,4.65,5.2,11.22,13.71,16.18,23.27,22.51,26.28,19.52,13.3,10.9,7.19
Marly-le-Roi,48.86667,2.08333,FR,17404,2995652,Marly-le-Roi,2.19,2.71,8.31,10.56,13.54,19.52,19.77,22.45,16.05,9.17,8.15,4.15
Marignane,43.41727,5.21462,FR,35873,2995750,Marignane,6.25,6.73,11.95,14.73,20.42,26.6,27.21,28.69,20.52,15.62,12.36,8.91
Marcq-en-Barœul,50.66667,3.08333,FR,38629,2995908,Marcq-en-Barœul,3.01,2.9,7.94,10.27,13.62,18.7,19.08,20.6,15.58,8.73,8.49,4.46
Mantes-la-Ville,48.97374,1.70253,FR,19947,2996146,Mantes-la-Ville,2.92,3.42,8.78,11.0,13.85,19.74,20.08,22.75,16.41,9.67,8.76,4.75
Mantes-la-Jolie,48.99048,1.7167,FR,44263,2996148,Mantes-la-Jolie,3.13,3.62,8.98,11.2,14.05,19.94,20.28,22.95,16.61,9.87,8.96,4.95
Manosque,43.82883,5.78688,FR,21351,2996180,Manosque,2.02,2.35,8.09,10.92,17.11,23.5,24.21,25.66,17.93,11.59,8.63,4.18
Mandelieu-la-Napoule,43.54577,6.93734,FR,19292,2996255,Mandelieu-la-Napoule,7.87,6.73,10.37,13.03,18.62,24.44,25.3,27.17,20.81,15.05,12.42,9.18
Malakoff,48.81999,2.29998,FR,29420,2996514,Malakoff,2.67,3.19,8.9,11.19,14.22,20.31,20.57,23.3,16.74,9.84,8.71,4.69
Maisons-Laffitte,48.95264,2.14521,FR,22772,2996564,Maisons-Laffitte,2.91,3.39,8.95,11.24,14.19,20.07,20.4,23.0,16.67,9.78,8.83,4.83
Maisons-Alfort,48.81171,2.43945,FR,53964,2996568,Maisons-Alfort,2.77,3.27,9.0,11.35,14.39,20.5,20.78,23.49,16.89,9.98,8.84,4.8
Mâcon,46.31407,4.82823,FR,35484,2996882,Mâcon,2.05,2.84,9.08,11.98,16.38,23.89,22.81,25.6,17.1,10.46,8.45,4.32
Lyon,45.74846,4.84671,FR,522969,2996944,Lyon,2.23,3.02,8.98,12.48,17.18,25.1,23.63,26.46,17.64,11.13,8.7,4.51
Lunéville,48.59273,6.49383,FR,21582,2997110,Lunéville,0.4,0.13,7.36,9.81,14.64,21.53,20.49,23.69,15.7,8.25,7.48,2.79
Lunel,43.67778,4.13611,FR,26588,2997116,Lunel,4.74,5.64,10.23,13.12,18.44,25.28,26.22,28.07,19.73,14.39,10.88,7.51
Lucé,48.43689,1.46359,FR,17780,2997246,Lucé,2.18,2.93,8.57,10.68,13.61,19.9,20.16,23.45,16.36,9.55,8.3,4.29
Louviers,49.21667,1.16667,FR,19220,2997336,Louviers,3.34,3.77,8.91,11.1,13.77,19.39,19.71,22.56,16.44,9.88,9.04,5.04
Lourdes,43.09461,-0.04611,FR,15786,2997395,Lourdes,3.06,3.33,9.31,10.84,13.2,20.37,19.5,22.23,16.24,11.04,8.84,5.08
Lormont,44.8765,-0.51919,FR,22636,2997556,Lormont,4.61,5.26,11.27,13.73,15.81,22.45,21.78,25.54,19.21,13.02,10.67,7.44
Lorient,47.74817,-3.37177,FR,58112,2997577,Lorient,6.4,6.85,10.08,11.35,13.3,17.72,18.63,20.77,17.16,12.42,11.66,8.49
Loos,50.60982,3.01874,FR,22107,2997620,Loos,2.93,2.79,7.91,10.21,13.55,18.63,19.06,20.69,15.54,8.66,8.4,4.35
Lons-le-Saunier,46.67535,5.55575,FR,20678,2997626,Lons-le-Saunier,1.51,1.63,8.74,10.88,15.33,23.47,21.92,25.11,16.36,9.37,7.78,3.5
Longjumeau,48.69307,2.29431,FR,20771,2997712,Longjumeau,2.81,3.38,9.14,11.35,14.37,20.53,20.77,23.56,16.91,10.07,8.9,4.9
Lomme,50.64358,2.98715,FR,29892,2997803,Lomme,2.85,2.7,7.81,10.11,13.45,18.53,18.96,20.59,15.44,8.56,8.3,4.26
Lognes,48.83541,2.62998,FR,15519,2997904,Lognes,2.39,2.91,8.79,11.01,14.01,20.17,20.5,23.2,16.56,9.67,8.57,4.53
Livry-Gargan,48.9193,2.54305,FR,39518,2998056,Livry-Gargan,2.51,2.96,8.7,11.09,14.08,20.16,20.52,23.15,16.59,9.64,8.57,4.51
L'Isle-sur-la-Sorgue,43.91971,5.05141,FR,16968,2998127,L'Isle-sur-la-Sorgue,3.58,4.41,10.02,13.08,19.13,26.26,26.3,28.43,19.3,13.45,10.55,6.37
Lisieux,49.1466,0.22925,FR,24473,2998150,Lisieux,3.47,4.31,9.18,11.04,13.43,18.86,19.05,21.83,16.06,9.92,9.39,5.3
Lingolsheim,48.55752,7.68253,FR,17284,2998224,Lingolsheim,0.63,0.37,7.49,10.03,15.58,21.96,20.91,24.17,16.55,8.26,7.26,2.61
Limoges,45.83362,1.24759,FR,141176,2998286,Limoges,2.17,3.29,9.3,11.43,13.8,21.25,20.27,23.87,16.33,10.48,9.08,4.91
Limeil-Brévannes,48.7448,2.48705,FR,19104,2998305,Limeil-Brévannes,2.54,3.05,8.84,11.15,14.18,20.41,20.69,23.45,16.7,9.86,8.67,4.64
Limay,48.99553,1.74081,FR,18559,2998311,Limay,3.08,3.57,8.94,11.15,14.0,19.89,20.23,22.9,16.56,9.82,8.91,4.9
Lille,50.63297,3.05858,FR,234475,2998324,Lille,2.89,2.76,7.89,10.18,13.54,18.65,19.03,20.64,15.49,8.63,8.41,4.35
Liévin,50.4198,2.78068,FR,34370,2998431,Liévin,2.95,2.83,7.99,10.2,13.44,18.49,18.99,20.86,15.58,8.7,8.44,4.37
Libourne,44.91449,-0.24186,FR,24240,2998517,Libourne,4.67,5.37,11.32,13.82,15.99,22.87,22.06,25.89,19.32,13.14,10.82,7.44
L'Haÿ-les-Roses,48.77935,2.33729,FR,29703,2998632,L'Haÿ-les-Roses,2.52,3.04,8.75,11.04,14.07,20.16,20.42,23.15,16.59,9.69,8.57,4.54
Le Vésinet,48.89281,2.13308,FR,16740,2998854,Le Vésinet,2.94,3.46,9.07,11.31,14.29,20.27,20.52,23.2,16.8,9.92,8.9,4.9
Levallois-Perret,48.89389,2.28864,FR,62178,2998975,Levallois-Perret,2.75,3.21,8.88,11.28,14.32,20.35,20.65,23.29,16.77,9.84,8.73,4.67
Les Sables-d'Olonne,46.49687,-1.7847,FR,16105,2999683,Les Sables-d'Olonne,5.75,6.41,11.05,12.4,14.47,19.58,20.04,22.36,17.73,12.62,11.65,8.36
Les Pennes-Mirabeau,43.41012,5.30838,FR,19871,3000047,Les Pennes-Mirabeau,4.69,5.0,9.76,12.82,18.53,24.97,25.55,27.51,19.36,14.0,11.11,7.1
Les Pavillons-sous-Bois,48.90683,2.50648,FR,19730,3000060,Les Pavillons-sous-Bois,2.61,3.06,8.8,11.19,14.18,20.26,20.62,23.25,16.69,9.74,8.67,4.61
Les Olives,43.32393,5.4584,FR,15181,3000138,Les Olives,6.15,6.01,10.22,12.77,17.96,23.9,24.69,26.59,19.7,14.45,11.95,8.28
Les Mureaux,48.99173,1.90972,FR,32134,3000192,Les Mureaux,3.13,3.61,9.06,11.32,14.24,20.11,20.43,23.07,16.74,9.94,9.0,5.0
Les Lilas,48.87992,2.42057,FR,21124,3000491,Les Lilas,2.21,2.65,8.33,10.76,13.78,19.84,20.18,22.82,16.26,9.31,8.21,4.15
Les Herbiers,46.87095,-1.0156,FR,15664,3000648,Les Herbiers,3.42,4.52,10.05,12.0,14.16,20.24,20.08,23.63,17.56,11.1,9.95,6.17
Les Clayes-sous-Bois,48.82206,1.98677,FR,17776,3001402,Les Clayes-sous-Bois,2.52,3.06,8.61,10.75,13.78,19.89,20.06,22.85,16.36,9.54,8.48,4.48
Le Puy-en-Velay,45.04366,3.88523,FR,22718,3002465,Le Puy-en-Velay,0.09,0.39,6.87,9.07,13.76,21.75,20.7,23.51,14.83,8.73,7.05,2.56
Le Pré-Saint-Gervais,48.88549,2.40422,FR,17786,3002499,Le Pré-Saint-Gervais,2.56,3.0,8.69,11.11,14.13,20.19,20.53,23.17,16.61,9.65,8.56,4.5
Le Pontet,43.96119,4.86008,FR,16182,3002570,Le Pontet,4.02,4.89,10.52,13.4,19.43,26.65,26.61,28.9,19.43,13.74,10.69,6.69
Le Plessis-Trévise,48.81074,2.57363,FR,18618,3002647,Le Plessis-Trévise,2.34,2.86,8.74,10.96,13.96,20.12,20.45,23.15,16.51,9.62,8.52,4.48
Le Plessis-Robinson,48.78889,2.27078,FR,22510,3002650,Le Plessis-Robinson,2.07,2.59,8.3,10.59,13.62,19.71,19.97,22.7,16.14,9.24,8.11,4.09
Le Petit-Quevilly,49.41338,1.06155,FR,22691,3002880,Le Petit-Quevilly,3.36,3.78,8.86,11.04,13.56,18.96,19.28,22.01,16.25,9.79,8.99,5.05
Le Perreux-sur-Marne,48.85,2.5,FR,32015,3002965,Le Perreux-sur-Marne,2.61,3.06,8.8,11.19,14.18,20.26,20.62,23.25,16.69,9.74,8.67,4.61
Le Pecq,48.89317,2.10371,FR,16534,3002984,Le Pecq,2.99,3.51,9.11,11.36,14.34,20.32,20.57,23.25,16.85,9.97,8.95,4.95
Lens,50.43302,2.82791,FR,38265,3003093,Lens,3.0,2.88,8.04,10.24,13.49,18.54,19.04,20.91,15.63,8.75,8.49,4.42
Le Mée-sur-Seine,48.53157,2.62829,FR,22058,3003481,Le Mée-sur-Seine,2.53,3.15,9.01,11.31,14.31,20.8,21.05,23.86,16.8,10.04,8.77,4.76
Le Mans,48.0021,0.20251,FR,144515,3003603,Le Mans,2.92,3.96,9.46,11.69,14.22,20.15,20.04,23.65,16.79,10.31,9.14,5.08
Le Kremlin-Bicêtre,48.81471,2.36073,FR,27867,3003737,Le Kremlin-Bicêtre,2.57,3.07,8.8,11.15,14.19,20.3,20.58,23.29,16.69,9.78,8.64,4.6
Le Havre,49.49346,0.10785,FR,185972,3003796,Le Havre,4.15,4.72,9.15,11.2,13.35,18.44,18.97,21.33,16.41,10.55,9.75,5.78
Le Grand-Quevilly,49.40076,1.04582,FR,26522,3003952,Le Grand-Quevilly,3.25,3.71,8.74,10.91,13.41,18.78,19.09,21.79,16.07,9.67,8.9,4.94
Le Creusot,46.80714,4.41632,FR,25590,3004427,Le Creusot,1.37,1.99,8.33,10.72,14.87,22.49,21.53,25.22,16.25,9.29,7.6,3.44
Le Chesnay,48.8222,2.12213,FR,29154,3004630,Le Chesnay,2.48,3.03,8.69,10.8,13.82,19.91,20.07,22.83,16.37,9.54,8.48,4.49
Le Cannet,43.57662,7.01912,FR,43353,3004871,Le Cannet,6.55,5.35,9.58,12.05,17.99,23.8,24.59,26.29,19.78,14.22,11.3,7.97
Le Bouscat,44.86488,-0.59864,FR,24232,3005066,Le Bouscat,4.84,5.44,11.46,13.93,16.02,22.59,21.95,25.73,19.4,13.23,10.84,7.64
Le Blanc-Mesnil,48.93872,2.46138,FR,48077,3005269,Le Blanc-Mesnil,2.65,3.11,8.86,11.24,14.23,20.31,20.67,23.3,16.73,9.78,8.72,4.66
Laxou,48.68372,6.14929,FR,16323,3005417,Laxou,0.51,0.64,7.83,10.2,14.8,21.53,20.71,23.78,15.89,8.5,7.74,3.08
La Valette-du-Var,43.13763,5.98317,FR,23134,3005825,La Valette-du-Var,7.4,6.96,11.31,14.12,19.79,26.0,26.88,28.58,21.17,15.66,12.53,9.0
Laval,48.07247,-0.77019,FR,50489,3005866,Laval,3.31,4.47,9.85,11.74,14.07,19.73,19.59,22.93,16.71,10.63,9.72,5.71
Lattes,43.56775,3.90279,FR,17390,3006121,Lattes,5.74,6.24,10.48,13.03,17.81,24.37,25.48,27.28,19.61,14.53,11.45,8.29
La Teste-de-Buch,44.63278,-1.14513,FR,27253,3006283,La Teste-de-Buch,6.11,6.23,12.11,13.96,16.17,22.21,21.69,25.16,19.56,13.9,11.64,8.61
La Seyne-sur-Mer,43.10322,5.87816,FR,62330,3006414,La Seyne-sur-Mer,7.77,7.13,10.68,13.3,18.49,24.56,25.25,27.41,20.88,15.28,12.77,9.5
La Roche-sur-Yon,46.66974,-1.42757,FR,59410,3006767,La Roche-sur-Yon,3.9,4.84,10.29,12.1,14.31,20.19,20.21,23.6,17.74,11.71,10.4,6.74
La Rochelle,46.16308,-1.15222,FR,76810,3006787,La Rochelle,4.62,5.42,10.96,12.76,15.03,20.74,20.63,23.98,18.48,12.66,10.86,7.51
La Pomme,43.28987,5.44153,FR,17787,3007221,La Pomme,6.59,6.55,10.76,13.32,18.46,24.42,25.19,27.14,20.15,14.97,12.47,8.83
Laon,49.5631,3.62714,FR,28688,3007477,Laon,1.67,1.72,7.76,10.02,13.22,18.85,19.18,21.43,15.49,8.5,7.82,3.78
Lannion,48.73264,-3.45657,FR,21473,3007609,Lannion,6.78,6.92,9.78,10.93,12.45,16.4,17.7,18.94,16.65,12.19,11.19,8.38
Lanester,47.76316,-3.3393,FR,24352,3007794,Lanester,5.8,6.39,10.04,11.31,13.23,17.83,18.67,21.16,17.02,11.96,11.19,7.92
Landerneau,48.4515,-4.25175,FR,16052,3007874,Landerneau,6.82,7.06,10.24,11.27,12.72,16.64,17.92,19.77,16.63,12.06,11.23,8.46
Lambersart,50.65,3.03333,FR,28613,3008218,Lambersart,2.95,2.8,7.91,10.21,13.55,18.63,19.06,20.69,15.54,8.66,8.4,4.36
La Madeleine,50.64603,3.07585,FR,23572,3008379,La Madeleine,2.89,2.76,7.89,10.18,13.54,18.65,19.03,20.64,15.49,8.63,8.41,4.35
Lagny-sur-Marne,48.86667,2.71667,FR,20649,3009071,Lagny-sur-Marne,2.26,2.75,8.61,10.88,13.87,19.96,20.36,22.99,16.4,9.49,8.46,4.39
La Garenne-Colombes,48.90472,2.2469,FR,26385,3009169,La Garenne-Colombes,2.83,3.32,8.97,11.29,14.3,20.29,20.57,23.23,16.77,9.87,8.8,4.78
La Garde,43.12468,6.01033,FR,28257,3009223,La Garde,7.7,7.26,11.61,14.42,20.09,26.3,27.18,28.88,21.47,15.96,12.83,9.3
La Flèche,47.69815,-0.07553,FR,18536,3009443,La Flèche,3.49,4.5,10.06,12.26,14.68,20.55,20.36,23.89,17.37,10.93,9.76,5.77
La Crau,43.14962,6.07399,FR,17905,3009791,La Crau,7.04,6.55,10.17,13.03,18.54,24.98,25.6,27.81,20.77,14.86,12.07,8.73
La Courneuve,48.92805,2.39627,FR,37287,3009824,La Courneuve,2.76,3.2,8.89,11.31,14.33,20.39,20.73,23.37,16.81,9.85,8.76,4.7
La Ciotat,43.17476,5.60449,FR,33113,3010025,La Ciotat,7.8,7.46,11.05,13.36,18.09,23.67,24.5,26.54,20.51,15.33,13.15,9.82
La Chapelle-sur-Erdre,47.29964,-1.55239,FR,18481,3010237,La Chapelle-sur-Erdre,3.99,4.83,10.21,12.1,14.24,19.79,19.98,22.91,17.62,11.3,10.32,6.46
La Celle-Saint-Cloud,48.85029,2.14523,FR,21539,3010529,La Celle-Saint-Cloud,2.29,2.81,8.41,10.66,13.64,19.62,19.87,22.55,16.15,9.27,8.25,4.25
Jouy-le-Moutier,49.01068,2.04028,FR,19087,3012162,Jouy-le-Moutier,2.7,3.19,8.71,10.96,13.91,19.76,20.07,22.68,16.38,9.54,8.6,4.61
Joué-lès-Tours,47.34907,0.66513,FR,37466,3012219,Joué-lès-Tours,2.99,3.86,9.67,12.01,14.66,20.98,20.87,24.82,17.37,10.86,9.23,5.38
Joinville-le-Pont,48.82538,2.47458,FR,18154,3012313,Joinville-le-Pont,2.74,3.24,9.04,11.34,14.36,20.49,20.8,23.5,16.88,9.98,8.85,4.81
Ivry-sur-Seine,48.81568,2.38487,FR,57897,3012621,Ivry-sur-Seine,2.77,3.27,9.0,11.35,14.39,20.5,20.78,23.49,16.89,9.98,8.84,4.8
Istres,43.51345,4.98747,FR,44373,3012647,Istres,5.0,5.49,10.46,13.51,19.31,25.92,26.42,28.38,19.78,14.59,11.31,7.54
Issy-les-Moulineaux,48.82104,2.27718,FR,61447,3012649,Issy-les-Moulineaux,2.67,3.19,8.9,11.19,14.22,20.31,20.57,23.3,16.74,9.84,8.71,4.69
Issoire,45.54422,3.24901,FR,15984,3012664,Issoire,0.93,1.95,7.87,10.49,14.4,22.25,21.33,24.42,15.31,9.69,7.67,3.11
Illzach,47.7742,7.35175,FR,15457,3012829,Illzach,0.31,0.09,7.31,9.55,14.99,22.58,21.18,24.49,16.24,7.46,6.41,1.94
Illkirch-Graffenstaden,48.52894,7.71523,FR,27261,3012834,Illkirch-Graffenstaden,0.67,0.3,7.56,10.1,15.64,22.13,21.07,24.28,16.7,8.28,7.21,2.63
Hyères,43.12038,6.12857,FR,50487,3012937,Hyères,6.99,6.51,10.12,12.98,18.49,24.94,25.55,27.76,20.72,14.81,12.02,8.68
Houilles,48.92161,2.19263,FR,31121,3013097,Houilles,2.93,3.42,9.07,11.39,14.4,20.39,20.67,23.33,16.87,9.97,8.9,4.88
Hérouville-Saint-Clair,49.21088,-0.30653,FR,24258,3013403,Hérouville-Saint-Clair,3.95,4.67,9.17,11.19,13.44,18.62,19.19,21.57,16.39,10.46,9.75,5.74
Herblay,48.98994,2.1699,FR,25153,3013477,Herblay,2.72,3.19,8.77,11.11,14.08,19.99,20.33,22.93,16.55,9.63,8.66,4.65
Hénin-Beaumont,50.41359,2.96485,FR,25371,3013525,Hénin-Beaumont,2.82,2.71,7.99,10.24,13.54,18.68,19.11,20.9,15.55,8.64,8.39,4.3
Hem,50.65256,3.18681,FR,19699,3013549,Hem,2.86,2.77,7.86,10.19,13.56,18.66,19.01,20.52,15.48,8.62,8.4,4.36
Hazebrouck,50.72374,2.53729,FR,23307,3013619,Hazebrouck,3.38,3.16,7.87,10.15,13.31,18.18,18.82,20.42,15.66,8.88,8.58,4.63
Hayange,49.32881,6.06278,FR,15501,3013627,Hayange,0.28,0.77,7.64,9.87,14.37,20.7,20.26,22.7,15.23,8.28,7.64,3.23
Hautmont,50.25077,3.92143,FR,15540,3013681,Hautmont,1.82,1.92,7.58,9.59,13.1,18.49,18.59,20.35,14.99,8.05,7.98,3.81
Yutz,49.35571,6.1926,FR,15659,3013701,Yutz,0.29,0.76,7.62,9.99,14.51,20.82,20.44,22.87,15.27,8.25,7.6,3.18
Haubourdin,50.60826,2.99143,FR,15694,3013862,Haubourdin,2.9,2.75,7.86,10.16,13.49,18.59,19.01,20.64,15.49,8.61,8.36,4.31
Halluin,50.78628,3.12611,FR,20171,3014034,Halluin,3.13,3.03,7.96,10.32,13.6,18.64,19.06,20.42,15.65,8.79,8.56,4.57
Haguenau,48.81557,7.79051,FR,38721,3014078,Haguenau,0.58,0.35,7.49,10.09,15.49,21.86,20.7,24.04,16.38,8.32,7.33,2.69
Guyancourt,48.77334,2.07393,FR,31989,3014143,Guyancourt,2.24,2.79,8.43,10.55,13.57,19.65,19.82,22.58,16.12,9.29,8.23,4.24
Gujan-Mestras,44.636,-1.06815,FR,19184,3014175,Gujan-Mestras,6.16,6.27,12.16,14.0,16.21,22.26,21.74,25.21,19.61,13.95,11.69,8.66
Guéret,46.17185,1.87166,FR,15853,3014383,Guéret,1.22,2.36,8.43,10.38,13.24,20.74,19.73,23.6,15.48,9.49,8.43,4.04
Guérande,47.32829,-2.42934,FR,16523,3014392,Guérande,5.05,5.58,10.11,11.81,13.88,18.88,19.44,22.02,17.35,12.0,10.97,7.48
Grigny,48.65412,2.39343,FR,24940,3014646,Grigny,2.55,3.11,8.91,11.16,14.19,20.36,20.62,23.37,16.71,9.86,8.67,4.66
Grenoble,45.17869,5.71479,FR,158552,3014728,Grenoble,1.79,2.19,9.9,12.41,17.04,24.63,23.7,26.2,18.1,11.37,8.33,3.72
Grasse,43.65783,6.92537,FR,47581,3014856,Grasse,4.91,3.47,8.37,11.2,17.11,22.82,23.75,25.28,18.44,12.78,9.74,6.36
Grande-Synthe,51.0154,2.29975,FR,23213,3015160,Grande-Synthe,4.09,3.61,7.9,10.31,13.23,18.07,19.01,20.28,16.09,9.53,8.99,5.2
Gradignan,44.77362,-0.61395,FR,24385,3015419,Gradignan,4.76,5.31,11.38,13.87,15.99,22.63,21.96,25.71,19.34,13.15,10.73,7.51
Goussainville,49.01367,2.46595,FR,30047,3015490,Goussainville,2.55,2.97,8.64,10.99,13.97,19.96,20.32,22.91,16.45,9.54,8.58,4.53
Gonesse,48.98693,2.44892,FR,26758,3015689,Gonesse,2.76,3.21,8.89,11.19,14.17,20.12,20.44,23.02,16.63,9.72,8.76,4.74
Givors,45.59063,4.76878,FR,18198,3015902,Givors,2.14,2.86,8.97,12.39,17.13,25.21,23.58,26.61,17.66,11.03,8.56,4.43
Gif-sur-Yvette,48.68333,2.13333,FR,23541,3016078,Gif-sur-Yvette,2.29,2.87,8.54,10.64,13.66,19.83,20.01,22.85,16.25,9.45,8.32,4.34
Gien,47.69332,2.63094,FR,15966,3016097,Gien,2.07,3.0,8.92,11.35,14.38,21.07,20.68,24.37,16.56,10.09,8.6,4.58
Gentilly,48.81294,2.3417,FR,15939,3016292,Gentilly,2.67,3.19,8.9,11.19,14.22,20.31,20.57,23.3,16.74,9.84,8.71,4.69
Gennevilliers,48.93333,2.3,FR,42294,3016321,Gennevilliers,2.81,3.26,8.93,11.34,14.37,20.4,20.7,23.35,16.81,9.89,8.78,4.72
Garges-lès-Gonesse,48.96791,2.39781,FR,39847,3016621,Garges-lès-Gonesse,2.66,3.11,8.79,11.09,14.07,20.02,20.34,22.92,16.53,9.62,8.66,4.64
Gardanne,43.45491,5.46913,FR,21140,3016667,Gardanne,4.44,4.63,9.49,12.45,18.09,24.48,25.15,27.03,19.1,13.66,10.81,6.74
Garches,48.84226,2.18232,FR,18930,3016675,Garches,2.31,2.86,8.57,10.74,13.76,19.83,20.03,22.77,16.28,9.43,8.34,4.34
Gap,44.55858,6.07868,FR,42715,3016702,Gap,-1.59,-2.52,6.18,8.07,14.39,20.94,21.63,23.38,16.09,8.98,4.85,1.11
Gagny,48.88333,2.53333,FR,38134,3016830,Gagny,2.55,3.01,8.76,11.14,14.13,20.21,20.57,23.2,16.63,9.68,8.62,4.56
Frontignan,43.44775,3.75524,FR,22251,3016956,Frontignan,6.71,6.93,10.79,13.12,17.43,23.67,24.9,26.65,19.65,14.9,12.15,9.12
Fresnes,48.75568,2.32241,FR,24803,3017178,Fresnes,2.67,3.19,8.9,11.19,14.22,20.31,20.57,23.3,16.74,9.84,8.71,4.69
Fréjus,43.43325,6.73555,FR,53098,3017253,Fréjus,7.53,6.58,10.37,13.16,18.97,24.9,25.8,27.64,20.79,15.07,12.35,8.98
Franconville,48.98333,2.23333,FR,34284,3017341,Franconville,2.67,3.14,8.72,11.06,14.02,19.94,20.28,22.88,16.5,9.58,8.61,4.6
Fougères,48.35157,-1.19961,FR,23719,3017609,Fougères,3.02,3.99,9.65,11.32,13.31,18.83,18.75,21.62,16.18,10.25,9.44,5.49
Fos-sur-Mer,43.43774,4.94457,FR,17317,3017651,Fos-sur-Mer,5.39,5.91,10.88,13.74,19.57,26.11,26.6,28.53,19.94,14.94,11.6,7.99
Forbach,49.18848,6.89255,FR,21358,3017805,Forbach,0.27,0.54,7.49,9.93,14.73,21.26,20.32,23.29,15.37,8.03,7.43,2.88
Fontenay-sous-Bois,48.85442,2.48268,FR,52075,3017910,Fontenay-sous-Bois,2.55,3.01,8.76,11.14,14.13,20.21,20.57,23.2,16.63,9.68,8.62,4.56
Fontenay-le-Comte,46.46671,-0.80624,FR,16316,3017921,Fontenay-le-Comte,3.89,4.95,10.64,12.63,14.91,21.08,20.8,24.68,18.38,11.94,10.32,6.73
Fontenay-aux-Roses,48.79325,2.29275,FR,24680,3017924,Fontenay-aux-Roses,2.47,2.99,8.7,10.99,14.02,20.11,20.37,23.1,16.54,9.64,8.51,4.49
Fontainebleau,48.40908,2.70177,FR,19717,3018074,Fontainebleau,2.46,3.13,9.05,11.37,14.38,20.93,21.1,23.92,16.76,10.06,8.78,4.76
Fontaine,45.19275,5.68821,FR,24588,3018095,Fontaine,1.84,2.23,9.95,12.46,17.09,24.68,23.75,26.25,18.15,11.42,8.38,3.77
Floirac,44.83061,-0.52675,FR,16497,3018246,Floirac,5.02,5.61,11.7,14.12,16.24,22.92,22.23,26.0,19.61,13.38,11.02,7.79
Fleury-les-Aubrais,47.93328,1.91811,FR,21085,3018280,Fleury-les-Aubrais,2.33,3.21,9.24,11.45,14.33,20.82,20.83,24.52,16.85,10.24,8.59,4.74
Flers,48.73722,-0.57466,FR,17430,3018339,Flers,2.6,3.6,8.85,10.46,12.7,18.17,18.34,21.22,15.45,9.46,8.87,4.81
Firminy,45.38956,4.2886,FR,17902,3018455,Firminy,0.39,1.28,7.15,10.29,14.94,22.65,21.68,24.46,15.32,9.4,7.13,2.81
Fécamp,49.75787,0.37457,FR,22003,3018794,Fécamp,5.25,5.24,9.06,10.62,12.85,17.25,18.32,20.17,16.49,11.05,10.25,6.72
Faches-Thumesnil,50.58333,3.06667,FR,16163,3019153,Faches-Thumesnil,2.79,2.66,7.79,10.08,13.44,18.55,18.93,20.54,15.39,8.53,8.31,4.25
Eysines,44.88442,-0.65141,FR,21394,3019193,Eysines,4.92,5.48,11.54,13.98,16.06,22.58,21.95,25.75,19.42,13.25,10.87,7.71
Évry,48.6328,2.44049,FR,51900,3019256,Évry,2.52,3.11,8.87,11.17,14.17,20.47,20.77,23.58,16.71,9.91,8.65,4.66
Évreux,49.02414,1.15082,FR,57795,3019265,Évreux,3.1,3.58,8.75,10.87,13.69,19.55,19.85,22.73,16.31,9.73,8.9,4.83
Étampes,48.43507,2.16233,FR,23012,3019459,Étampes,2.61,3.26,9.03,11.21,14.16,20.61,20.89,23.93,16.8,10.11,8.74,4.79
La Baule-Escoublac,47.29221,-2.36395,FR,17775,3019766,La Baule-Escoublac,5.2,5.73,10.27,11.97,14.03,19.03,19.59,22.17,17.5,12.15,11.11,7.63
Ermont,48.99004,2.25804,FR,28117,3019897,Ermont,2.77,3.24,8.89,11.18,14.15,20.08,20.4,22.98,16.61,9.7,8.74,4.72
Éragny,49.01667,2.1,FR,15385,3019952,Éragny,2.86,3.34,8.9,11.19,14.14,20.02,20.35,22.95,16.62,9.73,8.78,4.78
Équeurdreville-Hainneville,49.64868,-1.65306,FR,18862,3019960,Équeurdreville-Hainneville,6.28,5.87,8.97,10.46,12.47,16.68,18.02,19.44,16.68,12.12,10.87,7.77
Épinay-sur-Seine,48.9535,2.31514,FR,46145,3020020,Épinay-sur-Seine,2.92,3.39,9.04,11.33,14.31,20.23,20.55,23.13,16.76,9.85,8.89,4.88
Épinal,48.18324,6.45304,FR,39518,3020035,Épinal,-0.55,-0.97,7.02,9.34,14.11,21.43,19.98,23.34,15.02,7.63,6.88,2.35
Épernay,49.04,3.95922,FR,27082,3020062,Épernay,1.94,2.25,8.52,10.73,14.31,20.37,20.56,22.97,16.11,9.39,8.57,4.5
Elbeuf,49.28669,1.00288,FR,17231,3020307,Elbeuf,3.5,3.96,9.0,11.08,13.64,19.14,19.41,22.2,16.33,9.95,9.17,5.22
Élancourt,48.78421,1.9552,FR,30831,3020310,Élancourt,2.47,3.01,8.56,10.71,13.73,19.84,20.01,22.8,16.31,9.49,8.43,4.43
Écully,45.77437,4.77758,FR,19437,3020392,Écully,1.73,2.51,8.53,11.93,16.64,24.5,23.07,25.95,17.11,10.57,8.16,4.03
Échirolles,45.14603,5.71441,FR,33088,3020495,Échirolles,1.03,1.26,9.52,11.96,16.97,24.44,23.62,26.07,17.89,11.02,7.88,3.26
Eaubonne,48.99712,2.28249,FR,24096,3020601,Eaubonne,2.77,3.24,8.89,11.18,14.15,20.08,20.4,22.98,16.61,9.7,8.74,4.72
Dunkerque,51.0344,2.37681,FR,71287,3020686,Dunkerque,3.96,3.5,7.87,10.3,13.29,18.14,19.03,20.28,16.03,9.41,8.89,5.09
Dreux,48.73649,1.36566,FR,31058,3020810,Dreux,2.73,3.38,8.75,10.9,13.77,19.88,20.14,23.08,16.45,9.72,8.73,4.65
Draveil,48.68466,2.41418,FR,29316,3020832,Draveil,2.7,3.26,9.06,11.31,14.34,20.51,20.77,23.53,16.86,10.01,8.82,4.81
Drancy,48.92578,2.44533,FR,62488,3020839,Drancy,2.66,3.1,8.79,11.21,14.23,20.29,20.63,23.27,16.71,9.75,8.66,4.6
Draguignan,43.53692,6.46458,FR,38573,3020850,Draguignan,5.47,4.66,9.38,12.47,18.59,24.57,25.47,27.21,19.59,13.62,10.64,7.01
Douarnenez,48.09542,-4.32904,FR,16590,3020996,Douarnenez,7.49,7.72,10.24,11.19,12.71,16.55,17.67,19.31,16.55,12.65,11.82,9.32
Douai,50.37069,3.07922,FR,46531,3021000,Douai,2.81,2.72,8.03,10.27,13.59,18.74,19.13,20.9,15.56,8.67,8.43,4.34
Domont,49.02782,2.32638,FR,16684,3021150,Domont,2.27,2.74,8.39,10.68,13.65,19.58,19.9,22.48,16.11,9.2,8.24,4.22
Dole,47.09225,5.48966,FR,25878,3021263,Dole,1.75,1.72,8.74,11.03,15.54,23.64,22.22,25.57,16.7,9.59,7.79,3.56
Dijon,47.31667,5.01667,FR,158002,3021372,Dijon,1.66,1.86,8.71,11.07,15.35,22.72,21.7,25.19,16.48,9.55,7.83,3.56
Digne-les-Bains,44.09252,6.23199,FR,18986,3021382,Digne-les-Bains,0.94,0.77,6.97,9.54,15.7,22.02,22.66,24.04,16.85,10.43,7.18,3.21
Dieppe,49.9216,1.07772,FR,35707,3021411,Dieppe,4.02,4.2,8.71,10.9,13.27,18.23,18.87,21.12,16.32,9.98,9.35,5.49
Deuil-la-Barre,48.97674,2.32722,FR,21560,3021516,Deuil-la-Barre,2.77,3.24,8.89,11.18,14.15,20.08,20.4,22.98,16.61,9.7,8.74,4.72
Denain,50.3293,3.3943,FR,21412,3021605,Denain,2.6,2.62,8.08,10.29,13.62,18.85,19.15,20.91,15.56,8.71,8.47,4.36
Décines-Charpieu,45.76873,4.95883,FR,24674,3021662,Décines-Charpieu,1.84,2.47,8.84,11.95,16.67,24.74,23.12,26.27,17.4,10.64,8.23,4.1
Dax,43.71032,-1.05366,FR,22305,3021670,Dax,6.48,6.08,12.12,13.75,15.96,22.62,22.07,25.33,19.51,14.0,11.48,8.08
Dammarie-les-Lys,48.51667,2.65,FR,21066,3021852,Dammarie-les-Lys,2.58,3.2,9.06,11.37,14.37,20.85,21.1,23.91,16.85,10.09,8.82,4.81
Cugnaux,43.53635,1.34428,FR,15393,3022151,Cugnaux,4.53,5.3,10.9,12.97,16.09,23.98,23.94,26.85,19.36,13.32,11.0,6.92
Croix,50.67846,3.1493,FR,21361,3022376,Croix,2.87,2.74,7.79,10.12,13.47,18.56,18.93,20.45,15.43,8.58,8.33,4.31
Créteil,48.79266,2.46569,FR,84833,3022530,Créteil,2.69,3.19,8.99,11.29,14.31,20.44,20.74,23.46,16.83,9.93,8.8,4.76
Crépy-en-Valois,49.23359,2.88807,FR,15694,3022569,Crépy-en-Valois,2.37,2.75,8.54,10.75,13.76,19.66,20.12,22.66,16.32,9.34,8.54,4.43
Creil,49.25672,2.48477,FR,31863,3022610,Creil,2.62,3.0,8.63,10.87,13.88,19.52,19.94,22.34,16.32,9.36,8.57,4.51
Cran-Gevrier,45.9,6.1,FR,19354,3022700,Cran-Gevrier,0.02,1.13,8.2,10.39,14.94,22.77,21.12,24.02,15.83,8.94,6.28,1.92
Cournon-d'Auvergne,45.74123,3.19643,FR,18848,3022988,Cournon-d'Auvergne,0.83,1.87,7.72,10.35,14.19,21.98,21.11,24.22,15.16,9.5,7.54,3.06
Courbevoie,48.89672,2.25666,FR,85158,3023141,Courbevoie,2.71,3.16,8.83,11.24,14.27,20.3,20.6,23.25,16.71,9.79,8.68,4.62
Coulommiers,48.81451,3.08498,FR,15274,3023240,Coulommiers,2.34,2.82,8.91,11.08,14.16,20.41,20.87,23.6,16.67,9.79,8.75,4.61
Couëron,47.21473,-1.72452,FR,19466,3023324,Couëron,4.2,5.02,10.38,12.22,14.32,19.79,20.05,22.9,17.7,11.53,10.52,6.72
Coudekerque-Branche,51.02288,2.39359,FR,25201,3023356,Coudekerque-Branche,3.96,3.5,7.87,10.3,13.29,18.14,19.03,20.28,16.03,9.41,8.89,5.09
Cormeilles-en-Parisis,48.97111,2.20491,FR,21973,3023645,Cormeilles-en-Parisis,2.62,3.09,8.67,11.01,13.98,19.89,20.23,22.83,16.45,9.53,8.56,4.55
Corbeil-Essonnes,48.60603,2.48757,FR,40527,3023763,Corbeil-Essonnes,2.74,3.3,9.09,11.41,14.43,20.76,21.06,23.84,16.94,10.15,8.89,4.89
Conflans-Sainte-Honorine,49.00158,2.09694,FR,36358,3023924,Conflans-Sainte-Honorine,2.91,3.39,8.95,11.24,14.19,20.07,20.4,23.0,16.67,9.78,8.83,4.83
Concarneau,47.87536,-3.91896,FR,21397,3024035,Concarneau,6.04,6.7,10.34,11.49,13.15,17.7,18.6,21.22,16.91,12.0,11.16,8.15
Compiègne,49.41794,2.82606,FR,44243,3024066,Compiègne,2.62,2.92,8.64,10.96,13.98,19.58,20.09,22.48,16.49,9.4,8.65,4.54
Combs-la-Ville,48.66497,2.56957,FR,22322,3024107,Combs-la-Ville,2.46,2.96,8.78,11.08,14.09,20.36,20.67,23.42,16.62,9.8,8.62,4.6
Pontault-Combault,48.79813,2.60676,FR,34798,3024195,Pontault-Combault,2.34,2.86,8.74,10.96,13.96,20.12,20.45,23.15,16.51,9.62,8.52,4.48
Colomiers,43.61058,1.33467,FR,31363,3024223,Colomiers,4.3,5.07,10.69,12.9,16.0,23.89,23.72,26.72,19.18,13.14,10.84,6.79
Colombes,48.91882,2.25404,FR,82300,3024266,Colombes,2.75,3.21,8.88,11.28,14.32,20.35,20.65,23.29,16.77,9.84,8.73,4.67
Colmar,48.08078,7.35584,FR,65405,3024297,Colmar,0.17,0.24,7.83,10.22,15.61,22.67,21.38,24.58,16.64,7.89,7.03,2.37
Cognac,45.69581,-0.32867,FR,20868,3024440,Cognac,4.13,5.21,10.97,13.24,15.33,21.79,21.34,25.31,18.89,12.54,10.67,7.13
Cluses,46.06251,6.57497,FR,19789,3024532,Cluses,-1.16,-1.4,6.79,9.68,15.35,22.82,21.39,23.72,16.02,8.41,5.56,-0.08
Clichy-sous-Bois,48.9102,2.55323,FR,29062,3024596,Clichy-sous-Bois,2.21,2.7,8.51,10.82,13.8,19.88,20.26,22.89,16.32,9.39,8.35,4.3
Clichy,48.90018,2.30952,FR,57467,3024597,Clichy,2.81,3.26,8.93,11.34,14.37,20.4,20.7,23.35,16.81,9.89,8.78,4.72
Clermont-Ferrand,45.77969,3.08682,FR,147865,3024635,Clermont-Ferrand,0.71,1.81,7.6,10.28,14.09,21.82,21.08,24.23,15.1,9.34,7.41,2.99
Clamart,48.80299,2.26692,FR,51400,3024783,Clamart,2.47,2.99,8.7,10.99,14.02,20.11,20.37,23.1,16.54,9.64,8.51,4.49
Cholet,47.05893,-0.87974,FR,53160,3025053,Cholet,3.44,4.5,9.95,12.0,14.22,20.31,20.18,23.52,17.52,10.99,9.95,6.05
Choisy-le-Roi,48.76846,2.41874,FR,35590,3025055,Choisy-le-Roi,2.82,3.32,9.05,11.4,14.43,20.55,20.83,23.55,16.94,10.03,8.89,4.85
Chilly-Mazarin,48.71489,2.31638,FR,18870,3025144,Chilly-Mazarin,2.61,3.18,8.94,11.15,14.17,20.33,20.57,23.36,16.71,9.87,8.7,4.7
Chevilly-Larue,48.76476,2.3503,FR,20125,3025314,Chevilly-Larue,2.42,2.92,8.65,11.0,14.03,20.15,20.43,23.15,16.54,9.63,8.49,4.45
Cherbourg-Octeville,49.63984,-1.61636,FR,26655,3025466,Cherbourg-Octeville,6.35,5.95,9.04,10.5,12.54,16.71,18.08,19.47,16.85,12.23,10.99,7.89
Chenôve,47.29323,5.00457,FR,15791,3025496,Chenôve,1.46,1.66,8.51,10.87,15.15,22.52,21.5,24.99,16.28,9.35,7.63,3.36
Chennevières-sur-Marne,48.79702,2.54046,FR,18314,3025509,Chennevières-sur-Marne,2.34,2.84,8.64,10.94,13.96,20.09,20.4,23.1,16.48,9.58,8.45,4.41
Chelles,48.88109,2.59295,FR,46947,3025622,Chelles,2.71,3.2,9.01,11.32,14.3,20.38,20.76,23.39,16.82,9.89,8.85,4.8
Chaville,48.80565,2.18864,FR,18735,3025715,Chaville,2.56,3.11,8.82,10.98,14.01,20.08,20.28,23.02,16.53,9.68,8.59,4.59
Chaumont,48.11121,5.14134,FR,28981,3025892,Chaumont,0.71,1.14,7.82,10.07,14.23,21.0,20.13,23.37,15.52,8.54,7.68,3.16
Chatou,48.8898,2.15863,FR,30091,3026033,Chatou,2.83,3.32,8.97,11.29,14.3,20.29,20.57,23.23,16.77,9.87,8.8,4.78
Châtillon,48.8024,2.29346,FR,32383,3026083,Châtillon,2.42,2.94,8.65,10.94,13.97,20.06,20.32,23.05,16.49,9.59,8.47,4.44
Châtenay-Malabry,48.76507,2.26655,FR,32715,3026108,Châtenay-Malabry,2.27,2.79,8.5,10.79,13.82,19.91,20.17,22.9,16.34,9.44,8.31,4.29
Châtellerault,46.81705,0.54518,FR,37210,3026141,Châtellerault,3.44,4.4,10.14,12.52,15.0,21.68,21.5,25.44,17.92,11.37,9.83,5.89
Château-Thierry,49.04636,3.40304,FR,15938,3026194,Château-Thierry,2.14,2.55,8.71,10.84,14.04,20.12,20.63,23.24,16.47,9.46,8.62,4.45
Châteauroux,46.81248,1.69362,FR,53301,3026204,Châteauroux,2.5,3.42,9.43,11.88,14.58,21.75,21.39,25.39,17.1,10.64,9.13,4.93
Châteaudun,48.07086,1.33783,FR,16006,3026285,Châteaudun,2.3,3.09,8.91,10.97,13.82,20.13,20.31,23.97,16.63,9.88,8.44,4.52
Chartres,48.44685,1.48925,FR,43838,3026467,Chartres,2.18,2.93,8.57,10.68,13.61,19.9,20.16,23.45,16.36,9.55,8.3,4.29
Charleville-Mézières,49.7685,4.72487,FR,52415,3026613,Charleville-Mézières,1.07,1.3,7.83,10.0,13.64,19.36,19.31,21.6,15.36,8.37,7.95,3.73
Charenton-le-Pont,48.82209,2.41217,FR,30910,3026637,Charenton-le-Pont,2.67,3.17,8.9,11.25,14.29,20.4,20.68,23.39,16.79,9.88,8.74,4.7
Champs-sur-Marne,48.85,2.6,FR,27776,3027014,Champs-sur-Marne,2.51,3.0,8.81,11.12,14.1,20.18,20.56,23.19,16.62,9.69,8.65,4.6
Champigny-sur-Marne,48.81642,2.49366,FR,76726,3027105,Champigny-sur-Marne,2.74,3.24,9.04,11.34,14.36,20.49,20.8,23.5,16.88,9.98,8.85,4.81
Chambéry,45.56628,5.92079,FR,61640,3027422,Chambéry,1.07,2.61,9.74,12.12,16.6,24.4,23.28,26.21,17.83,10.51,7.38,2.93
Chamalières,45.77364,3.06703,FR,20298,3027453,Chamalières,0.65,1.76,7.55,10.23,14.04,21.77,21.03,24.18,15.05,9.29,7.35,2.94
Chalon-sur-Saône,46.78112,4.85372,FR,47251,3027484,Chalon-sur-Saône,1.97,2.33,9.08,11.62,16.01,23.63,22.71,26.01,16.94,10.11,7.98,3.8
Châlons-en-Champagne,48.95393,4.36724,FR,51257,3027487,Châlons-en-Champagne,1.4,1.95,8.37,10.75,14.37,20.45,20.56,22.98,15.98,9.26,8.45,4.32
Challans,46.8458,-1.87942,FR,18947,3027513,Challans,4.98,5.72,10.67,12.37,14.42,19.83,20.17,22.88,17.91,12.48,11.29,7.75
Cestas,44.74471,-0.68194,FR,18036,3027763,Cestas,4.83,5.39,11.66,13.91,16.05,22.65,21.89,25.6,19.29,13.08,10.81,7.58
Cesson-Sévigné,48.1212,-1.603,FR,16222,3027767,Cesson-Sévigné,3.7,4.51,9.85,11.7,13.75,19.1,19.18,22.02,16.76,10.74,9.87,5.96
Cergy,49.03645,2.07613,FR,57576,3027883,Cergy,2.86,3.34,8.9,11.19,14.14,20.02,20.35,22.95,16.62,9.73,8.78,4.78
Cenon,44.85614,-0.53355,FR,22393,3027950,Cenon,4.91,5.56,11.57,14.03,16.11,22.75,22.08,25.84,19.51,13.32,10.97,7.74
Cavaillon,43.83125,5.03586,FR,26689,3028134,Cavaillon,3.88,4.52,10.14,13.15,19.2,26.33,26.48,28.55,19.35,13.72,10.58,6.56
Castres,43.60527,2.24088,FR,47275,3028263,Castres,3.6,4.61,10.26,12.43,16.01,23.62,23.73,26.46,18.44,12.51,10.64,6.76
Castelnau-le-Lez,43.63605,3.90137,FR,18011,3028337,Castelnau-le-Lez,5.39,5.89,10.13,12.68,17.46,24.02,25.13,26.93,19.26,14.18,11.1,7.94
Carvin,50.49235,2.95815,FR,18561,3028486,Carvin,2.87,2.75,7.94,10.21,13.54,18.65,19.08,20.79,15.53,8.63,8.39,4.31
Carrières-sous-Poissy,48.94952,2.04068,FR,15465,3028521,Carrières-sous-Poissy,3.05,3.58,9.12,11.35,14.32,20.3,20.54,23.24,16.85,10.0,8.99,5.0
Carquefou,47.29722,-1.4921,FR,18056,3028535,Carquefou,3.84,4.72,10.11,12.06,14.21,19.79,19.95,22.9,17.56,11.17,10.19,6.31
Carpentras,44.05507,5.04813,FR,29709,3028542,Carpentras,3.16,3.93,9.74,12.65,18.68,26.0,25.79,28.08,18.63,12.82,9.96,5.82
Carcassonne,43.21649,2.34863,FR,49600,3028641,Carcassonne,4.19,5.21,10.23,12.41,16.27,23.85,24.39,26.72,18.88,13.03,10.75,6.93
Canteleu,49.44065,1.02459,FR,15742,3028779,Canteleu,2.81,3.26,8.29,10.46,12.96,18.33,18.64,21.34,15.62,9.22,8.45,4.48
Cannes,43.55135,7.01275,FR,74545,3028808,Cannes,7.27,6.09,10.12,12.49,18.4,24.22,24.93,26.76,20.35,14.8,11.96,8.7
Cambrai,50.17596,3.23472,FR,36492,3029030,Cambrai,2.5,2.52,8.0,10.17,13.43,18.63,19.01,20.86,15.47,8.63,8.34,4.23
Caluire-et-Cuire,45.79462,4.8464,FR,42763,3029096,Caluire-et-Cuire,1.63,2.41,8.43,11.83,16.54,24.4,22.97,25.85,17.01,10.47,8.06,3.93
Calais,50.95194,1.85635,FR,74433,3029162,Calais,4.78,4.36,8.66,10.56,13.03,17.52,18.74,20.3,15.87,9.62,9.33,5.79
Cahors,44.4491,1.43663,FR,23331,3029213,Cahors,4.14,4.98,10.98,13.39,16.17,24.14,23.06,26.1,18.98,12.94,10.94,6.93
Cagnes-sur-Mer,43.66352,7.1479,FR,46923,3029227,Cagnes-sur-Mer,7.17,5.99,10.02,12.39,18.3,24.12,24.83,26.66,20.25,14.7,11.86,8.6
Caen,49.18585,-0.35912,FR,110624,3029241,Caen,3.97,4.65,9.12,11.1,13.34,18.49,19.11,21.43,16.36,10.47,9.75,5.75
Cachan,48.79632,2.33661,FR,26540,3029276,Cachan,2.82,3.34,9.05,11.34,14.37,20.46,20.72,23.45,16.89,9.99,8.87,4.84
Bry-sur-Marne,48.83811,2.52488,FR,16226,3029706,Bry-sur-Marne,2.64,3.14,8.94,11.24,14.26,20.39,20.7,23.4,16.78,9.88,8.75,4.71
Brunoy,48.6942,2.49223,FR,24096,3029748,Brunoy,2.49,3.0,8.79,11.1,14.13,20.36,20.65,23.4,16.65,9.81,8.62,4.59
Bruay-la-Buissière,50.48333,2.55,FR,24474,3029825,Bruay-la-Buissière,3.05,2.9,7.82,10.01,13.19,18.11,18.7,20.53,15.51,8.69,8.41,4.41
Bron,45.73865,4.91303,FR,37825,3029931,Bron,1.84,2.56,8.67,12.09,16.83,24.91,23.28,26.31,17.36,10.73,8.26,4.13
Brive-la-Gaillarde,45.1589,1.53326,FR,53466,3029974,Brive-la-Gaillarde,3.62,4.49,10.71,12.96,15.46,23.43,22.24,25.68,18.0,11.95,10.19,6.15
Brignoles,43.4058,6.06172,FR,15027,3030057,Brignoles,4.32,4.0,8.95,12.08,18.34,24.74,25.62,27.42,19.38,13.33,10.19,5.97
Brie-Comte-Robert,48.69247,2.6109,FR,15892,3030101,Brie-Comte-Robert,2.46,2.96,8.78,11.08,14.09,20.36,20.67,23.42,16.62,9.8,8.62,4.6
Brétigny-sur-Orge,48.61135,2.30593,FR,24317,3030257,Brétigny-sur-Orge,2.59,3.2,8.94,11.19,14.18,20.46,20.76,23.6,16.75,9.95,8.7,4.71
Brest,48.39029,-4.48628,FR,144899,3030300,Brest,7.11,7.28,10.08,10.98,12.44,16.1,17.43,19.08,16.27,12.14,11.37,8.8
Bressuire,46.84158,-0.49042,FR,20743,3030303,Bressuire,2.92,4.01,9.61,11.59,13.96,20.28,19.92,23.62,17.21,10.66,9.4,5.59
Bourg-lès-Valence,44.94703,4.89463,FR,19770,3030985,Bourg-lès-Valence,2.92,3.39,9.41,12.65,17.56,25.52,24.69,27.4,17.94,11.94,9.37,5.3
Bourg-la-Reine,48.77888,2.31781,FR,18870,3030990,Bourg-la-Reine,2.72,3.24,8.95,11.24,14.27,20.36,20.62,23.35,16.79,9.89,8.77,4.74
Bourges,47.08333,2.4,FR,67987,3031005,Bourges,2.39,3.23,9.24,11.81,14.73,21.62,21.06,25.29,16.88,10.55,8.72,4.79
Bourg-en-Bresse,46.20574,5.2258,FR,45340,3031009,Bourg-en-Bresse,1.78,2.3,8.99,11.59,16.08,24.24,22.69,25.67,17.09,10.2,8.17,4.0
Boulogne-sur-Mer,50.72571,1.61392,FR,47013,3031133,Boulogne-sur-Mer,4.3,3.88,7.82,9.96,12.48,16.96,18.06,19.92,15.83,9.72,9.26,5.43
Boulogne-Billancourt,48.83545,2.24128,FR,108782,3031137,Boulogne-Billancourt,2.96,3.51,9.22,11.38,14.41,20.48,20.68,23.42,16.93,10.08,8.99,4.99
Bouguenais,47.17941,-1.62468,FR,16824,3031268,Bouguenais,4.02,4.91,10.32,12.2,14.32,19.86,20.09,23.01,17.71,11.41,10.39,6.55
Bordeaux,44.84044,-0.5805,FR,260958,3031582,Bordeaux,4.86,5.41,11.48,13.97,16.09,22.73,22.06,25.81,19.44,13.25,10.83,7.61
Bonneuil-sur-Marne,48.7695,2.4793,FR,18723,3031709,Bonneuil-sur-Marne,2.69,3.19,8.99,11.29,14.31,20.44,20.74,23.46,16.83,9.93,8.8,4.76
Bondy,48.9018,2.48931,FR,48268,3031815,Bondy,2.65,3.11,8.86,11.24,14.23,20.31,20.67,23.3,16.73,9.78,8.72,4.66
Boissy-Saint-Léger,48.75149,2.51163,FR,15877,3031898,Boissy-Saint-Léger,2.44,2.94,8.74,11.04,14.06,20.19,20.5,23.2,16.58,9.68,8.55,4.51
Bois-Colombes,48.91936,2.27485,FR,24300,3032070,Bois-Colombes,2.81,3.26,8.93,11.34,14.37,20.4,20.7,23.35,16.81,9.89,8.78,4.72
Bobigny,48.90982,2.45012,FR,44962,3032179,Bobigny,2.65,3.11,8.86,11.24,14.23,20.31,20.67,23.3,16.73,9.78,8.72,4.66
Blois,47.59432,1.32912,FR,53660,3032213,Blois,2.66,3.5,9.47,11.79,14.48,21.11,21.07,25.02,17.06,10.54,8.78,5.0
Blanquefort,44.91065,-0.63758,FR,16636,3032340,Blanquefort,4.79,5.39,11.41,13.88,15.97,22.54,21.9,25.68,19.35,13.18,10.79,7.59
Blagnac,43.63675,1.38971,FR,24263,3032469,Blagnac,4.44,5.27,10.83,13.1,16.3,24.19,24.08,26.98,19.35,13.35,11.04,7.0
Bischheim,48.61612,7.75343,FR,17434,3032551,Bischheim,0.54,0.19,7.51,10.04,15.53,22.06,21.01,24.38,16.54,8.24,7.19,2.57
Biarritz,43.48055,-1.55684,FR,33188,3032797,Biarritz,7.82,7.78,12.6,13.66,15.2,20.8,20.47,23.62,19.61,14.71,12.93,9.69
Bezons,48.92426,2.2128,FR,27570,3032824,Bezons,2.93,3.42,9.07,11.39,14.4,20.39,20.67,23.33,16.87,9.97,8.9,4.88
Béziers,43.34122,3.21402,FR,74081,3032833,Béziers,5.22,5.81,10.05,12.48,16.71,23.41,24.68,26.49,19.04,13.81,11.32,8.13
Béthune,50.52965,2.64003,FR,31568,3033002,Béthune,3.21,3.05,7.97,10.15,13.34,18.26,18.84,20.68,15.66,8.84,8.56,4.56
Besançon,47.24878,6.01815,FR,128426,3033123,Besançon,0.99,0.82,8.53,10.77,15.15,23.25,21.57,25.15,16.35,9.19,7.87,3.46
Bergerac,44.85157,0.48171,FR,28317,3033391,Bergerac,4.54,5.44,11.64,13.88,16.22,23.52,22.52,26.13,19.21,13.12,11.13,7.37
Berck,50.4,1.6,FR,15609,3033415,Berck,4.24,4.03,8.4,10.56,13.08,17.69,18.57,20.68,16.1,9.87,9.36,5.5
Berck-Plage,50.40704,1.56446,FR,15675,3033416,Berck-Plage,4.19,3.98,8.36,10.51,13.03,17.64,18.52,20.63,16.05,9.82,9.31,5.45
Belfort,47.64218,6.85385,FR,54562,3033791,Belfort,0.29,-0.26,7.65,9.64,14.59,22.3,20.88,24.03,15.87,7.61,6.52,2.2
Bègles,44.80759,-0.55144,FR,23504,3033881,Bègles,4.91,5.46,11.53,14.03,16.15,22.78,22.11,25.87,19.49,13.31,10.88,7.66
Beauvais,49.43333,2.08333,FR,53393,3034006,Beauvais,2.87,3.18,8.59,10.78,13.73,19.32,19.84,22.29,16.23,9.39,8.66,4.61
Beaune,47.02413,4.83887,FR,24162,3034126,Beaune,1.88,2.16,8.9,11.28,15.6,23.12,22.18,25.77,16.76,9.85,7.97,3.76
Bayonne,43.49316,-1.473,FR,44396,3034475,Bayonne,7.66,7.53,12.26,13.47,15.16,20.79,20.59,23.63,19.5,14.59,12.58,9.42
Bayeux,49.27732,-0.7039,FR,15963,3034483,Bayeux,4.36,4.78,8.94,10.87,13.05,17.96,18.83,20.83,16.44,10.81,9.86,6.08
Bastia,42.70219,9.45123,FR,41001,3034640,Bastia,9.68,7.44,11.34,13.58,19.06,25.11,26.01,27.75,21.38,16.88,14.42,10.88
Bar-le-Duc,48.77275,5.16108,FR,18595,3034911,Bar-le-Duc,0.88,1.49,8.32,10.36,14.41,20.89,20.41,23.41,15.98,8.92,8.33,3.91
Balma,43.61111,1.49944,FR,15553,3035204,Balma,4.35,5.21,10.75,13.0,16.27,24.21,24.08,26.9,19.2,13.27,11.02,6.97
Bagnols-sur-Cèze,44.16259,4.61974,FR,19640,3035396,Bagnols-sur-Cèze,4.31,4.74,10.37,12.98,18.76,26.31,26.14,28.37,18.97,13.37,10.34,6.73
Bagnolet,48.86667,2.41667,FR,33504,3035403,Bagnolet,2.41,2.85,8.53,10.96,13.98,20.04,20.38,23.02,16.46,9.51,8.41,4.35
Bagneux,48.79565,2.30796,FR,38900,3035409,Bagneux,2.42,2.94,8.65,10.94,13.97,20.06,20.32,23.05,16.49,9.59,8.47,4.44
Avon,48.40219,2.72022,FR,15009,3035654,Avon,2.46,3.13,9.05,11.37,14.38,20.93,21.1,23.92,16.76,10.06,8.78,4.76
Avion,50.41038,2.83053,FR,18470,3035667,Avion,3.05,2.93,8.09,10.3,13.54,18.59,19.09,20.96,15.68,8.8,8.54,4.47
Avignon,43.94834,4.80892,FR,89769,3035681,Avignon,4.22,5.02,10.57,13.42,19.4,26.57,26.71,28.84,19.55,13.97,10.75,6.93
Auxerre,47.7996,3.57033,FR,41516,3035843,Auxerre,2.05,2.91,8.87,11.39,14.76,21.5,21.11,24.73,16.78,10.11,8.75,4.61
Autun,46.95104,4.29869,FR,18283,3035883,Autun,1.43,2.15,8.71,10.94,14.92,22.28,21.36,25.19,16.45,9.34,7.84,3.64
Aurillac,44.92539,2.43983,FR,34724,3036016,Aurillac,1.12,1.58,7.71,9.86,13.27,21.34,19.95,23.07,15.19,9.17,7.67,3.72
Aulnay-sous-Bois,48.93814,2.49402,FR,80615,3036145,Aulnay-sous-Bois,2.71,3.16,8.9,11.29,14.28,20.36,20.72,23.35,16.79,9.84,8.77,4.71
Audincourt,47.48327,6.85341,FR,15577,3036240,Audincourt,0.25,-0.33,7.62,9.44,14.42,21.89,20.46,23.53,15.45,7.56,6.47,2.22
Auch,43.64561,0.58856,FR,24494,3036281,Auch,5.03,5.54,11.6,13.49,16.22,23.82,23.51,26.7,19.65,13.61,11.19,7.23
Aubervilliers,48.91667,2.38333,FR,70914,3036386,Aubervilliers,2.76,3.2,8.89,11.31,14.33,20.39,20.73,23.37,16.81,9.85,8.76,4.7
Aubagne,43.29276,5.57067,FR,44844,3036433,Aubagne,7.1,6.76,10.35,12.66,17.39,22.97,23.8,25.84,19.81,14.63,12.45,9.12
Athis-Mons,48.70522,2.39147,FR,31225,3036460,Athis-Mons,2.8,3.36,9.16,11.41,14.44,20.61,20.87,23.63,16.96,10.11,8.92,4.91
Asnières-sur-Seine,48.91667,2.28333,FR,86742,3036572,Asnières-sur-Seine,2.81,3.26,8.93,11.34,14.37,20.4,20.7,23.35,16.81,9.89,8.78,4.72
Arras,50.29301,2.78186,FR,47052,3036784,Arras,2.72,2.64,7.91,10.1,13.3,18.38,18.88,20.81,15.45,8.58,8.29,4.21
Armentières,50.68568,2.88214,FR,26646,3036903,Armentières,3.11,2.96,7.91,10.22,13.51,18.54,19.0,20.53,15.58,8.75,8.47,4.47
Arles,43.67681,4.63031,FR,53431,3036938,Arles,4.88,5.67,10.68,13.46,19.25,25.98,26.69,28.59,19.81,14.55,11.04,7.56
Argenteuil,48.94788,2.24744,FR,101475,3037044,Argenteuil,2.88,3.37,9.02,11.34,14.35,20.34,20.62,23.27,16.82,9.92,8.85,4.83
Argentan,48.74441,-0.02023,FR,18230,3037051,Argentan,2.71,3.65,8.77,10.59,13.11,18.8,18.77,21.84,15.54,9.41,8.82,4.75
Arcueil,48.79993,2.33256,FR,17308,3037157,Arcueil,2.82,3.34,9.05,11.34,14.37,20.46,20.72,23.45,16.89,9.99,8.87,4.84
Antony,48.75329,2.29668,FR,59845,3037423,Antony,2.67,3.19,8.9,11.19,14.22,20.31,20.57,23.3,16.74,9.84,8.71,4.69
Antibes,43.58127,7.12487,FR,76393,3037456,Antibes,7.27,6.09,10.12,12.49,18.4,24.22,24.93,26.76,20.35,14.8,11.96,8.7
Annonay,45.23992,4.6707,FR,18423,3037514,Annonay,1.33,1.87,7.75,10.89,15.9,23.95,22.81,25.4,16.39,10.2,7.79,3.79
Annemasse,46.19439,6.23775,FR,28275,3037538,Annemasse,-0.14,0.7,7.67,10.1,14.9,22.83,21.12,23.92,15.58,8.68,6.07,1.65
Annecy-le-Vieux,45.91971,6.14393,FR,21521,3037540,Annecy-le-Vieux,0.07,1.17,8.25,10.45,14.99,22.82,21.16,24.07,15.88,8.99,6.33,1.98
Annecy,45.90878,6.12565,FR,49232,3037543,Annecy,0.01,1.32,8.54,10.79,15.36,23.13,21.64,24.53,16.33,9.31,6.5,1.96
Angoulême,45.64997,0.15345,FR,49468,3037598,Angoulême,3.72,4.82,10.84,13.01,15.11,22.05,21.17,25.08,18.27,12.15,10.42,6.69
Anglet,43.48921,-1.51921,FR,40658,3037612,Anglet,7.51,7.38,12.11,13.32,15.01,20.65,20.43,23.48,19.35,14.44,12.43,9.26
Angers,47.47156,-0.55202,FR,168279,3037656,Angers,3.46,4.44,9.95,12.12,14.44,20.35,20.22,23.58,17.42,10.85,9.82,5.84
Amiens,49.9,2.3,FR,143086,3037854,Amiens,3.12,3.16,8.43,10.57,13.57,18.7,19.21,21.43,16.06,9.18,8.68,4.67
Allauch,43.33573,5.48201,FR,21406,3038159,Allauch,5.6,5.46,9.67,12.22,17.4,23.34,24.15,26.04,19.15,13.9,11.4,7.73
Alfortville,48.80575,2.4204,FR,37290,3038213,Alfortville,2.77,3.27,9.0,11.35,14.39,20.5,20.78,23.49,16.89,9.98,8.84,4.8
Alès,44.12489,4.08082,FR,42410,3038224,Alès,3.86,3.99,9.27,12.03,17.49,24.99,25.03,27.08,18.34,12.52,9.35,5.98
Alençon,48.43476,0.09311,FR,30786,3038230,Alençon,2.55,3.54,8.84,10.86,13.35,19.24,19.19,22.65,15.93,9.6,8.62,4.51
Albi,43.9298,2.148,FR,52409,3038261,Albi,3.47,4.39,9.94,12.26,15.76,23.55,23.19,25.98,18.18,12.31,10.32,6.53
Albertville,45.67452,6.39061,FR,19113,3038266,Albertville,-0.25,-0.23,8.22,10.53,16.09,22.95,22.15,24.44,17.32,9.57,6.68,1.24
Ajaccio,41.91886,8.73812,FR,54364,3038334,Ajaccio,10.56,8.73,12.25,14.45,19.63,25.36,26.01,28.15,21.89,17.73,15.58,11.87
Aix-les-Bains,45.69173,5.90863,FR,27651,3038350,Aix-les-Bains,1.46,2.94,10.05,12.37,16.81,24.61,23.36,26.32,17.91,10.66,7.76,3.34
Aix-en-Provence,43.5283,5.44973,FR,146821,3038354,Aix-en-Provence,3.96,4.32,9.49,12.55,18.42,24.93,25.55,27.41,19.16,13.52,10.58,6.36
Agen,44.20199,0.62055,FR,34367,3038634,Agen,4.66,5.28,11.27,13.69,16.31,23.83,23.16,26.58,19.8,13.61,11.21,7.24
Agde,43.31083,3.47583,FR,23001,3038638,Agde,6.12,6.64,10.61,12.93,17.1,23.59,25.04,26.71,19.58,14.57,12.03,8.95
Achères,48.96115,2.06882,FR,22555,3038712,Achères,3.01,3.49,9.05,11.34,14.29,20.17,20.5,23.1,16.77,9.88,8.93,4.93
Abbeville,50.10521,1.83547,FR,26461,3038789,Abbeville,3.71,3.67,8.53,10.61,13.34,18.22,18.86,21.0,15.99,9.49,9.04,5.09
Villeneuve-d'Ascq,50.61669,3.16664,FR,62400,6543862,Villeneuve-d'Ascq,2.85,2.74,7.89,10.16,13.54,18.66,19.0,20.61,15.45,8.62,8.42,4.37
Lyon 02,45.75423,4.83089,FR,31303,6543968,Lyon 02,2.13,2.91,8.93,12.33,17.04,24.9,23.47,26.35,17.51,10.97,8.56,4.43
Lyon 03,45.76124,4.85184,FR,102725,6543969,Lyon 03,2.07,2.77,8.96,12.24,16.96,24.92,23.37,26.39,17.55,10.9,8.49,4.37
Lyon 04,45.77507,4.82712,FR,36064,6543970,Lyon 04,1.63,2.41,8.43,11.83,16.54,24.4,22.97,25.85,17.01,10.47,8.06,3.93
Lyon 05,45.76106,4.82677,FR,49664,6543971,Lyon 05,2.13,2.91,8.93,12.33,17.04,24.9,23.47,26.35,17.51,10.97,8.56,4.43
Lyon 06,45.76788,4.85064,FR,52862,6543972,Lyon 06,2.02,2.72,8.92,12.18,16.91,24.87,23.32,26.34,17.5,10.85,8.44,4.32
Lyon 07,45.74525,4.84197,FR,82573,6543973,Lyon 07,2.23,3.02,8.98,12.48,17.18,25.1,23.63,26.46,17.64,11.13,8.7,4.51
Lyon 08,45.73626,4.86866,FR,86154,6543974,Lyon 08,2.04,2.76,8.87,12.29,17.03,25.11,23.48,26.51,17.56,10.93,8.46,4.33
Lyon 09,45.77255,4.80326,FR,51983,6543975,Lyon 09,2.18,2.96,8.98,12.38,17.09,24.95,23.52,26.4,17.57,11.02,8.61,4.49
Les Ulis,48.68167,2.16944,FR,25785,6615536,Les Ulis,2.17,2.75,8.47,10.61,13.63,19.8,20.0,22.82,16.2,9.38,8.23,4.24
Bourgoin-Jallieu,45.58611,5.27361,FR,23517,6615539,Bourgoin-Jallieu,1.67,2.16,8.86,11.95,16.66,25.09,23.52,26.48,17.6,10.51,7.67,3.47
Lyon 01,45.76758,4.8345,FR,29641,6949674,Lyon 01,2.08,2.86,8.88,12.28,16.99,24.85,23.42,26.3,17.47,10.92,8.51,4.39
Marseille 01,43.29814,5.38407,FR,40919,7284882,Marseille 01,6.69,6.65,10.86,13.42,18.56,24.52,25.29,27.24,20.25,15.07,12.57,8.93
Marseille 02,43.29664,5.37034,FR,25779,7284883,Marseille 02,5.59,5.9,10.66,13.72,19.43,25.87,26.45,28.41,20.26,14.9,12.01,8.0
Marseille 03,43.30257,5.37583,FR,45414,7284884,Marseille 03,6.69,6.65,10.86,13.42,18.56,24.52,25.29,27.24,20.25,15.07,12.57,8.93
Marseille 04,43.30213,5.40141,FR,47193,7284885,Marseille 04,6.59,6.55,10.76,13.32,18.46,24.42,25.19,27.14,20.15,14.97,12.47,8.83
Marseille 05,43.29551,5.40055,FR,44583,7284886,Marseille 05,6.64,6.6,10.81,13.37,18.51,24.47,25.24,27.19,20.2,15.02,12.52,8.88
Marseille 06,43.28764,5.37918,FR,43360,7284887,Marseille 06,6.69,6.65,10.86,13.42,18.56,24.52,25.29,27.24,20.25,15.07,12.57,8.93
Marseille 07,43.28289,5.36021,FR,35981,7284888,Marseille 07,6.54,6.5,10.71,13.27,18.41,24.37,25.14,27.09,20.1,14.92,12.42,8.78
Marseille 08,43.27083,5.3821,FR,78837,7284889,Marseille 08,6.69,6.65,10.86,13.42,18.56,24.52,25.29,27.24,20.25,15.07,12.57,8.93
Marseille 10,43.27889,5.41523,FR,51299,7284890,Marseille 10,6.74,6.7,10.91,13.47,18.61,24.57,25.34,27.29,20.3,15.12,12.62,8.98
Marseille 09,43.25433,5.4057,FR,76868,7284891,Marseille 09,6.69,6.65,10.86,13.42,18.56,24.52,25.29,27.24,20.25,15.07,12.57,8.93
Marseille 11,43.2907,5.4384,FR,56792,7284892,Marseille 11,6.54,6.5,10.71,13.27,18.41,24.37,25.14,27.09,20.1,14.92,12.42,8.78
Marseille 12,43.29614,5.43617,FR,58734,7284893,Marseille 12,6.29,6.25,10.46,13.02,18.16,24.12,24.89,26.84,19.85,14.67,12.17,8.53
Marseille 13,43.31856,5.40836,FR,89316,7284894,Marseille 13,6.44,6.4,10.61,13.17,18.31,24.27,25.04,26.99,20.0,14.82,12.32,8.68
Marseille 14,43.34447,5.38004,FR,61920,7284895,Marseille 14,6.39,6.35,10.56,13.12,18.26,24.22,24.99,26.94,19.95,14.77,12.27,8.63
Marseille 15,43.37224,5.35386,FR,77770,7284896,Marseille 15,4.74,4.93,9.79,12.75,18.39,24.78,25.45,27.33,19.4,13.96,11.11,7.04
Marseille 16,43.35982,5.33421,FR,17630,7284897,Marseille 16,5.44,5.75,10.51,13.57,19.28,25.73,26.3,28.26,20.11,14.75,11.86,7.85
La Defense,48.89198,2.23881,FR,20000,8504417,La Defense,2.73,3.22,8.87,11.19,14.2,20.19,20.47,23.13,16.67,9.77,8.7,4.68
Saint-Quentin-en-Yvelines,48.77186,2.01891,FR,146598,8533870,Saint-Quentin-en-Yvelines,2.27,2.81,8.36,10.51,13.53,19.64,19.81,22.6,16.11,9.29,8.23,4.23
Cergy-Pontoise,49.03894,2.07805,FR,183430,8555643,Cergy-Pontoise,2.91,3.39,8.95,11.24,14.19,20.07,20.4,23.0,16.67,9.78,8.83,4.83
La Blancarde,43.30047,5.40563,FR,15292,11919748,La Blancarde,6.54,6.5,10.71,13.27,18.41,24.37,25.14,27.09,20.1,14.92,12.42,8.78
Le Camas,43.29469,5.39415,FR,16585,11919749,Le Camas,6.64,6.6,10.81,13.37,18.51,24.47,25.24,27.19,20.2,15.02,12.52,8.88
Saint-Barthélémy,43.33105,5.40241,FR,18655,11919779,Saint-Barthélémy,6.14,6.1,10.31,12.87,18.01,23.97,24.74,26.69,19.7,14.52,12.02,8.38
