name,latitude,longitude,country,population,id,city,jan,feb,mar,apr,may,jun,jul,aug,sep,oct,nov,dec
York,53.95763,-1.08271,GB,156135,2633352,York,5.97,6.68,7.98,7.48,11.75,13.29,15.67,17.3,12.54,11.25,6.37,4.13
Yeovil,50.94159,-2.63211,GB,45784,2633373,Yeovil,7.67,8.3,8.42,8.4,13.81,13.76,17.49,18.24,13.98,12.55,7.53,4.4
Yeadon,53.86437,-1.68743,GB,37379,2633397,Yeadon,5.4,5.84,7.06,6.68,11.04,12.41,14.78,15.96,11.62,10.28,5.58,3.29
Yate,51.54074,-2.41839,GB,34406,2633406,Yate,7.02,7.66,8.04,8.03,13.6,13.7,17.44,18.08,13.57,12.08,6.86,3.8
Yarm,54.50364,-1.35793,GB,19184,2633415,Yarm,6.17,6.76,8.21,7.65,11.81,13.41,15.58,17.29,12.51,11.13,6.51,4.43
Wrexham,53.04664,-2.99132,GB,65692,2633485,Wrexham,6.43,6.93,7.88,7.59,12.55,13.29,16.42,17.22,12.54,11.43,6.36,3.79
Worthing,50.81795,-0.37538,GB,99110,2633521,Worthing,8.19,8.69,8.72,8.85,13.44,14.07,17.1,18.73,14.67,13.42,8.46,5.53
Worksop,53.30182,-1.12404,GB,43252,2633551,Worksop,6.32,6.93,8.08,7.76,12.24,13.62,16.37,17.88,13.03,11.67,6.56,4.03
Workington,54.6425,-3.54413,GB,27120,2633553,Workington,7.18,6.83,7.71,7.64,11.83,12.97,15.19,15.77,12.52,11.59,6.71,5.01
Worcester Park,51.37992,-0.24445,GB,16031,2633561,Worcester Park,7.17,7.97,8.45,8.63,13.71,14.45,17.65,19.39,13.87,12.68,7.27,4.42
Worcester,52.18935,-2.22001,GB,101659,2633563,Worcester,6.87,7.53,8.18,8.18,13.46,14.0,17.73,18.65,13.75,12.15,6.98,3.98
Wood Green,51.6,-0.11667,GB,28453,2633653,Wood Green,6.99,7.84,8.42,8.63,13.56,14.51,17.54,19.33,13.79,12.6,7.25,4.47
Woodford Green,51.60938,0.02329,GB,22803,2633655,Woodford Green,6.78,7.65,8.23,8.48,13.38,14.38,17.35,19.2,13.61,12.42,7.04,4.29
Wombwell,53.52189,-1.39698,GB,15518,2633681,Wombwell,6.44,6.97,8.19,7.83,12.28,13.69,16.29,17.67,12.97,11.5,6.5,4.09
Wolverhampton,52.58547,-2.12296,GB,263700,2633691,Wolverhampton,6.07,6.66,7.55,7.43,12.54,13.25,16.64,17.65,12.76,11.39,6.18,3.29
Wokingham,51.4112,-0.83565,GB,41143,2633708,Wokingham,6.87,7.62,8.12,8.21,13.48,14.01,17.42,18.89,13.58,12.24,6.95,3.98
Woking,51.31903,-0.55893,GB,103932,2633709,Woking,7.2,7.94,8.41,8.48,13.77,14.26,17.71,19.22,13.8,12.56,7.19,4.23
Witney,51.7836,-1.4854,GB,29103,2633729,Witney,6.75,7.41,7.99,7.96,13.26,13.81,17.33,18.51,13.51,12.0,6.77,3.86
Witham,51.80007,0.64038,GB,25353,2633749,Witham,7.01,7.86,8.51,8.66,13.2,14.49,17.15,19.23,13.92,12.73,7.54,4.8
Wishaw,55.76667,-3.91667,GB,30510,2633765,Wishaw,4.98,4.9,6.53,6.38,10.84,12.01,14.13,14.22,10.5,9.41,4.22,2.71
Wisbech,52.66622,0.15938,GB,32489,2633771,Wisbech,6.72,7.64,8.48,8.38,12.93,14.37,17.0,19.13,13.67,12.49,7.26,4.71
Winsford,53.19146,-2.52398,GB,30259,2633810,Winsford,6.4,6.92,7.97,7.65,12.5,13.37,16.26,17.1,12.53,11.55,6.27,3.7
Windsor,51.48333,-0.6,GB,33348,2633842,Windsor,6.95,7.73,8.22,8.39,13.52,14.21,17.49,19.04,13.7,12.4,7.12,4.21
Winchester,51.06513,-1.3187,GB,46074,2633858,Winchester,7.34,8.01,8.39,8.41,13.87,13.93,17.56,18.88,13.98,12.53,7.34,4.32
Wimbledon,51.42212,-0.20805,GB,68187,2633866,Wimbledon,7.12,7.92,8.4,8.58,13.66,14.4,17.6,19.34,13.82,12.63,7.22,4.37
Wilmslow,53.32803,-2.23148,GB,36617,2633883,Wilmslow,6.15,6.61,7.72,7.51,12.35,13.17,15.94,16.76,12.25,11.32,6.06,3.44
Willesden,51.53333,-0.23333,GB,44295,2633907,Willesden,6.83,7.68,8.15,8.45,13.47,14.33,17.44,19.16,13.64,12.4,6.97,4.16
Willenhall,52.58514,-2.05934,GB,27500,2633912,Willenhall,6.22,6.81,7.7,7.58,12.69,13.4,16.8,17.8,12.91,11.54,6.33,3.44
Wigston Magna,52.58128,-1.09248,GB,33720,2633936,Wigston Magna,6.33,7.05,7.87,7.81,12.73,13.72,16.91,18.37,13.24,11.81,6.57,3.7
Wigan,53.54296,-2.63706,GB,175405,2633948,Wigan,6.59,6.97,8.08,7.74,12.33,13.26,15.89,16.68,12.55,11.66,6.55,4.18
Widnes,53.3618,-2.73406,GB,61464,2633954,Widnes,6.73,7.16,8.24,7.89,12.54,13.47,16.17,16.97,12.74,11.78,6.63,4.28
Wickford,51.61101,0.52331,GB,32975,2633976,Wickford,7.36,8.17,8.73,8.89,13.39,14.66,17.23,19.32,14.25,13.02,7.93,5.14
Whitstable,51.3607,1.0257,GB,30195,2634021,Whitstable,7.48,8.31,8.77,9.03,13.51,14.77,17.28,19.56,14.59,13.19,8.22,5.41
Whitley Bay,55.03973,-1.44713,GB,38055,2634032,Whitley Bay,6.22,6.52,8.15,7.67,11.29,13.31,15.23,16.92,12.31,10.98,6.97,4.91
Whitehaven,54.54897,-3.58412,GB,24900,2634096,Whitehaven,7.19,6.81,7.61,7.61,11.67,12.85,15.05,15.66,12.59,11.6,6.91,5.22
Whitefield,53.55,-2.3,GB,23545,2634103,Whitefield,5.76,6.12,7.34,7.02,11.68,12.61,15.2,15.94,11.7,10.87,5.76,3.27
Whickham,54.94561,-1.67635,GB,16625,2634155,Whickham,5.53,5.82,7.51,6.96,10.99,12.6,14.68,16.16,11.52,10.31,5.88,3.83
Weymouth,50.61448,-2.45991,GB,57691,2634202,Weymouth,8.25,8.76,8.79,8.89,14.17,14.05,17.61,18.65,14.59,13.06,8.23,5.13
Weybridge,51.37178,-0.45975,GB,19463,2634204,Weybridge,7.15,7.93,8.37,8.57,13.72,14.34,17.64,19.24,13.86,12.58,7.26,4.33
Weston-super-Mare,51.34603,-2.97665,GB,82903,2634308,Weston-super-Mare,8.3,8.79,8.89,8.71,13.86,14.01,17.66,17.99,14.3,12.99,8.05,5.39
West Molesey,51.39985,-0.37997,GB,18565,2634340,West Molesey,7.25,8.03,8.47,8.68,13.81,14.46,17.73,19.38,13.96,12.7,7.36,4.45
City of Westminster,51.4975,-0.1357,GB,247614,2634341,City of Westminster,7.06,7.94,8.41,8.73,13.73,14.64,17.7,19.47,13.89,12.66,7.2,4.41
Westhoughton,53.54899,-2.52464,GB,26260,2634387,Westhoughton,5.92,6.31,7.45,7.13,11.76,12.7,15.31,16.08,11.9,11.01,5.86,3.44
West Ham,51.53333,0.01667,GB,15551,2634403,West Ham,7.09,7.99,8.47,8.79,13.75,14.7,17.71,19.56,13.93,12.72,7.26,4.49
Westbury,51.26,-2.1875,GB,16989,2634483,Westbury,7.21,7.87,8.17,8.15,13.66,13.76,17.42,18.14,13.67,12.28,7.1,4.03
West Bromwich,52.51868,-1.9945,GB,135618,2634491,West Bromwich,6.06,6.65,7.56,7.43,12.59,13.25,16.76,17.76,12.81,11.41,6.22,3.29
West Bridgford,52.92979,-1.12537,GB,48314,2634493,West Bridgford,6.52,7.25,8.18,8.05,12.77,13.94,16.89,18.45,13.47,12.01,6.78,3.98
Wembley,51.55242,-0.29686,GB,90045,2634549,Wembley,7.05,7.83,8.41,8.56,13.54,14.38,17.53,19.2,13.78,12.59,7.31,4.48
Welwyn Garden City,51.80174,-0.20691,GB,59910,2634552,Welwyn Garden City,6.57,7.38,8.01,8.09,13.06,14.02,17.19,18.85,13.34,12.15,6.86,4.08
Wellington,52.7,-2.51667,GB,22816,2634573,Wellington,6.29,6.88,7.71,7.53,12.66,13.39,16.79,17.69,12.81,11.5,6.24,3.4
Wellingborough,52.30273,-0.69446,GB,50577,2634578,Wellingborough,6.53,7.3,8.04,8.0,12.93,13.93,17.19,18.7,13.43,12.07,6.82,4.0
Welling,51.46246,0.10759,GB,42500,2634579,Welling,6.91,7.78,8.3,8.57,13.44,14.43,17.35,19.28,13.74,12.53,7.15,4.38
Wednesfield,52.5963,-2.08508,GB,33555,2634616,Wednesfield,6.22,6.81,7.7,7.58,12.69,13.4,16.8,17.8,12.91,11.54,6.33,3.44
Wednesbury,52.5514,-2.02355,GB,24337,2634617,Wednesbury,6.26,6.86,7.77,7.63,12.71,13.45,16.84,17.87,12.97,11.6,6.4,3.5
Wath upon Dearne,53.50291,-1.3458,GB,17161,2634672,Wath upon Dearne,6.44,7.01,8.22,7.83,12.26,13.72,16.33,17.77,13.02,11.56,6.52,4.11
Watford,51.65531,-0.39602,GB,125707,2634677,Watford,6.88,7.63,8.26,8.3,13.31,14.15,17.4,18.97,13.57,12.4,7.14,4.3
Waterlooville,50.88067,-1.0304,GB,64350,2634686,Waterlooville,7.87,8.41,8.58,8.66,13.73,14.01,17.32,18.79,14.45,13.06,8.07,5.06
Washington,54.9,-1.51667,GB,53526,2634715,Washington,5.9,6.26,7.94,7.41,11.25,13.06,15.1,16.75,12.01,10.74,6.46,4.4
Warwick,52.28333,-1.58333,GB,37267,2634725,Warwick,6.65,7.34,8.02,8.06,13.23,13.94,17.43,18.59,13.54,12.01,6.79,3.82
Warrington,53.39254,-2.58024,GB,172330,2634739,Warrington,6.54,6.98,8.09,7.73,12.43,13.35,16.06,16.85,12.57,11.63,6.43,4.02
Warminster,51.20434,-2.17873,GB,17490,2634755,Warminster,7.04,7.67,8.01,7.92,13.43,13.46,17.16,17.92,13.47,12.09,6.94,3.86
Ware,51.81058,-0.02875,GB,17576,2634777,Ware,6.84,7.7,8.34,8.46,13.38,14.45,17.52,19.29,13.69,12.49,7.14,4.41
Wantage,51.58846,-1.42565,GB,18505,2634801,Wantage,6.82,7.48,8.06,7.98,13.31,13.79,17.39,18.54,13.51,12.07,6.87,3.94
Walton-on-Thames,51.38678,-0.41319,GB,22834,2634825,Walton-on-Thames,7.2,7.98,8.42,8.63,13.76,14.41,17.68,19.33,13.91,12.65,7.31,4.4
Walton-on-the-Naze,51.84819,1.26738,GB,17458,2634826,Walton-on-the-Naze,7.31,8.02,8.54,8.8,12.86,14.48,16.72,18.93,14.37,13.14,8.4,5.53
Walthamstow,51.59067,-0.02077,GB,109424,2634838,Walthamstow,7.08,7.95,8.53,8.78,13.68,14.68,17.65,19.5,13.91,12.72,7.34,4.59
Waltham Abbey,51.687,-0.00421,GB,18069,2634843,Waltham Abbey,7.02,7.87,8.49,8.64,13.55,14.57,17.6,19.41,13.83,12.65,7.3,4.56
Walsall,52.58528,-1.98396,GB,172141,2634853,Walsall,6.26,6.86,7.77,7.63,12.71,13.45,16.84,17.87,12.97,11.6,6.4,3.5
Wallsend,54.99111,-1.53397,GB,42739,2634864,Wallsend,6.15,6.44,8.08,7.59,11.26,13.22,15.14,16.8,12.21,10.9,6.82,4.76
Wallington,51.36404,-0.15368,GB,20850,2634867,Wallington,7.02,7.82,8.3,8.48,13.56,14.3,17.5,19.24,13.72,12.53,7.12,4.27
Wallasey,53.42324,-3.06497,GB,58794,2634873,Wallasey,7.21,7.5,8.4,8.14,12.67,13.62,16.27,17.07,13.16,12.04,7.24,5.1
Walkden,53.51667,-2.4,GB,35937,2634887,Walkden,6.04,6.45,7.59,7.31,11.98,12.92,15.5,16.27,12.03,11.13,5.94,3.47
Wakefield,53.68331,-1.49768,GB,109766,2634910,Wakefield,6.2,6.73,7.92,7.52,11.86,13.34,15.8,17.12,12.6,11.17,6.29,3.98
Uxbridge,51.5489,-0.48211,GB,70000,2635042,Uxbridge,7.0,7.78,8.26,8.47,13.54,14.24,17.47,19.08,13.74,12.46,7.2,4.31
Urmston,53.44852,-2.35419,GB,41198,2635062,Urmston,6.21,6.67,7.77,7.5,12.27,13.17,15.82,16.62,12.25,11.31,6.06,3.55
Upper Norwood,51.41505,-0.0927,GB,16082,2635113,Upper Norwood,6.71,7.51,8.01,8.16,13.2,13.98,17.15,18.94,13.39,12.22,6.81,3.98
Uckfield,50.96948,0.09589,GB,18452,2635243,Uckfield,7.73,8.4,8.56,8.79,13.82,14.3,17.61,19.38,14.37,13.08,7.75,4.89
Tynemouth,55.01788,-1.42559,GB,17436,2635269,Tynemouth,6.22,6.52,8.15,7.67,11.29,13.31,15.23,16.92,12.31,10.98,6.97,4.91
Tyldesley,53.51393,-2.46754,GB,35932,2635281,Tyldesley,6.27,6.66,7.8,7.48,12.11,13.04,15.66,16.43,12.25,11.36,6.21,3.79
Truro,50.26526,-5.05436,GB,23041,2635412,Truro,9.17,9.68,9.29,9.21,14.27,14.1,17.49,18.06,15.19,13.26,9.26,6.88
Trowbridge,51.31889,-2.20861,GB,40952,2635427,Trowbridge,7.36,8.02,8.32,8.3,13.81,13.91,17.56,18.28,13.82,12.43,7.25,4.18
Totton,50.91877,-1.49037,GB,34169,2635603,Totton,8.02,8.56,8.74,8.87,14.11,14.11,17.6,18.87,14.62,13.13,8.18,5.16
Totteridge,51.63333,-0.2,GB,15159,2635607,Totteridge,6.56,7.38,7.96,8.15,13.1,13.99,17.08,18.81,13.33,12.14,6.83,4.02
Tottenham,51.60373,-0.06794,GB,130000,2635608,Tottenham,7.14,7.99,8.57,8.79,13.71,14.66,17.69,19.48,13.94,12.75,7.4,4.62
Torquay,50.46198,-3.52522,GB,65388,2635650,Torquay,8.48,8.93,8.72,8.96,13.88,14.04,17.08,18.01,14.61,12.98,8.55,5.6
Tonbridge,51.19532,0.27363,GB,38657,2635703,Tonbridge,7.46,8.28,8.61,8.85,13.8,14.57,17.62,19.66,14.24,12.96,7.56,4.78
Tiverton,50.90241,-3.49232,GB,19544,2635762,Tiverton,7.87,8.48,8.5,8.49,13.82,13.82,17.36,17.86,14.03,12.55,7.84,4.76
Tipton,52.52956,-2.06773,GB,47000,2635785,Tipton,6.19,6.79,7.66,7.58,12.75,13.39,16.9,17.88,12.95,11.52,6.35,3.42
Thorne,53.61122,-0.96308,GB,17295,2635997,Thorne,6.46,7.13,8.3,7.87,12.2,13.76,16.33,17.92,13.06,11.79,6.63,4.29
Thornaby-on-Tees,54.53333,-1.3,GB,22356,2636005,Thornaby-on-Tees,6.22,6.75,8.17,7.6,11.65,13.32,15.44,17.19,12.5,11.18,6.69,4.62
Thetford,52.41667,0.75,GB,24833,2636032,Thetford,6.63,7.55,8.36,8.26,12.79,14.23,16.78,18.93,13.3,12.36,7.12,4.55
Thatcham,51.40366,-1.26049,GB,24274,2636049,Thatcham,7.01,7.67,8.24,8.13,13.45,13.86,17.47,18.7,13.65,12.27,7.06,4.07
Tewkesbury,51.99244,-2.1601,GB,19778,2636071,Tewkesbury,7.08,7.75,8.26,8.3,13.65,14.14,17.84,18.72,13.92,12.28,7.08,4.08
Teignmouth,50.54581,-3.49671,GB,17463,2636132,Teignmouth,8.53,8.98,8.77,9.0,13.93,14.09,17.13,18.06,14.66,13.03,8.6,5.65
Taunton,51.01494,-3.10293,GB,64621,2636177,Taunton,7.85,8.48,8.63,8.49,13.9,13.93,17.75,18.14,14.08,12.64,7.67,4.58
Tamworth,52.63399,-1.69587,GB,81964,2636276,Tamworth,6.48,7.16,8.01,7.95,12.98,13.84,17.13,18.3,13.32,11.88,6.63,3.71
Tadley,51.35045,-1.1285,GB,15836,2636333,Tadley,6.96,7.65,8.17,8.16,13.44,13.89,17.39,18.74,13.63,12.25,7.04,4.06
Swinton,53.5,-2.35,GB,20000,2636373,Swinton,6.19,6.6,7.74,7.46,12.13,13.07,15.65,16.42,12.19,11.28,6.09,3.62
Swindon,51.55797,-1.78116,GB,201669,2636389,Swindon,6.66,7.33,7.82,7.83,13.31,13.63,17.26,18.25,13.37,11.83,6.61,3.64
Swansea,51.62079,-3.94323,GB,300352,2636432,Swansea,7.94,8.22,8.34,8.53,13.87,13.62,17.11,17.47,14.18,12.57,7.8,5.36
Swanscombe,51.44713,0.31028,GB,15732,2636433,Swanscombe,7.26,8.09,8.6,8.75,13.6,14.58,17.51,19.53,14.02,12.83,7.48,4.7
Swanley,51.39717,0.17321,GB,21839,2636439,Swanley,6.9,7.73,8.24,8.37,13.28,14.21,17.2,19.16,13.62,12.46,7.07,4.29
Swadlincote,52.774,-1.55744,GB,40960,2636465,Swadlincote,6.1,6.74,7.68,7.57,12.42,13.42,16.52,17.79,12.9,11.49,6.31,3.44
Sutton in Ashfield,53.12542,-1.26135,GB,43912,2636484,Sutton in Ashfield,5.74,6.33,7.47,7.21,11.83,13.02,15.92,17.34,12.5,11.1,6.02,3.31
Sutton Coldfield,52.56667,-1.81667,GB,107030,2636486,Sutton Coldfield,6.24,6.89,7.76,7.68,12.73,13.54,16.86,17.98,13.03,11.61,6.39,3.47
Sutton,51.35,-0.2,GB,187600,2636503,Sutton,6.82,7.62,8.1,8.28,13.36,14.1,17.3,19.04,13.52,12.33,6.92,4.07
Sunderland,54.90465,-1.38222,GB,170134,2636531,Sunderland,6.12,6.5,8.17,7.64,11.43,13.31,15.34,17.04,12.27,10.99,6.74,4.68
Sunbury-on-Thames,51.40424,-0.41817,GB,27784,2636534,Sunbury-on-Thames,7.2,7.98,8.42,8.63,13.76,14.41,17.68,19.33,13.91,12.65,7.31,4.4
Sudbury,52.0389,0.73117,GB,22213,2636564,Sudbury,6.91,7.79,8.49,8.57,13.11,14.47,17.15,19.27,13.78,12.64,7.41,4.69
Stroud,51.75,-2.2,GB,60155,2636616,Stroud,6.98,7.61,8.13,8.05,13.45,13.83,17.55,18.36,13.66,12.14,6.89,3.89
Strood,51.39323,0.47713,GB,33381,2636619,Strood,7.21,8.05,8.55,8.73,13.43,14.5,17.28,19.41,14.04,12.8,7.58,4.8
Stretford,53.45,-2.31667,GB,41953,2636663,Stretford,6.24,6.69,7.83,7.59,12.29,13.23,15.8,16.55,12.28,11.34,6.09,3.61
Streatham,51.42897,-0.13184,GB,58055,2636675,Streatham,7.01,7.81,8.31,8.46,13.5,14.28,17.45,19.24,13.69,12.52,7.11,4.28
Stratford-upon-Avon,52.19166,-1.70734,GB,27830,2636713,Stratford-upon-Avon,6.8,7.49,8.13,8.17,13.42,14.05,17.62,18.75,13.7,12.12,6.89,3.91
Stratford,51.53333,0.0,GB,36666,2636714,Stratford,7.09,7.99,8.47,8.79,13.75,14.7,17.71,19.56,13.93,12.72,7.26,4.49
Stowmarket,52.18893,0.99774,GB,21028,2636749,Stowmarket,6.74,7.64,8.43,8.38,12.84,14.35,16.93,19.12,13.53,12.54,7.26,4.6
Stourport-on-Severn,52.33976,-2.28034,GB,20586,2636767,Stourport-on-Severn,6.82,7.44,8.16,8.14,13.38,13.96,17.6,18.51,13.62,12.09,6.96,3.98
Stourbridge,52.45608,-2.14317,GB,56284,2636769,Stourbridge,6.59,7.19,8.06,7.98,13.15,13.79,17.3,18.28,13.36,11.92,6.75,3.82
Stoke-on-Trent,53.00415,-2.18538,GB,258366,2636841,Stoke-on-Trent,6.18,6.67,7.67,7.47,12.4,13.23,16.29,17.28,12.57,11.49,6.19,3.46
Stockton-on-Tees,54.56848,-1.3187,GB,79957,2636876,Stockton-on-Tees,6.28,6.74,8.19,7.62,11.54,13.32,15.38,17.15,12.49,11.19,6.82,4.78
Stockport,53.40979,-2.15761,GB,139052,2636882,Stockport,6.14,6.6,7.71,7.53,12.31,13.21,15.84,16.64,12.23,11.24,6.03,3.45
Stirling,56.11903,-3.93682,GB,37910,2636910,Stirling,5.27,5.29,7.08,6.93,11.22,12.79,14.49,14.79,11.18,9.74,4.6,3.11
Stevenage,51.90224,-0.20256,GB,90232,2636940,Stevenage,6.55,7.35,8.01,8.04,12.99,14.02,17.22,18.85,13.32,12.15,6.82,4.05
Stepney,51.5175,-0.04292,GB,16238,2636948,Stepney,7.09,7.99,8.47,8.79,13.75,14.7,17.71,19.56,13.93,12.72,7.26,4.49
Staveley,53.26667,-1.35,GB,25719,2636995,Staveley,6.35,6.88,8.08,7.85,12.37,13.66,16.32,17.73,13.02,11.53,6.56,4.0
Stanford-le-Hope,51.52274,0.43422,GB,28725,2637087,Stanford-le-Hope,7.32,8.17,8.69,8.92,13.59,14.72,17.42,19.5,14.2,12.96,7.75,4.96
Stamford,52.65,-0.48333,GB,20592,2637104,Stamford,6.75,7.56,8.38,8.31,13.02,14.22,17.22,18.99,13.73,12.35,7.08,4.42
Stalybridge,53.48414,-2.05908,GB,22748,2637106,Stalybridge,6.02,6.42,7.6,7.35,12.02,13.0,15.59,16.43,12.09,11.1,6.01,3.52
Staines,51.43092,-0.50606,GB,51040,2637126,Staines,7.2,7.97,8.42,8.62,13.77,14.39,17.69,19.29,13.91,12.63,7.31,4.38
Stafford,52.80521,-2.11636,GB,70145,2637142,Stafford,6.37,6.93,7.86,7.72,12.72,13.54,16.73,17.79,12.97,11.69,6.4,3.59
Spennymoor,54.6988,-1.60229,GB,17766,2637235,Spennymoor,5.52,5.88,7.48,6.89,10.99,12.57,14.76,16.33,11.62,10.38,5.82,3.76
Spalding,52.78709,-0.15141,GB,31588,2637265,Spalding,6.69,7.55,8.42,8.33,12.83,14.24,16.91,18.91,13.63,12.35,7.09,4.54
South Shields,54.99859,-1.4323,GB,83655,2637329,South Shields,6.37,6.67,8.3,7.82,11.43,13.46,15.37,17.07,12.45,11.13,7.12,5.06
Southsea,50.78351,-1.09071,GB,18514,2637330,Southsea,8.53,9.1,9.13,9.17,14.3,14.23,17.8,18.98,14.93,13.52,8.72,5.91
Southport,53.64581,-3.01008,GB,91703,2637343,Southport,7.34,7.51,8.35,8.13,12.43,13.53,15.93,16.74,13.26,12.16,7.47,5.39
South Ockendon,51.50799,0.28333,GB,19460,2637355,South Ockendon,7.21,8.06,8.6,8.82,13.56,14.64,17.43,19.47,14.07,12.84,7.56,4.78
South Norwood,51.39944,-0.07469,GB,16518,2637357,South Norwood,7.01,7.81,8.31,8.46,13.5,14.28,17.45,19.24,13.69,12.52,7.11,4.28
South Hayling,50.78773,-0.97697,GB,15485,2637407,South Hayling,8.53,9.1,9.13,9.17,14.3,14.23,17.8,18.98,14.93,13.52,8.72,5.91
Southend-on-Sea,51.53782,0.71433,GB,295310,2637433,Southend-on-Sea,7.51,8.24,8.6,8.74,12.82,14.14,16.57,18.71,14.3,13.03,8.36,5.59
South Elmsall,53.59709,-1.28034,GB,18835,2637435,South Elmsall,6.17,6.75,7.96,7.52,11.89,13.39,15.96,17.4,12.69,11.25,6.23,3.89
South Benfleet,51.55295,0.55962,GB,48824,2637476,South Benfleet,7.46,8.23,8.75,8.91,13.27,14.61,17.07,19.21,14.39,13.12,8.18,5.37
Southampton,50.90395,-1.40428,GB,269781,2637487,Southampton,7.91,8.48,8.65,8.8,14.09,14.09,17.58,18.89,14.54,13.05,8.06,5.04
Southall,51.50896,-0.3713,GB,70000,2637490,Southall,7.05,7.84,8.32,8.56,13.61,14.35,17.54,19.19,13.81,12.54,7.25,4.38
Solihull,52.41426,-1.78094,GB,126577,2637546,Solihull,6.28,6.9,7.77,7.64,12.8,13.44,16.98,18.04,13.07,11.64,6.47,3.5
Slough,51.50949,-0.59541,GB,164793,2637627,Slough,7.05,7.83,8.32,8.49,13.62,14.31,17.59,19.14,13.8,12.5,7.22,4.31
Sleaford,52.99826,-0.40941,GB,17359,2637659,Sleaford,6.64,7.45,8.4,8.23,12.73,14.15,16.81,18.74,13.52,12.28,6.95,4.42
Skelmersdale,53.55024,-2.77348,GB,38944,2637752,Skelmersdale,6.77,7.03,8.0,7.72,12.14,13.16,15.63,16.43,12.68,11.68,6.81,4.63
Skegness,53.14362,0.3363,GB,24876,2637762,Skegness,6.67,7.22,8.05,7.98,11.61,13.55,15.61,17.67,13.51,12.3,8.07,5.52
Sittingbourne,51.34128,0.73282,GB,48948,2637802,Sittingbourne,7.35,8.24,8.75,8.89,13.7,14.74,17.63,19.82,14.24,12.99,7.67,4.93
Shrewsbury,52.71009,-2.75208,GB,76782,2637891,Shrewsbury,6.51,7.08,7.9,7.61,12.79,13.46,16.96,17.75,12.87,11.63,6.45,3.64
Shoreham-by-Sea,50.83413,-0.27431,GB,19175,2637916,Shoreham-by-Sea,8.24,8.75,8.77,8.9,13.49,14.12,17.15,18.78,14.72,13.47,8.51,5.57
Shipley,53.83333,-1.76667,GB,28544,2637958,Shipley,6.04,6.47,7.65,7.34,11.77,13.12,15.54,16.68,12.32,10.96,6.15,3.78
Shepherds Bush,51.505,-0.2211,GB,39724,2638043,Shepherds Bush,7.08,7.93,8.4,8.7,13.72,14.58,17.69,19.41,13.89,12.64,7.23,4.4
Sheffield,53.38297,-1.4659,GB,556500,2638077,Sheffield,6.24,6.77,7.99,7.63,12.08,13.49,16.09,17.47,12.77,11.3,6.3,3.89
Sevenoaks,51.27266,0.18883,GB,29506,2638187,Sevenoaks,6.63,7.44,7.92,8.0,13.01,13.84,16.97,18.92,13.3,12.15,6.69,3.9
Selby,53.78333,-1.06667,GB,24859,2638235,Selby,6.32,6.98,8.18,7.68,11.88,13.49,15.95,17.56,12.83,11.53,6.54,4.28
Seaham,54.83903,-1.34575,GB,22373,2638302,Seaham,6.07,6.45,8.12,7.59,11.38,13.26,15.29,16.99,12.22,10.94,6.68,4.63
Seaford,50.77141,0.10268,GB,22584,2638311,Seaford,8.57,9.03,8.83,9.06,13.19,14.0,16.67,18.52,15.13,13.87,9.11,6.24
Scunthorpe,53.57905,-0.65437,GB,81576,2638324,Scunthorpe,6.22,6.97,8.12,7.75,12.05,13.66,16.16,17.97,12.93,11.74,6.57,4.2
Scarborough,54.27966,-0.40443,GB,61749,2638419,Scarborough,6.19,6.64,7.79,7.35,10.92,12.89,14.77,16.85,12.61,11.41,7.44,5.16
Sandown,50.65158,-1.16103,GB,20155,2638568,Sandown,8.28,8.86,8.88,8.92,14.05,13.98,17.55,18.73,14.68,13.27,8.47,5.66
Sandhurst,51.34675,-0.78655,GB,20803,2638580,Sandhurst,7.09,7.81,8.3,8.33,13.68,14.11,17.61,19.05,13.71,12.41,7.09,4.11
Sandbach,53.14515,-2.36251,GB,17976,2638600,Sandbach,6.21,6.74,7.73,7.48,12.37,13.25,16.21,17.13,12.49,11.43,6.12,3.47
Saltash,50.40959,-4.22514,GB,15566,2638651,Saltash,8.35,8.83,8.49,8.71,13.67,13.67,16.7,17.58,14.36,12.63,8.39,5.67
Salisbury,51.06931,-1.79569,GB,44748,2638664,Salisbury,7.45,8.07,8.39,8.38,13.83,13.84,17.51,18.55,13.99,12.54,7.41,4.36
Salford,53.48771,-2.29042,GB,129794,2638671,Salford,6.14,6.59,7.73,7.49,12.19,13.13,15.7,16.45,12.18,11.24,5.99,3.51
Sale,53.42519,-2.32443,GB,55689,2638678,Sale,6.26,6.72,7.82,7.61,12.4,13.29,15.92,16.71,12.32,11.36,6.11,3.56
Saint Peters,51.36667,1.41667,GB,125370,2638703,Saint Peters,7.48,8.26,8.66,8.86,13.09,14.34,16.75,19.05,14.64,13.25,8.4,5.6
Saint Neots,52.21667,-0.26667,GB,30811,2638717,Saint Neots,6.83,7.67,8.35,8.31,13.14,14.31,17.48,19.15,13.7,12.45,7.13,4.38
St Helens,53.45,-2.73333,GB,183200,2638785,St Helens,6.7,7.05,8.13,7.79,12.33,13.29,15.89,16.69,12.66,11.73,6.66,4.37
St Austell,50.3425,-4.77442,GB,25447,2638853,St Austell,8.67,9.14,8.86,8.6,13.5,13.38,16.63,17.21,14.17,12.78,8.58,6.23
Saint Andrews,56.33871,-2.79902,GB,16800,2638864,Saint Andrews,6.06,5.95,7.53,7.29,10.32,12.64,14.21,15.49,11.85,10.41,6.18,4.38
St Albans,51.75,-0.33333,GB,84561,2638867,St Albans,6.61,7.39,8.03,8.07,13.07,13.98,17.21,18.81,13.35,12.16,6.89,4.08
Saffron Walden,52.02337,0.24234,GB,15210,2638878,Saffron Walden,6.77,7.64,8.34,8.3,13.05,14.28,17.31,19.2,13.56,12.45,7.1,4.39
Ryton,52.61667,-2.35,GB,16093,2638894,Ryton,6.67,7.24,8.09,7.93,13.07,13.76,17.2,18.14,13.26,11.91,6.7,3.83
Ryde,50.72999,-1.1621,GB,26082,2638911,Ryde,8.33,8.9,8.93,8.97,14.1,14.03,17.6,18.78,14.73,13.32,8.52,5.71
Rutherglen,55.82885,-4.21376,GB,31180,2638926,Rutherglen,5.67,5.6,7.21,7.04,11.51,12.6,14.74,14.73,11.19,10.01,4.74,3.47
Rushden,52.28927,-0.60184,GB,37584,2638946,Rushden,6.57,7.36,8.1,8.04,12.92,13.98,17.21,18.76,13.47,12.14,6.88,4.07
Runcorn,53.34174,-2.73124,GB,62872,2638960,Runcorn,6.71,7.22,8.3,7.91,12.67,13.59,16.4,17.2,12.76,11.8,6.57,4.13
Ruislip,51.57344,-0.42341,GB,31000,2638976,Ruislip,6.98,7.75,8.32,8.45,13.47,14.27,17.47,19.09,13.71,12.49,7.24,4.39
Rugeley,52.7593,-1.93694,GB,24033,2638977,Rugeley,6.29,6.89,7.83,7.72,12.66,13.56,16.69,17.83,12.99,11.64,6.4,3.57
Rugby,52.37092,-1.26417,GB,73150,2638978,Rugby,6.2,6.91,7.62,7.64,12.72,13.55,16.92,18.22,13.09,11.63,6.43,3.48
Royton,53.56507,-2.12267,GB,22848,2639015,Royton,5.67,6.03,7.23,6.93,11.57,12.58,15.13,15.97,11.67,10.74,5.72,3.25
Royston,52.04832,-0.02438,GB,15781,2639018,Royston,6.78,7.63,8.3,8.24,13.06,14.24,17.37,19.15,13.55,12.44,7.08,4.37
Royal Tunbridge Wells,51.13321,0.26256,GB,68910,2639022,Royal Tunbridge Wells,6.98,7.74,8.0,8.25,13.21,13.89,17.02,19.0,13.75,12.43,7.05,4.26
Rottingdean,50.80984,-0.05939,GB,21756,2639069,Rottingdean,8.07,8.58,8.6,8.74,13.33,13.96,17.0,18.67,14.55,13.32,8.32,5.42
Rotherham,53.43012,-1.35678,GB,117618,2639093,Rotherham,6.63,7.16,8.37,8.08,12.58,13.93,16.55,17.96,13.25,11.75,6.77,4.29
Romsey,50.98906,-1.49989,GB,17161,2639189,Romsey,7.61,8.26,8.53,8.62,14.09,14.04,17.69,18.91,14.25,12.76,7.62,4.58
Romford,51.57515,0.18582,GB,95000,2639192,Romford,7.14,7.99,8.59,8.76,13.52,14.61,17.44,19.4,13.97,12.79,7.49,4.74
Roehampton,51.45165,-0.24393,GB,16132,2639223,Roehampton,6.93,7.78,8.25,8.55,13.57,14.43,17.54,19.26,13.74,12.5,7.07,4.26
Rochford,51.58198,0.70673,GB,16739,2639265,Rochford,7.54,8.28,8.75,8.93,13.14,14.56,16.91,19.09,14.5,13.21,8.4,5.57
Rochester,51.38764,0.50546,GB,28671,2639268,Rochester,7.36,8.21,8.7,8.87,13.59,14.66,17.43,19.57,14.18,12.96,7.73,4.95
Rochdale,53.61766,-2.1552,GB,97550,2639272,Rochdale,5.71,6.09,7.3,7.0,11.67,12.62,15.19,15.95,11.68,10.81,5.72,3.22
Risca,51.60799,-3.10081,GB,20443,2639317,Risca,7.37,7.88,8.21,8.41,14.09,13.89,17.61,18.04,13.94,12.22,7.21,4.36
Ripon,54.13579,-1.52826,GB,16363,2639323,Ripon,5.9,6.48,7.73,7.27,11.58,12.99,15.31,16.68,12.26,10.87,6.22,4.01
Ripley,53.03333,-1.4,GB,21097,2639325,Ripley,5.95,6.58,7.64,7.48,12.2,13.32,16.25,17.65,12.81,11.33,6.24,3.42
Richmond,51.46171,-0.30633,GB,21469,2639389,Richmond,7.18,7.99,8.47,8.72,13.76,14.55,17.71,19.41,13.95,12.71,7.37,4.52
Rhyl,53.31929,-3.49228,GB,25874,2639409,Rhyl,7.28,7.53,8.44,8.1,12.73,13.5,16.42,17.16,12.87,11.97,7.14,4.96
Rhosllanerchrugog,53.00974,-3.05814,GB,25362,2639436,Rhosllanerchrugog,5.95,6.4,7.41,7.03,12.04,12.72,15.89,16.67,11.99,10.93,5.87,3.35
Rhondda,51.65896,-3.44885,GB,59450,2639447,Rhondda,6.23,6.64,7.15,7.25,12.77,12.6,16.35,16.77,12.52,11.06,6.02,3.31
Renfrew,55.87197,-4.39253,GB,22010,2639495,Renfrew,5.58,5.48,7.16,7.04,11.47,12.59,14.62,14.59,11.22,9.94,4.84,3.62
Reigate,51.23736,-0.20582,GB,52123,2639506,Reigate,7.14,7.87,8.24,8.34,13.49,14.07,17.42,19.1,13.72,12.54,7.12,4.22
Redruth,50.23315,-5.22434,GB,42690,2639524,Redruth,8.58,9.08,8.65,8.6,13.63,13.44,16.86,17.43,14.59,12.59,8.64,6.32
Redhill,51.24048,-0.17044,GB,51559,2639545,Redhill,7.09,7.83,8.19,8.29,13.45,14.01,17.37,19.05,13.67,12.49,7.07,4.17
Redditch,52.3065,-1.94569,GB,84300,2639557,Redditch,6.35,6.99,7.76,7.68,12.89,13.51,17.13,18.15,13.17,11.68,6.47,3.49
Redcar,54.61657,-1.05999,GB,37203,2639563,Redcar,6.53,6.88,8.22,7.67,11.37,13.29,15.23,17.06,12.62,11.39,7.35,5.31
Reading,51.45625,-0.97113,GB,318014,2639577,Reading,7.03,7.74,8.31,8.3,13.54,14.13,17.59,18.95,13.74,12.38,7.14,4.18
Rayleigh,51.58571,0.60459,GB,32150,2639583,Rayleigh,7.06,7.83,8.35,8.52,12.87,14.21,16.67,18.81,13.99,12.72,7.78,4.97
Rawtenstall,53.70076,-2.28442,GB,22114,2639586,Rawtenstall,5.44,5.78,7.02,6.68,11.35,12.28,14.84,15.6,11.36,10.56,5.51,3.05
Rawmarsh,53.46062,-1.34437,GB,18616,2639588,Rawmarsh,6.09,6.66,7.87,7.48,11.92,13.37,15.98,17.42,12.67,11.2,6.16,3.76
Ramsgate,51.33568,1.41797,GB,38624,2639660,Ramsgate,7.58,8.36,8.76,8.96,13.19,14.44,16.85,19.15,14.74,13.35,8.5,5.7
Ramsbottom,53.64789,-2.31683,GB,17738,2639668,Ramsbottom,5.66,6.02,7.24,6.92,11.58,12.51,15.1,15.84,11.6,10.77,5.66,3.17
Putney,51.46072,-0.21814,GB,77140,2639835,Putney,7.03,7.88,8.35,8.65,13.67,14.53,17.64,19.36,13.84,12.6,7.17,4.36
Purley,51.33678,-0.11201,GB,72000,2639842,Purley,7.03,7.8,8.28,8.31,13.45,14.14,17.43,19.19,13.61,12.49,7.03,4.17
Pudsey,53.79538,-1.66134,GB,33109,2639866,Pudsey,5.46,5.9,7.1,6.75,11.14,12.53,14.9,16.08,11.72,10.34,5.57,3.25
Prestwich,53.53333,-2.28333,GB,32125,2639897,Prestwich,5.79,6.24,7.38,7.14,11.84,12.78,15.35,16.1,11.83,10.89,5.64,3.15
Preston,53.76282,-2.70452,GB,313332,2639912,Preston,6.63,6.91,7.88,7.62,12.11,13.15,15.48,16.22,12.44,11.5,6.58,4.4
Prestatyn,53.33748,-3.40776,GB,18701,2639926,Prestatyn,7.27,7.55,8.48,8.13,12.75,13.54,16.43,17.18,12.92,11.99,7.15,4.97
Prescot,53.42948,-2.80031,GB,40889,2639928,Prescot,6.41,6.81,7.85,7.52,12.13,13.07,15.75,16.55,12.41,11.41,6.34,4.04
Poulton-le-Fylde,53.83333,-2.98333,GB,19914,2639958,Poulton-le-Fylde,7.31,7.34,8.06,7.93,12.19,13.35,15.6,16.39,13.1,12.0,7.4,5.44
Potters Bar,51.69353,-0.17835,GB,22639,2639970,Potters Bar,6.39,7.19,7.8,7.91,12.88,13.84,16.97,18.65,13.14,11.97,6.65,3.86
Portsmouth,50.79899,-1.09125,GB,208100,2639996,Portsmouth,8.48,9.06,9.08,9.12,14.25,14.18,17.75,18.93,14.88,13.47,8.67,5.86
Portslade,50.84286,-0.21608,GB,20000,2639998,Portslade,7.98,8.48,8.5,8.64,13.22,13.86,16.89,18.53,14.46,13.22,8.24,5.32
Portishead,51.48199,-2.76973,GB,23699,2640037,Portishead,7.83,8.44,8.76,8.68,14.19,14.05,18.05,18.39,14.02,12.58,7.51,4.76
Porthcawl,51.47903,-3.70362,GB,15672,2640054,Porthcawl,7.79,8.14,8.35,8.53,14.12,13.71,17.38,17.66,14.06,12.47,7.56,5.01
Port Glasgow,55.93464,-4.6895,GB,15190,2640060,Port Glasgow,5.37,5.3,7.06,6.99,11.51,12.66,14.48,14.39,11.15,9.76,4.57,3.52
Portadown,54.42302,-6.44434,GB,22000,2640085,Portadown,6.32,5.95,8.26,7.79,12.27,12.68,15.64,15.88,12.13,10.88,6.48,4.03
Poole,50.71429,-1.98458,GB,150092,2640101,Poole,8.55,8.97,8.97,9.18,14.2,14.13,17.47,18.7,15.06,13.46,8.83,5.78
Pontypridd,51.6021,-3.34211,GB,30420,2640104,Pontypridd,7.35,7.75,8.04,8.17,13.67,13.51,17.13,17.55,13.85,12.14,7.26,4.54
Pontypool,51.70111,-3.04444,GB,35686,2640106,Pontypool,6.4,6.95,7.35,7.49,13.03,13.06,16.78,17.36,12.95,11.31,6.26,3.35
Pontefract,53.69107,-1.31269,GB,44710,2640132,Pontefract,6.05,6.64,7.86,7.37,11.65,13.2,15.74,17.19,12.52,11.12,6.16,3.86
Ponders End,51.6445,-0.04652,GB,15664,2640140,Ponders End,7.08,7.95,8.53,8.78,13.68,14.68,17.65,19.5,13.91,12.72,7.34,4.59
Plymstock,50.35999,-4.09049,GB,24103,2640190,Plymstock,8.67,9.11,8.82,9.01,13.92,13.95,16.98,17.91,14.67,12.96,8.73,5.99
Plymouth,50.37153,-4.14305,GB,260203,2640194,Plymouth,8.77,9.21,8.92,9.11,14.02,14.05,17.08,18.01,14.77,13.06,8.83,6.09
Plumstead,51.48333,0.08333,GB,16736,2640201,Plumstead,6.91,7.78,8.3,8.57,13.44,14.43,17.35,19.28,13.74,12.53,7.15,4.38
Pitsea,51.56387,0.50859,GB,25000,2640246,Pitsea,7.26,8.07,8.63,8.79,13.29,14.56,17.13,19.22,14.15,12.92,7.83,5.04
Pinner,51.59384,-0.38216,GB,19158,2640275,Pinner,6.98,7.75,8.32,8.45,13.47,14.27,17.47,19.09,13.71,12.49,7.24,4.39
Peterlee,54.76032,-1.33649,GB,37015,2640349,Peterlee,5.76,6.21,7.79,7.19,11.14,12.89,15.04,16.75,11.95,10.7,6.22,4.17
Peterhead,57.50517,-1.78435,GB,18450,2640351,Peterhead,5.97,5.83,7.27,7.08,9.54,11.74,13.4,14.62,11.62,10.4,7.11,5.13
Peterborough,52.57364,-0.24777,GB,163379,2640354,Peterborough,6.75,7.64,8.44,8.36,13.01,14.32,17.16,19.09,13.7,12.42,7.11,4.51
Perth,56.39522,-3.43139,GB,47350,2640358,Perth,4.93,5.02,7.08,7.01,11.11,12.94,14.37,15.14,11.22,9.5,4.3,2.63
Penzance,50.11861,-5.53715,GB,19872,2640377,Penzance,9.67,9.94,9.37,9.18,13.78,13.84,16.94,17.65,15.38,13.36,9.79,7.64
Penrith,54.66579,-2.75757,GB,15181,2640416,Penrith,5.35,5.25,6.57,6.36,11.11,12.05,14.27,14.93,10.81,10.07,4.93,2.7
Penicuik,55.83116,-3.22608,GB,16110,2640465,Penicuik,4.73,4.65,6.33,6.13,10.23,11.77,13.69,14.19,10.37,9.17,4.38,2.69
Penarth,51.4386,-3.17342,GB,23437,2640496,Penarth,7.33,7.75,8.03,8.18,13.71,13.55,17.18,17.6,13.86,12.13,7.22,4.49
Palmers Green,51.61794,-0.11012,GB,15162,2640667,Palmers Green,6.99,7.84,8.42,8.63,13.56,14.51,17.54,19.33,13.79,12.6,7.25,4.47
Paisley,55.83173,-4.43254,GB,77270,2640677,Paisley,5.67,5.49,7.12,6.93,11.34,12.39,14.59,14.53,11.13,9.95,4.84,3.59
Paignton,50.43565,-3.56789,GB,49886,2640681,Paignton,9.02,9.35,8.98,9.12,13.5,13.95,16.68,17.88,14.91,13.34,9.19,6.5
Oxford,51.75222,-1.25596,GB,162100,2640729,Oxford,6.8,7.48,8.05,8.05,13.29,13.94,17.42,18.66,13.58,12.1,6.88,3.95
Oswestry,52.86195,-3.05497,GB,18743,2640861,Oswestry,6.16,6.61,7.54,7.2,12.28,12.92,16.17,16.94,12.23,11.12,6.08,3.52
Ossett,53.67978,-1.58006,GB,21616,2640869,Ossett,5.88,6.36,7.55,7.19,11.58,13.0,15.42,16.66,12.22,10.82,5.97,3.64
Orpington,51.37457,0.09785,GB,15248,2640894,Orpington,7.01,7.83,8.34,8.47,13.43,14.31,17.37,19.27,13.7,12.55,7.14,4.35
Ormskirk,53.56685,-2.88178,GB,24073,2640908,Ormskirk,7.03,7.22,8.09,7.85,12.19,13.26,15.68,16.49,12.95,11.87,7.14,5.03
Omagh,54.6,-7.3,GB,21056,2640967,Omagh,5.72,5.35,7.84,7.52,12.3,12.2,15.35,15.19,11.61,10.43,6.13,3.74
Oldham,53.54051,-2.1183,GB,237110,2641022,Oldham,5.42,5.82,7.0,6.75,11.42,12.4,14.99,15.83,11.49,10.5,5.41,2.92
Oadby,52.60621,-1.08354,GB,23184,2641134,Oadby,6.33,7.05,7.87,7.81,12.73,13.72,16.91,18.37,13.24,11.81,6.57,3.7
Nuneaton,52.52323,-1.46523,GB,92698,2641157,Nuneaton,6.44,7.13,7.91,7.87,12.92,13.75,17.12,18.35,13.32,11.86,6.65,3.71
Nottingham,52.9536,-1.15047,GB,323632,2641170,Nottingham,6.39,7.06,8.1,7.91,12.61,13.76,16.69,18.18,13.27,11.83,6.68,3.89
Norwich,52.62783,1.29834,GB,143135,2641181,Norwich,6.65,7.58,8.37,8.29,12.47,14.26,16.52,18.88,13.56,12.55,7.56,4.95
Northwich,53.25882,-2.52025,GB,47421,2641224,Northwich,6.33,6.84,7.94,7.57,12.38,13.28,16.09,16.89,12.4,11.49,6.19,3.67
North Shields,55.01646,-1.44925,GB,39747,2641267,North Shields,6.17,6.47,8.1,7.62,11.23,13.26,15.18,16.87,12.25,10.93,6.92,4.86
Northolt,51.54855,-0.36778,GB,26000,2641290,Northolt,6.95,7.74,8.22,8.46,13.51,14.25,17.44,19.09,13.71,12.44,7.15,4.28
Lancing,50.82882,-0.32247,GB,18692,2641319,Lancing,8.19,8.69,8.72,8.85,13.44,14.07,17.1,18.73,14.67,13.42,8.46,5.53
Northampton,52.25,-0.88333,GB,245899,2641430,Northampton,6.42,7.15,7.9,7.87,12.87,13.75,17.08,18.52,13.29,11.89,6.69,3.81
Northallerton,54.33901,-1.43243,GB,16832,2641435,Northallerton,5.95,6.59,7.95,7.4,11.67,13.14,15.43,17.01,12.33,10.96,6.27,4.13
Norbury,51.41667,-0.11667,GB,16476,2641462,Norbury,7.06,7.86,8.36,8.51,13.56,14.33,17.5,19.29,13.73,12.57,7.16,4.33
Newtownards,54.59236,-5.69092,GB,29363,2641519,Newtownards,7.16,6.62,8.32,7.84,11.36,12.53,14.84,15.56,12.62,11.48,8.06,5.71
Newtownabbey,54.65983,-5.90858,GB,63860,2641520,Newtownabbey,6.93,6.46,8.45,7.97,11.75,12.68,15.18,15.8,12.59,11.42,7.84,5.38
Newton Mearns,55.77334,-4.33339,GB,24650,2641544,Newton Mearns,4.99,4.88,6.5,6.32,10.76,11.83,14.0,13.97,10.49,9.31,4.1,2.86
Newton-le-Willows,53.45,-2.6,GB,21782,2641546,Newton-le-Willows,6.49,6.87,7.98,7.64,12.23,13.16,15.79,16.58,12.45,11.56,6.45,4.08
Newton Aycliffe,54.61842,-1.5719,GB,25964,2641555,Newton Aycliffe,5.47,5.89,7.41,6.84,11.03,12.58,14.75,16.32,11.64,10.33,5.74,3.68
Newton Abbot,50.52858,-3.61186,GB,36474,2641557,Newton Abbot,8.63,9.05,8.8,8.96,13.66,13.95,16.88,17.92,14.6,13.05,8.73,5.9
Newry,54.17841,-6.33739,GB,27757,2641581,Newry,6.65,6.27,8.48,7.99,12.4,12.94,15.85,16.17,12.46,11.19,6.87,4.42
Newquay,50.41557,-5.07319,GB,20189,2641589,Newquay,9.16,9.64,9.31,8.95,13.84,13.7,17.08,17.54,14.7,13.23,9.1,6.84
Newport Pagnell,52.08731,-0.72218,GB,15067,2641591,Newport Pagnell,6.7,7.47,8.14,8.12,13.16,14.07,17.42,18.86,13.53,12.2,6.93,4.08
Newport,51.58774,-2.99835,GB,306844,2641598,Newport,7.42,7.99,8.27,8.5,14.2,14.06,17.81,18.25,14.05,12.31,7.24,4.33
Newport,50.70146,-1.29124,GB,24884,2641599,Newport,8.69,9.1,9.06,9.21,14.05,14.28,17.53,18.91,15.27,13.8,9.06,6.08
New Milton,50.75601,-1.6658,GB,23753,2641609,New Milton,8.2,8.62,8.68,8.82,13.85,13.88,17.27,18.53,14.74,13.21,8.48,5.47
New Mills,53.36592,-1.99986,GB,17968,2641612,New Mills,5.72,6.12,7.3,7.05,11.72,12.7,15.29,16.13,11.79,10.8,5.71,3.22
Newmarket,52.24467,0.40418,GB,20384,2641616,Newmarket,6.8,7.69,8.42,8.31,12.96,14.31,17.16,19.18,13.58,12.51,7.18,4.52
New Malden,51.40065,-0.2617,GB,23818,2641617,New Malden,7.15,7.95,8.39,8.6,13.7,14.4,17.64,19.33,13.86,12.63,7.26,4.38
New Cross,51.47534,-0.03837,GB,15756,2641661,New Cross,7.09,7.99,8.47,8.79,13.75,14.7,17.71,19.56,13.93,12.72,7.26,4.49
Newcastle upon Tyne,54.97328,-1.61396,GB,300125,2641673,Newcastle upon Tyne,5.92,6.21,7.87,7.36,11.12,12.98,14.91,16.54,11.96,10.65,6.47,4.4
Newcastle under Lyme,53.0,-2.23333,GB,129441,2641674,Newcastle under Lyme,5.88,6.37,7.37,7.17,12.1,12.93,15.99,16.98,12.27,11.19,5.89,3.16
Newbury,51.40148,-1.32471,GB,33065,2641689,Newbury,7.01,7.67,8.24,8.13,13.45,13.86,17.47,18.7,13.65,12.27,7.06,4.07
Newburn,54.9876,-1.74415,GB,41347,2641690,Newburn,5.94,6.21,7.88,7.36,11.24,13.0,14.95,16.49,11.93,10.66,6.36,4.29
Newark on Trent,53.06667,-0.81667,GB,43363,2641731,Newark on Trent,6.56,7.32,8.29,8.07,12.61,13.97,16.76,18.49,13.44,12.1,6.83,4.21
Neston,53.28333,-3.05,GB,15064,2641795,Neston,7.12,7.61,8.68,8.08,12.82,13.56,16.54,17.31,12.63,11.92,6.81,4.64
Nelson,53.83333,-2.2,GB,29317,2641810,Nelson,5.42,5.78,7.01,6.73,11.38,12.35,14.77,15.61,11.37,10.45,5.53,3.1
Neath,51.66317,-3.80443,GB,46126,2641843,Neath,7.79,8.14,8.35,8.53,14.12,13.71,17.38,17.66,14.06,12.47,7.56,5.01
Nantwich,53.06878,-2.52051,GB,17226,2641892,Nantwich,6.41,6.95,7.93,7.63,12.5,13.42,16.39,17.3,12.66,11.6,6.32,3.69
Nailsea,51.43239,-2.75847,GB,20543,2641913,Nailsea,7.45,8.03,8.31,8.32,13.9,13.86,17.65,18.04,13.95,12.39,7.29,4.31
Musselburgh,55.9417,-3.04991,GB,23620,2641942,Musselburgh,6.04,5.97,7.62,7.43,11.27,12.98,14.88,15.54,11.75,10.49,5.94,4.23
Mountsorrel,52.71667,-1.15,GB,17297,2642096,Mountsorrel,6.46,7.17,8.03,7.92,12.77,13.81,16.95,18.43,13.35,11.94,6.69,3.84
Motherwell,55.78924,-3.99187,GB,32840,2642135,Motherwell,5.28,5.21,6.83,6.67,11.15,12.3,14.4,14.46,10.79,9.67,4.43,3.02
Morley,53.74013,-1.59877,GB,57385,2642189,Morley,5.58,6.06,7.25,6.89,11.28,12.7,15.12,16.36,11.92,10.52,5.67,3.34
Moreton,53.4,-3.11667,GB,17670,2642204,Moreton,7.21,7.5,8.4,8.14,12.67,13.62,16.27,17.07,13.16,12.04,7.24,5.1
Morecambe,54.06835,-2.86108,GB,51644,2642214,Morecambe,7.1,7.26,8.21,7.94,12.36,13.28,15.77,16.45,12.58,11.85,7.13,5.16
Morden,51.39822,-0.19837,GB,48233,2642233,Morden,7.17,7.97,8.45,8.63,13.71,14.45,17.65,19.39,13.87,12.68,7.27,4.42
Mitcham,51.40322,-0.16831,GB,63393,2642414,Mitcham,7.17,7.97,8.45,8.63,13.71,14.45,17.65,19.39,13.87,12.68,7.27,4.42
Mirfield,53.67343,-1.69636,GB,18800,2642423,Mirfield,6.24,6.67,7.85,7.54,11.97,13.32,15.74,16.88,12.52,11.16,6.35,3.98
Milton Keynes,52.04172,-0.75583,GB,256385,2642465,Milton Keynes,6.42,7.16,7.82,7.82,12.94,13.74,17.13,18.52,13.23,11.88,6.64,3.75
Middleton,53.55,-2.2,GB,45589,2642593,Middleton,5.94,6.38,7.52,7.31,12.02,12.97,15.53,16.3,12.0,11.02,5.82,3.31
Middlesbrough,54.57623,-1.23483,GB,142707,2642607,Middlesbrough,6.36,6.79,8.2,7.64,11.5,13.31,15.33,17.11,12.54,11.26,7.0,4.97
Mexborough,53.49389,-1.29243,GB,15079,2642683,Mexborough,6.49,7.06,8.27,7.88,12.32,13.77,16.38,17.82,13.07,11.6,6.56,4.16
Merthyr Tydfil,51.74794,-3.37779,GB,43820,2642705,Merthyr Tydfil,6.64,7.06,7.44,7.61,13.24,12.99,16.71,17.11,13.1,11.44,6.47,3.69
Melton Mowbray,52.76588,-0.88693,GB,27158,2642763,Melton Mowbray,6.44,7.17,8.1,7.9,12.67,13.79,16.84,18.44,13.31,11.96,6.67,3.91
Melksham,51.37281,-2.14002,GB,19357,2642786,Melksham,7.24,7.89,8.26,8.26,13.77,13.91,17.55,18.37,13.8,12.34,7.17,4.13
Meikle Earnock,55.75,-4.03333,GB,54080,2642814,Meikle Earnock,4.98,4.91,6.53,6.37,10.85,12.0,14.1,14.16,10.49,9.37,4.13,2.72
Marple,53.39452,-2.06292,GB,18241,2642999,Marple,5.8,6.23,7.37,7.13,11.88,12.82,15.47,16.34,11.91,10.92,5.78,3.22
Marlow,51.56933,-0.77415,GB,18261,2643003,Marlow,7.19,7.91,8.54,8.49,13.68,14.38,17.78,19.17,13.87,12.61,7.34,4.42
Market Harborough,52.4776,-0.92053,GB,22911,2643027,Market Harborough,6.52,7.26,8.08,8.0,12.94,13.9,17.14,18.66,13.43,12.03,6.8,3.96
Margate,51.38132,1.38617,GB,60134,2643044,Margate,7.58,8.36,8.76,8.96,13.19,14.44,16.85,19.15,14.74,13.35,8.5,5.7
March,52.55131,0.08828,GB,21051,2643071,March,6.77,7.7,8.51,8.41,13.0,14.39,17.12,19.17,13.68,12.5,7.18,4.62
Mansfield Woodhouse,53.16495,-1.19384,GB,18330,2643096,Mansfield Woodhouse,6.1,6.69,7.86,7.54,12.08,13.37,16.21,17.66,12.82,11.45,6.38,3.76
Mansfield,53.13333,-1.2,GB,171958,2643097,Mansfield,5.93,6.55,7.68,7.39,12.0,13.21,16.12,17.57,12.7,11.33,6.21,3.5
Mangotsfield,51.4878,-2.50403,GB,36427,2643116,Mangotsfield,7.11,7.74,8.09,8.12,13.73,13.77,17.52,18.1,13.69,12.14,6.94,3.9
Manchester,53.48095,-2.23743,GB,395515,2643123,Manchester,6.19,6.63,7.78,7.56,12.27,13.22,15.78,16.55,12.25,11.27,6.07,3.56
Maltby,53.41667,-1.2,GB,17513,2643144,Maltby,5.93,6.52,7.71,7.35,11.8,13.23,15.89,17.37,12.59,11.17,6.1,3.62
Maldon,51.7311,0.67463,GB,21462,2643160,Maldon,7.16,7.92,8.47,8.62,12.95,14.32,16.78,18.92,14.06,12.84,7.89,5.09
Maidstone,51.26667,0.51667,GB,107627,2643179,Maidstone,7.41,8.27,8.74,8.89,13.75,14.7,17.62,19.77,14.2,12.98,7.63,4.87
Maidenhead,51.52279,-0.71986,GB,70374,2643186,Maidenhead,7.08,7.84,8.36,8.48,13.64,14.31,17.64,19.14,13.82,12.51,7.23,4.3
Maghull,53.51619,-2.94117,GB,26997,2643198,Maghull,7.13,7.39,8.32,8.04,12.44,13.47,15.99,16.8,13.09,12.03,7.22,5.05
Maesteg,51.60926,-3.65823,GB,21001,2643218,Maesteg,7.23,7.58,7.82,7.98,13.57,13.18,16.87,17.17,13.52,11.93,7.02,4.42
Macclesfield,53.26023,-2.12564,GB,63954,2643266,Macclesfield,5.87,6.3,7.44,7.19,11.98,12.85,15.62,16.5,11.99,11.05,5.88,3.28
Lymington,50.75767,-1.5443,GB,16446,2643312,Lymington,8.27,8.71,8.77,8.93,14.0,14.06,17.45,18.74,14.84,13.34,8.55,5.55
Luton,51.87967,-0.41748,GB,225262,2643339,Luton,6.49,7.26,7.92,7.91,12.92,13.88,17.17,18.69,13.23,12.04,6.75,3.92
Lowestoft,52.47523,1.75167,GB,70945,2643490,Lowestoft,7.08,7.82,8.28,8.36,12.08,14.07,16.19,18.33,14.25,13.09,8.62,5.74
Louth,53.36664,-0.00438,GB,16419,2643553,Louth,6.43,7.18,8.21,7.97,12.04,13.84,16.18,18.3,13.22,12.17,7.25,4.79
Loughborough,52.76667,-1.2,GB,65255,2643567,Loughborough,6.49,7.2,8.1,7.98,12.76,13.86,16.92,18.38,13.4,11.97,6.76,3.89
Longfield,51.3969,0.30212,GB,16808,2643696,Longfield,7.06,7.89,8.4,8.55,13.4,14.38,17.31,19.33,13.82,12.63,7.28,4.5
Long Eaton,52.89855,-1.27136,GB,47898,2643697,Long Eaton,6.5,7.19,8.15,8.03,12.78,13.91,16.89,18.32,13.43,11.95,6.78,3.93
Londonderry County Borough,54.99721,-7.30917,GB,87153,2643734,Londonderry County Borough,5.89,5.62,8.05,7.63,12.2,12.2,15.22,15.12,11.76,10.67,6.69,4.39
Derry,54.9981,-7.30934,GB,83652,2643736,Derry,5.89,5.62,8.05,7.63,12.2,12.2,15.22,15.12,11.76,10.67,6.69,4.39
London,51.50853,-0.12574,GB,8961989,2643743,London,7.01,7.89,8.36,8.68,13.68,14.59,17.65,19.42,13.84,12.61,7.15,4.36
Lofthouse,53.72947,-1.49697,GB,23458,2643776,Lofthouse,6.0,6.53,7.72,7.32,11.66,13.14,15.6,16.92,12.4,10.97,6.09,3.78
Llanelli,51.68195,-4.16191,GB,49591,2644100,Llanelli,8.16,8.37,8.5,8.59,13.65,13.6,17.0,17.45,14.23,12.76,8.06,5.76
Llandudno,53.32498,-3.83148,GB,15371,2644120,Llandudno,7.64,7.93,8.95,8.35,13.06,13.65,16.8,17.55,12.81,12.22,7.26,5.24
Livingston,55.90288,-3.52261,GB,56840,2644204,Livingston,4.9,4.82,6.5,6.31,10.55,11.96,13.94,14.32,10.53,9.34,4.39,2.77
Liverpool,53.41058,-2.97794,GB,864122,2644210,Liverpool,6.99,7.3,8.24,7.96,12.5,13.46,16.1,16.91,12.95,11.86,7.0,4.82
Littlehampton,50.81137,-0.54078,GB,58714,2644319,Littlehampton,8.19,8.69,8.72,8.85,13.44,14.07,17.1,18.73,14.67,13.42,8.46,5.53
Litherland,53.46993,-2.99809,GB,22971,2644386,Litherland,7.28,7.48,8.38,8.11,12.44,13.51,15.97,16.79,13.24,12.14,7.41,5.28
Lisburn,54.52337,-6.03527,GB,77506,2644411,Lisburn,6.41,6.0,8.14,7.64,11.78,12.51,15.26,15.72,12.13,10.94,6.9,4.44
Lincoln,53.22683,-0.53792,GB,103813,2644487,Lincoln,6.55,7.37,8.34,8.12,12.57,14.04,16.7,18.6,13.42,12.19,6.85,4.38
Limehouse,51.51412,-0.03282,GB,15986,2644497,Limehouse,7.09,7.99,8.47,8.79,13.75,14.7,17.71,19.56,13.93,12.72,7.26,4.49
Lichfield,52.68154,-1.82549,GB,32877,2644531,Lichfield,6.36,7.0,7.91,7.79,12.77,13.67,16.88,18.05,13.12,11.73,6.49,3.61
Leyland,53.69786,-2.68758,GB,37614,2644547,Leyland,6.64,6.95,7.96,7.67,12.17,13.18,15.59,16.36,12.52,11.57,6.61,4.4
Lewes,50.87398,0.0088,GB,17297,2644559,Lewes,8.0,8.55,8.53,8.74,13.31,13.93,16.97,18.7,14.53,13.29,8.24,5.37
Leighton Buzzard,51.91722,-0.65802,GB,37469,2644652,Leighton Buzzard,6.64,7.39,8.05,8.04,13.16,13.95,17.35,18.76,13.42,12.13,6.87,3.99
Leigh,53.49642,-2.51973,GB,43626,2644660,Leigh,6.42,6.81,7.95,7.63,12.26,13.2,15.81,16.58,12.4,11.51,6.36,3.94
Leicester,52.6386,-1.13169,GB,368600,2644668,Leicester,6.58,7.3,8.12,8.06,12.98,13.97,17.16,18.62,13.49,12.06,6.82,3.95
Leek,53.10434,-2.02207,GB,19903,2644684,Leek,5.85,6.29,7.43,7.16,11.94,12.82,15.78,16.81,12.18,11.14,5.96,3.29
Leeds,53.79648,-1.54785,GB,516298,2644688,Leeds,6.28,6.81,8.02,7.57,11.84,13.35,15.8,17.13,12.62,11.23,6.41,4.14
Leatherhead,51.29652,-0.3338,GB,43544,2644726,Leatherhead,7.23,7.99,8.44,8.53,13.72,14.34,17.69,19.34,13.83,12.65,7.21,4.3
Royal Leamington Spa,52.2852,-1.52,GB,95172,2644737,Royal Leamington Spa,6.66,7.36,8.03,8.08,13.23,13.97,17.42,18.62,13.56,12.04,6.83,3.87
Larne,54.85,-5.81667,GB,18421,2644849,Larne,6.77,6.23,8.19,7.69,11.35,12.29,14.77,15.4,12.37,11.24,7.79,5.37
Larkhall,55.73333,-3.96667,GB,15020,2644853,Larkhall,5.28,5.12,6.71,6.59,11.06,12.1,14.34,14.4,10.75,9.73,4.68,3.13
Lancaster,54.04649,-2.79988,GB,47162,2644972,Lancaster,6.57,6.68,7.61,7.5,11.96,12.97,15.36,16.05,12.42,11.44,6.75,4.68
Kirkintilloch,55.93933,-4.15262,GB,19630,2645261,Kirkintilloch,5.22,5.2,6.92,6.77,11.26,12.41,14.42,14.49,10.93,9.68,4.44,3.17
Kirkcaldy,56.11683,-3.15999,GB,49460,2645298,Kirkcaldy,5.74,5.69,7.27,7.05,10.69,12.7,14.33,15.15,11.51,10.09,5.48,3.89
Kirkby in Ashfield,53.09982,-1.24379,GB,27539,2645309,Kirkby in Ashfield,5.68,6.3,7.43,7.14,11.75,12.97,15.87,17.32,12.45,11.08,5.96,3.26
Kirkby,53.48138,-2.89215,GB,42744,2645313,Kirkby,7.13,7.39,8.32,8.04,12.44,13.47,15.99,16.8,13.09,12.03,7.22,5.05
Kippax,53.76687,-1.37099,GB,15965,2645347,Kippax,6.15,6.71,7.92,7.42,11.63,13.18,15.71,17.09,12.51,11.13,6.27,4.02
Kingswood,51.45278,-2.50833,GB,64793,2645418,Kingswood,6.86,7.49,7.84,7.87,13.47,13.52,17.27,17.85,13.44,11.89,6.69,3.65
Kingswinford,52.49755,-2.16889,GB,20000,2645420,Kingswinford,6.53,7.13,7.97,7.91,13.09,13.72,17.22,18.18,13.28,11.84,6.67,3.76
Kingston upon Hull,53.7446,-0.33525,GB,314018,2645425,Kingston upon Hull,6.44,7.13,8.22,7.91,11.9,13.69,15.84,17.93,13.13,12.03,7.3,4.9
King's Lynn,52.75172,0.39516,GB,46093,2645456,King's Lynn,6.7,7.54,8.36,8.21,12.5,13.97,16.47,18.56,13.41,12.34,7.63,5.16
Kilwinning,55.65333,-4.70666,GB,16420,2645541,Kilwinning,6.31,5.88,7.31,7.16,11.27,12.38,14.7,14.62,11.69,10.5,5.88,4.65
Kilmarnock,55.61171,-4.49581,GB,46970,2645605,Kilmarnock,6.05,5.69,7.07,6.92,11.14,12.17,14.54,14.48,11.4,10.32,5.67,4.29
Kidsgrove,53.08691,-2.23777,GB,29480,2645721,Kidsgrove,5.9,6.39,7.44,7.21,12.11,12.94,15.9,16.86,12.19,11.18,5.87,3.18
Kidlington,51.82166,-1.2886,GB,15829,2645722,Kidlington,6.85,7.53,8.1,8.1,13.34,13.99,17.47,18.71,13.63,12.15,6.93,3.99
Kidderminster,52.38819,-2.25,GB,57059,2645724,Kidderminster,6.84,7.43,8.23,8.21,13.44,14.0,17.56,18.52,13.64,12.14,7.04,4.08
Keynsham,51.41387,-2.4978,GB,15641,2645733,Keynsham,7.54,8.15,8.5,8.43,13.97,14.01,17.78,18.33,13.96,12.55,7.38,4.33
Kettering,52.39836,-0.72571,GB,63675,2645753,Kettering,6.38,7.17,7.93,7.9,12.77,13.79,16.99,18.56,13.32,11.94,6.73,3.91
Kenilworth,52.34958,-1.58276,GB,22413,2645822,Kenilworth,6.4,7.09,7.77,7.81,12.98,13.69,17.17,18.34,13.29,11.76,6.54,3.57
Kendal,54.32681,-2.74757,GB,29147,2645826,Kendal,5.84,5.93,6.94,6.99,11.72,12.63,14.92,15.51,11.59,10.62,5.69,3.6
Kempston,52.11599,-0.50044,GB,19873,2645831,Kempston,6.87,7.69,8.34,8.35,13.31,14.35,17.62,19.16,13.74,12.43,7.13,4.32
Keighley,53.86791,-1.90664,GB,50171,2645889,Keighley,5.92,6.32,7.53,7.2,11.64,12.94,15.32,16.41,12.1,10.8,6.05,3.7
Johnstone,55.82906,-4.51605,GB,16390,2645951,Johnstone,5.82,5.58,7.21,7.05,11.38,12.42,14.66,14.6,11.28,10.11,5.06,3.88
Jarrow,54.98036,-1.48423,GB,27264,2645972,Jarrow,6.25,6.54,8.18,7.69,11.36,13.32,15.24,16.9,12.31,11.0,6.92,4.86
Islington,51.53622,-0.10304,GB,319143,2646003,Islington,6.86,7.74,8.21,8.53,13.53,14.44,17.5,19.27,13.69,12.46,7.0,4.21
Isleworth,51.47518,-0.34246,GB,20500,2646004,Isleworth,7.08,7.89,8.37,8.62,13.66,14.45,17.61,19.31,13.85,12.61,7.27,4.42
Irvine,55.6194,-4.65508,GB,34130,2646032,Irvine,6.34,5.89,7.14,7.04,11.16,12.2,14.6,14.52,11.62,10.57,6.15,4.69
Irlam,53.44253,-2.42323,GB,19442,2646042,Irlam,6.26,6.72,7.82,7.55,12.31,13.22,15.87,16.67,12.31,11.36,6.11,3.6
Ipswich,52.05917,1.15545,GB,178835,2646057,Ipswich,6.98,7.8,8.47,8.57,12.85,14.42,16.83,19.05,13.89,12.82,7.81,5.02
Inverness,57.47908,-4.22398,GB,47790,2646088,Inverness,4.28,4.07,6.47,6.58,11.07,12.21,14.62,14.31,10.57,9.15,4.72,3.25
Ilkeston,52.97055,-1.30951,GB,38587,2646274,Ilkeston,6.05,6.71,7.76,7.58,12.29,13.43,16.37,17.81,12.94,11.47,6.35,3.54
Ilford,51.55765,0.07278,GB,168168,2646277,Ilford,7.12,7.99,8.57,8.78,13.6,14.65,17.54,19.45,13.96,12.77,7.44,4.69
Hythe,50.86004,-1.40162,GB,20201,2646317,Hythe,7.81,8.38,8.55,8.7,13.99,13.99,17.48,18.79,14.44,12.95,7.96,4.94
Hyde,53.45131,-2.07943,GB,31926,2646327,Hyde,6.02,6.42,7.6,7.35,12.02,13.0,15.59,16.43,12.09,11.1,6.01,3.52
Huyton,53.4115,-2.83935,GB,54738,2646329,Huyton,6.71,7.11,8.15,7.82,12.43,13.37,16.05,16.85,12.71,11.71,6.64,4.34
Huntingdon,52.33049,-0.18651,GB,23937,2646393,Huntingdon,6.78,7.64,8.37,8.27,13.06,14.29,17.38,19.13,13.66,12.43,7.09,4.39
Huddersfield,53.64904,-1.78416,GB,149017,2646458,Huddersfield,5.94,6.37,7.55,7.24,11.67,13.02,15.44,16.58,12.22,10.86,6.05,3.68
Hucknall,53.03333,-1.2,GB,29728,2646460,Hucknall,6.14,6.81,7.85,7.66,12.36,13.52,16.44,17.93,13.03,11.58,6.43,3.64
Hoyland Nether,53.5,-1.45,GB,15842,2646471,Hoyland Nether,5.69,6.22,7.44,7.07,11.53,12.94,15.54,16.92,12.22,10.75,5.75,3.34
Hove,50.83088,-0.1672,GB,75174,2646504,Hove,8.08,8.58,8.6,8.74,13.32,13.96,16.99,18.63,14.56,13.32,8.34,5.42
Hounslow,51.46839,-0.36092,GB,66292,2646517,Hounslow,7.1,7.89,8.37,8.61,13.66,14.4,17.59,19.24,13.85,12.59,7.3,4.43
Houghton-Le-Spring,54.84034,-1.46427,GB,37840,2646525,Houghton-Le-Spring,5.89,6.26,7.9,7.33,11.25,12.97,15.12,16.75,11.99,10.78,6.35,4.31
Horwich,53.60126,-2.54975,GB,18696,2646542,Horwich,5.88,6.21,7.39,7.02,11.62,12.56,15.16,15.91,11.78,10.96,5.89,3.49
Horsham,51.06314,-0.32757,GB,51472,2646557,Horsham,7.42,8.11,8.37,8.53,13.65,14.12,17.47,19.12,14.01,12.76,7.43,4.49
Horsforth,53.8426,-1.63754,GB,19350,2646558,Horsforth,5.61,6.09,7.31,6.9,11.24,12.69,15.09,16.35,11.92,10.52,5.73,3.44
Horley,51.17423,-0.15919,GB,21232,2646606,Horley,7.29,8.03,8.39,8.49,13.65,14.21,17.57,19.25,13.87,12.69,7.27,4.37
Hook,51.36803,-0.3065,GB,18973,2646653,Hook,7.11,7.89,8.34,8.55,13.65,14.35,17.59,19.28,13.81,12.58,7.21,4.33
Hoddesdon,51.76148,-0.01144,GB,35174,2646807,Hoddesdon,6.79,7.65,8.29,8.41,13.33,14.39,17.47,19.23,13.64,12.45,7.09,4.35
Hitchin,51.94924,-0.28496,GB,36099,2646826,Hitchin,6.73,7.52,8.18,8.19,13.17,14.16,17.41,18.99,13.49,12.31,7.0,4.2
Hindley,53.53333,-2.58333,GB,24169,2646862,Hindley,6.49,6.87,7.98,7.64,12.23,13.16,15.79,16.58,12.45,11.56,6.45,4.08
Hinckley,52.5389,-1.37613,GB,45249,2646867,Hinckley,6.29,6.98,7.75,7.71,12.74,13.61,16.95,18.22,13.17,11.72,6.51,3.57
High Wycombe,51.62907,-0.74934,GB,133204,2646914,High Wycombe,6.88,7.61,8.22,8.23,13.37,14.1,17.45,18.89,13.57,12.32,7.06,4.15
Highbury,51.55,-0.1,GB,26664,2646976,Highbury,6.89,7.74,8.32,8.53,13.46,14.41,17.44,19.23,13.69,12.5,7.15,4.37
High Blantyre,55.78438,-4.10007,GB,16739,2646979,High Blantyre,5.27,5.19,6.82,6.65,11.12,12.24,14.36,14.38,10.79,9.63,4.37,3.03
Heysham,54.04367,-2.89322,GB,17016,2647001,Heysham,6.09,6.19,7.12,7.04,11.5,12.51,14.89,15.57,11.95,10.97,6.28,4.22
Heswall,53.32733,-3.09648,GB,29789,2647026,Heswall,6.53,6.98,7.97,7.67,12.41,13.27,16.08,16.86,12.51,11.46,6.45,4.19
Heston,51.48363,-0.37577,GB,37045,2647027,Heston,7.05,7.84,8.32,8.56,13.61,14.35,17.54,19.19,13.81,12.54,7.25,4.38
Hertford,51.79588,-0.07854,GB,25847,2647044,Hertford,6.88,7.71,8.35,8.45,13.4,14.42,17.53,19.25,13.69,12.5,7.17,4.42
Herne Bay,51.373,1.12857,GB,36642,2647057,Herne Bay,7.65,8.45,8.89,9.07,13.44,14.65,17.14,19.43,14.77,13.4,8.47,5.67
Hereford,52.05684,-2.71482,GB,60415,2647074,Hereford,6.64,7.24,7.86,7.88,13.21,13.68,17.43,18.26,13.35,11.75,6.66,3.67
Hemel Hempstead,51.75368,-0.44975,GB,85629,2647138,Hemel Hempstead,6.45,7.21,7.86,7.87,12.9,13.77,17.06,18.59,13.17,11.98,6.71,3.88
Hebburn,54.97302,-1.51546,GB,18808,2647209,Hebburn,6.1,6.39,8.03,7.54,11.21,13.17,15.09,16.75,12.16,10.85,6.77,4.71
Heanor,53.01372,-1.35383,GB,23122,2647227,Heanor,5.95,6.58,7.64,7.48,12.2,13.32,16.25,17.65,12.81,11.33,6.24,3.42
Hazel Grove,53.38333,-2.11667,GB,15265,2647246,Hazel Grove,6.2,6.63,7.77,7.53,12.28,13.22,15.87,16.74,12.31,11.32,6.18,3.62
Haywards Heath,50.99769,-0.10313,GB,33845,2647248,Haywards Heath,7.29,7.95,8.08,8.32,13.38,13.84,17.19,18.84,13.89,12.61,7.29,4.39
Hayes,51.51579,-0.4234,GB,50000,2647261,Hayes,7.0,7.79,8.27,8.51,13.56,14.3,17.49,19.14,13.75,12.49,7.2,4.33
Hayes,51.37786,0.01682,GB,15906,2647262,Hayes,6.93,7.74,8.25,8.39,13.41,14.23,17.36,19.2,13.6,12.47,7.03,4.22
Haydock,53.46723,-2.68166,GB,17333,2647265,Haydock,6.7,7.05,8.13,7.79,12.33,13.29,15.89,16.69,12.66,11.73,6.66,4.37
Hawarden,53.18478,-3.02578,GB,25513,2647303,Hawarden,6.54,7.07,8.06,7.71,12.55,13.4,16.28,17.07,12.54,11.51,6.4,4.01
Haverhill,52.08226,0.43891,GB,27041,2647310,Haverhill,6.62,7.5,8.22,8.13,12.79,14.09,17.01,19.04,13.41,12.32,7.0,4.31
Havant,50.8567,-0.98559,GB,45574,2647317,Havant,8.12,8.66,8.83,8.92,13.97,14.25,17.57,19.04,14.71,13.31,8.32,5.31
Hatfield,51.76338,-0.22419,GB,41677,2647349,Hatfield,6.67,7.48,8.11,8.18,13.16,14.12,17.29,18.95,13.44,12.25,6.96,4.18
Hastings,50.85519,0.57292,GB,133422,2647356,Hastings,7.4,8.27,8.43,8.57,13.34,13.91,17.08,19.02,14.08,12.76,7.64,5.03
Haslingden,53.70326,-2.32382,GB,15204,2647363,Haslingden,4.99,5.33,6.57,6.24,10.9,11.83,14.39,15.15,10.91,10.11,5.06,2.6
Harwich,51.94194,1.28437,GB,20723,2647383,Harwich,7.24,7.97,8.48,8.75,12.84,14.51,16.71,18.95,14.33,13.11,8.37,5.5
Hartley,51.38673,0.30367,GB,16302,2647398,Hartley,6.76,7.59,8.1,8.25,13.1,14.08,17.01,19.03,13.52,12.33,6.98,4.2
Hartlepool,54.68554,-1.21028,GB,88855,2647400,Hartlepool,6.36,6.72,8.17,7.63,11.38,13.29,15.28,17.04,12.47,11.22,7.03,5.01
Harrow,51.57835,-0.33208,GB,149246,2647425,Harrow,6.85,7.63,8.21,8.36,13.34,14.18,17.33,19.0,13.58,12.39,7.11,4.28
Harrogate,53.99078,-1.5373,GB,89060,2647428,Harrogate,5.46,6.01,7.26,6.79,11.08,12.52,14.9,16.24,11.8,10.43,5.72,3.49
Harpenden,51.81684,-0.35706,GB,30240,2647451,Harpenden,6.6,7.35,8.01,8.01,13.06,13.92,17.21,18.74,13.32,12.13,6.86,4.03
Harlow,51.77655,0.11158,GB,94365,2647461,Harlow,6.66,7.52,8.19,8.28,13.15,14.27,17.3,19.1,13.5,12.33,6.96,4.24
Harlesden,51.53811,-0.2502,GB,17162,2647468,Harlesden,6.93,7.74,8.22,8.48,13.51,14.31,17.46,19.16,13.7,12.46,7.12,4.27
Hanworth,51.43333,-0.38333,GB,23563,2647514,Hanworth,7.15,7.93,8.37,8.58,13.71,14.36,17.63,19.28,13.86,12.6,7.26,4.35
Hampton,51.41334,-0.36701,GB,18000,2647550,Hampton,7.2,7.98,8.42,8.63,13.76,14.41,17.68,19.33,13.91,12.65,7.31,4.4
Hamilton,55.76667,-4.03333,GB,54480,2647570,Hamilton,5.38,5.31,6.93,6.77,11.25,12.4,14.5,14.56,10.89,9.77,4.53,3.12
Halifax,53.71667,-1.85,GB,82624,2647632,Halifax,5.69,6.08,7.27,6.96,11.44,12.7,15.14,16.21,11.88,10.62,5.81,3.41
Halesowen,52.44859,-2.04938,GB,55265,2647639,Halesowen,6.33,6.91,7.8,7.66,12.85,13.44,17.04,18.02,13.07,11.67,6.52,3.57
Hale,51.22946,-0.78908,GB,15657,2647644,Hale,6.99,7.67,8.12,8.13,13.46,13.82,17.32,18.77,13.57,12.28,6.99,4.0
Hailsham,50.8622,0.25775,GB,19977,2647655,Hailsham,8.01,8.6,8.58,8.82,13.36,14.07,17.0,18.9,14.68,13.38,8.33,5.49
Hadleigh,51.55269,0.60983,GB,18300,2647679,Hadleigh,7.01,7.79,8.3,8.47,12.82,14.16,16.62,18.76,13.94,12.67,7.73,4.92
Guiseley,53.87561,-1.71232,GB,21000,2647784,Guiseley,5.6,6.04,7.26,6.88,11.24,12.61,14.98,16.16,11.82,10.48,5.78,3.49
Guisborough,54.53478,-1.05606,GB,16979,2647785,Guisborough,6.08,6.47,7.84,7.25,11.09,12.84,14.94,16.71,12.19,11.05,6.84,4.76
Guildford,51.23536,-0.57427,GB,71873,2647793,Guildford,7.34,8.06,8.44,8.52,13.79,14.23,17.68,19.18,13.89,12.67,7.31,4.35
Grove,51.60954,-1.42187,GB,18312,2647837,Grove,6.92,7.58,8.16,8.08,13.41,13.89,17.49,18.64,13.61,12.17,6.97,4.04
Grimsby,53.56539,-0.07553,GB,86138,2647878,Grimsby,6.47,7.17,8.24,8.01,12.06,13.86,16.09,18.16,13.22,12.12,7.33,4.92
Greenock,55.94838,-4.76121,GB,41280,2647948,Greenock,7.39,6.77,8.1,7.8,11.42,12.72,14.95,14.97,12.51,11.38,7.24,6.08
Greenford,51.52866,-0.35508,GB,38000,2647972,Greenford,7.0,7.79,8.27,8.51,13.56,14.3,17.49,19.14,13.75,12.49,7.2,4.33
Great Yarmouth,52.60831,1.73052,GB,63434,2647984,Great Yarmouth,7.0,7.74,8.23,8.28,11.92,13.92,15.97,18.1,14.09,12.97,8.6,5.79
Great Wyrley,52.66277,-2.01111,GB,19193,2647985,Great Wyrley,6.19,6.79,7.72,7.55,12.59,13.39,16.67,17.74,12.86,11.53,6.29,3.42
Great Sankey,53.39234,-2.63994,GB,43793,2648026,Great Sankey,6.54,6.98,8.09,7.73,12.43,13.35,16.06,16.85,12.57,11.63,6.43,4.02
Great Malvern,52.11161,-2.32515,GB,36770,2648063,Great Malvern,6.32,6.97,7.59,7.57,12.89,13.4,17.17,18.03,13.16,11.55,6.38,3.37
Grays,51.47566,0.32521,GB,89755,2648182,Grays,7.26,8.12,8.65,8.87,13.61,14.7,17.48,19.52,14.11,12.89,7.61,4.83
Gravesend,51.44206,0.37106,GB,54263,2648187,Gravesend,7.29,8.13,8.63,8.8,13.58,14.59,17.45,19.53,14.09,12.87,7.58,4.8
Grantham,52.91149,-0.64184,GB,43833,2648208,Grantham,6.52,7.29,8.24,8.01,12.62,13.91,16.77,18.55,13.36,12.1,6.76,4.14
Grangemouth,56.01141,-3.72183,GB,17280,2648215,Grangemouth,5.6,5.62,7.25,7.11,11.3,12.88,14.63,14.99,11.36,10.0,4.93,3.44
Gosport,50.79509,-1.12902,GB,70793,2648272,Gosport,8.48,9.06,9.08,9.12,14.25,14.18,17.75,18.93,14.88,13.47,8.67,5.86
Gosforth,55.0,-1.61667,GB,23975,2648273,Gosforth,5.82,6.11,7.77,7.26,11.02,12.88,14.81,16.44,11.86,10.55,6.37,4.3
Gorseinon,51.66931,-4.04163,GB,20581,2648290,Gorseinon,7.86,8.13,8.32,8.46,13.75,13.53,17.05,17.4,13.98,12.49,7.67,5.28
Goole,53.70324,-0.87732,GB,20810,2648319,Goole,6.44,7.15,8.31,7.86,12.13,13.73,16.21,17.93,13.05,11.83,6.7,4.39
Golborne,53.47693,-2.59651,GB,24021,2648356,Golborne,6.49,6.87,7.98,7.64,12.23,13.16,15.79,16.58,12.45,11.56,6.45,4.08
Godalming,51.1858,-0.61489,GB,22689,2648372,Godalming,7.29,8.01,8.39,8.47,13.74,14.18,17.63,19.13,13.84,12.62,7.27,4.3
Gloucester,51.86568,-2.2431,GB,132416,2648404,Gloucester,7.11,7.76,8.25,8.25,13.62,14.07,17.77,18.6,13.87,12.27,7.05,4.06
Glossop,53.44325,-1.949,GB,33243,2648405,Glossop,5.93,6.3,7.5,7.2,11.83,12.85,15.49,16.38,12.01,11.03,6.03,3.54
Glenrothes,56.19514,-3.17316,GB,38360,2648438,Glenrothes,5.33,5.3,7.02,6.77,10.42,12.34,14.03,14.93,11.16,9.74,5.05,3.42
Glasgow,55.86515,-4.25763,GB,626410,2648579,Glasgow,5.29,5.23,6.95,6.79,11.25,12.39,14.42,14.45,10.97,9.71,4.53,3.29
Gillingham,51.38914,0.54863,GB,101187,2648657,Gillingham,7.26,8.11,8.6,8.77,13.49,14.56,17.33,19.47,14.08,12.86,7.63,4.85
Gelligaer,51.66444,-3.25611,GB,17376,2648728,Gelligaer,6.32,6.74,7.27,7.34,12.85,12.73,16.46,16.93,12.66,11.15,6.17,3.41
Gateshead,54.96209,-1.60168,GB,77649,2648773,Gateshead,5.92,6.21,7.87,7.36,11.12,12.98,14.91,16.54,11.96,10.65,6.47,4.4
Gainsborough,53.38333,-0.76667,GB,20842,2648945,Gainsborough,6.57,7.29,8.38,8.04,12.44,13.95,16.63,18.33,13.32,12.07,6.84,4.39
Fylde,53.83333,-2.91667,GB,76500,2648970,Fylde,7.11,7.21,7.98,7.83,12.14,13.27,15.54,16.32,12.91,11.84,7.17,5.15
Fulwood,53.35,-1.55,GB,18233,2648988,Fulwood,5.2,5.63,6.84,6.54,11.07,12.27,14.93,16.12,11.57,10.31,5.36,2.85
Fulham,51.48026,-0.1993,GB,87161,2648997,Fulham,7.08,7.93,8.4,8.7,13.72,14.58,17.69,19.41,13.89,12.64,7.23,4.4
Frome,51.22834,-2.32211,GB,26203,2649024,Frome,7.18,7.82,8.12,8.04,13.53,13.58,17.29,17.98,13.55,12.21,7.04,3.94
Frinton-on-Sea,51.83061,1.24424,GB,16941,2649049,Frinton-on-Sea,7.18,7.9,8.43,8.68,12.79,14.36,16.64,18.84,14.22,13.0,8.22,5.37
Friern Barnet,51.61328,-0.15853,GB,17250,2649055,Friern Barnet,6.81,7.63,8.21,8.4,13.35,14.24,17.33,19.06,13.58,12.39,7.08,4.27
Formby,53.55838,-3.06999,GB,23329,2649198,Formby,7.34,7.51,8.35,8.13,12.43,13.53,15.93,16.74,13.26,12.16,7.47,5.39
Folkestone,51.08169,1.16734,GB,66429,2649258,Folkestone,7.64,8.37,8.72,8.83,13.05,14.24,16.73,18.95,14.74,13.39,8.52,5.71
Flint,53.24488,-3.13231,GB,26442,2649301,Flint,6.92,7.44,8.46,8.12,12.98,13.75,16.69,17.46,12.91,11.89,6.81,4.44
Fleetwood,53.92527,-3.01085,GB,25359,2649312,Fleetwood,7.16,7.16,7.89,7.82,12.11,13.24,15.49,16.26,12.97,11.86,7.29,5.34
Fleet,51.28333,-0.83333,GB,38726,2649322,Fleet,6.99,7.71,8.2,8.23,13.58,14.01,17.51,18.95,13.61,12.31,7.0,4.01
Finchley,51.60096,-0.19518,GB,65812,2649441,Finchley,6.71,7.53,8.11,8.3,13.25,14.14,17.23,18.96,13.48,12.29,6.98,4.17
Feltham,51.4462,-0.41388,GB,24325,2649571,Feltham,7.15,7.93,8.37,8.58,13.71,14.36,17.63,19.28,13.86,12.6,7.26,4.35
Felling,54.95297,-1.57152,GB,34355,2649578,Felling,5.97,6.26,7.92,7.41,11.17,13.04,14.97,16.58,12.01,10.7,6.52,4.46
Felixstowe,51.96375,1.3511,GB,29171,2649579,Felixstowe,6.99,7.79,8.42,8.56,12.77,14.37,16.7,18.93,13.94,12.85,7.94,5.12
Faversham,51.3148,0.88856,GB,19829,2649622,Faversham,7.45,8.32,8.85,8.97,13.69,14.76,17.53,19.77,14.43,13.12,7.95,5.18
Farnworth,53.55,-2.4,GB,25680,2649650,Farnworth,5.97,6.31,7.52,7.16,11.8,12.74,15.33,16.07,11.89,11.08,5.99,3.53
Farnham,51.21444,-0.80054,GB,36971,2649660,Farnham,7.24,7.92,8.37,8.37,13.71,14.07,17.57,19.02,13.82,12.53,7.24,4.25
Farnborough,51.29424,-0.75565,GB,59902,2649672,Farnborough,7.04,7.76,8.26,8.28,13.63,14.05,17.56,19.0,13.66,12.36,7.05,4.06
Fareham,50.85162,-1.17929,GB,57390,2649692,Fareham,7.97,8.56,8.74,8.87,14.14,14.22,17.67,19.05,14.61,13.16,8.12,5.11
Falmouth,50.15441,-5.07113,GB,31988,2649715,Falmouth,9.07,9.62,9.18,9.17,14.22,14.07,17.45,18.04,15.12,13.13,9.11,6.78
Falkirk,56.0021,-3.78535,GB,35310,2649723,Falkirk,5.43,5.45,7.12,6.98,11.22,12.74,14.53,14.85,11.2,9.87,4.78,3.27
Exmouth,50.61723,-3.40233,GB,34432,2649800,Exmouth,8.38,8.83,8.62,8.86,13.78,13.94,16.98,17.91,14.51,12.88,8.45,5.5
Exeter,50.7236,-3.52751,GB,130709,2649808,Exeter,7.89,8.44,8.35,8.54,13.81,13.78,17.11,17.84,14.09,12.46,7.89,4.78
Evesham,52.09237,-1.94887,GB,23576,2649833,Evesham,6.97,7.64,8.25,8.26,13.58,14.12,17.8,18.83,13.84,12.24,7.0,4.02
Esher,51.36969,-0.36693,GB,52392,2649911,Esher,7.05,7.83,8.27,8.48,13.61,14.26,17.53,19.18,13.76,12.5,7.16,4.25
Epsom,51.3305,-0.27011,GB,31489,2649957,Epsom,7.03,7.79,8.24,8.33,13.52,14.14,17.49,19.14,13.63,12.45,7.01,4.1
Enfield Lock,51.67086,-0.02748,GB,16469,2649996,Enfield Lock,7.02,7.87,8.49,8.64,13.55,14.57,17.6,19.41,13.83,12.65,7.3,4.56
Enfield Town,51.65147,-0.08497,GB,156858,2649997,Enfield Town,6.98,7.81,8.42,8.55,13.49,14.49,17.57,19.31,13.76,12.59,7.24,4.48
Emsworth,50.84779,-0.93697,GB,18777,2650004,Emsworth,8.48,9.06,9.08,9.12,14.25,14.18,17.75,18.93,14.88,13.47,8.67,5.86
Ely,52.39964,0.26196,GB,19090,2650023,Ely,6.7,7.63,8.41,8.38,12.98,14.34,17.09,19.06,13.53,12.42,7.08,4.47
Eltham,51.45061,0.05225,GB,48964,2650042,Eltham,6.86,7.73,8.25,8.52,13.39,14.38,17.3,19.23,13.69,12.48,7.1,4.33
Ellesmere Port Town,53.27875,-2.90134,GB,61768,2650096,Ellesmere Port Town,7.27,7.76,8.84,8.22,12.96,13.71,16.69,17.45,12.78,12.08,6.96,4.79
Elland,53.6851,-1.83878,GB,15625,2650110,Elland,5.99,6.38,7.57,7.26,11.74,13.0,15.44,16.51,12.18,10.92,6.11,3.71
Elgin,57.64947,-3.31843,GB,25040,2650122,Elgin,5.86,5.53,7.18,6.89,10.04,11.85,13.74,14.74,11.42,10.27,6.72,4.9
Egham,51.43158,-0.55239,GB,29663,2650188,Egham,7.19,7.95,8.43,8.58,13.78,14.37,17.72,19.26,13.88,12.59,7.27,4.34
Edmonton,51.62561,-0.05798,GB,82000,2650209,Edmonton,7.14,7.99,8.57,8.79,13.71,14.66,17.69,19.48,13.94,12.75,7.4,4.62
Edinburgh,55.95206,-3.19648,GB,506520,2650225,Edinburgh,5.52,5.49,7.1,6.85,10.61,12.52,14.16,14.92,11.25,9.87,5.13,3.59
Eccles,53.48333,-2.33333,GB,37275,2650278,Eccles,6.19,6.64,7.78,7.54,12.24,13.18,15.75,16.5,12.23,11.29,6.04,3.55
Ebbw Vale,51.77714,-3.20792,GB,33068,2650285,Ebbw Vale,5.66,6.08,6.73,6.71,12.14,12.15,15.87,16.49,11.98,10.53,5.51,2.79
Eastwood,53.0,-1.3,GB,18612,2650309,Eastwood,6.35,7.01,8.06,7.88,12.59,13.73,16.67,18.11,13.24,11.77,6.65,3.84
Retford,53.32213,-0.94315,GB,22023,2650346,Retford,6.53,7.23,8.3,7.98,12.42,13.87,16.62,18.24,13.3,11.99,6.81,4.29
East Molesey,51.39872,-0.34916,GB,18565,2650376,East Molesey,7.21,7.99,8.44,8.65,13.75,14.45,17.69,19.38,13.91,12.68,7.31,4.43
Eastleigh,50.96667,-1.35,GB,54225,2650396,Eastleigh,7.59,8.26,8.54,8.65,14.14,14.1,17.72,19.0,14.25,12.77,7.6,4.56
East Kilbride,55.76412,-4.17669,GB,74740,2650405,East Kilbride,4.77,4.7,6.31,6.14,10.61,11.7,13.84,13.83,10.29,9.11,3.84,2.57
East Grinstead,51.12382,-0.0061,GB,26523,2650435,East Grinstead,6.83,7.56,7.79,8.03,13.1,13.63,16.92,18.7,13.48,12.23,6.83,3.96
East Dereham,52.68333,0.93333,GB,20651,2650470,East Dereham,6.46,7.42,8.3,8.13,12.56,14.19,16.59,18.89,13.32,12.34,7.19,4.7
Eastbourne,50.76871,0.28453,GB,118219,2650497,Eastbourne,8.51,8.98,8.82,9.11,13.28,14.06,16.71,18.63,15.2,13.85,9.1,6.23
Durham,54.77676,-1.57566,GB,47785,2650628,Durham,6.0,6.32,7.99,7.41,11.41,13.04,15.2,16.76,12.05,10.86,6.38,4.33
Dunstable,51.88571,-0.52288,GB,51973,2650657,Dunstable,6.32,7.06,7.73,7.71,12.74,13.66,16.98,18.45,13.04,11.84,6.56,3.71
Dunfermline,56.07156,-3.45887,GB,50380,2650732,Dunfermline,5.14,5.14,6.82,6.59,10.55,12.3,13.99,14.6,10.92,9.53,4.59,3.1
Dundee,56.46913,-2.97489,GB,148210,2650752,Dundee,4.87,4.87,6.82,6.74,10.26,12.35,13.85,14.97,11.15,9.41,4.92,2.97
Dumfries,55.06959,-3.61139,GB,46500,2650798,Dumfries,5.88,5.7,7.07,7.19,11.71,12.54,14.76,15.13,11.36,10.24,5.28,3.51
Dumbarton,55.94433,-4.57061,GB,19950,2650802,Dumbarton,5.37,5.3,7.06,6.99,11.51,12.66,14.48,14.39,11.15,9.76,4.57,3.52
Dukinfield,53.47497,-2.08809,GB,19306,2650815,Dukinfield,5.92,6.32,7.5,7.25,11.92,12.9,15.49,16.33,11.99,11.0,5.91,3.42
Dudley,52.5,-2.08333,GB,199059,2650839,Dudley,6.04,6.64,7.51,7.43,12.6,13.24,16.75,17.73,12.8,11.37,6.2,3.27
Droylsden,53.48005,-2.14543,GB,23689,2650962,Droylsden,6.12,6.52,7.7,7.45,12.12,13.1,15.69,16.53,12.19,11.2,6.11,3.62
Dronfield,53.30221,-1.47507,GB,21124,2650967,Dronfield,5.82,6.31,7.52,7.31,11.84,13.06,15.69,17.02,12.39,10.98,6.03,3.46
Droitwich,52.26667,-2.15,GB,23834,2650983,Droitwich,6.78,7.41,8.16,8.12,13.35,13.92,17.58,18.54,13.61,12.09,6.93,3.94
Dover,51.12598,1.31257,GB,41709,2651048,Dover,7.84,8.57,8.92,9.03,13.25,14.44,16.93,19.15,14.94,13.59,8.72,5.91
Dorking,51.23228,-0.3338,GB,17747,2651095,Dorking,7.29,8.01,8.37,8.46,13.65,14.18,17.56,19.19,13.86,12.67,7.27,4.34
Dorchester,50.71667,-2.43333,GB,16879,2651101,Dorchester,8.19,8.66,8.67,8.8,13.92,13.84,17.27,18.42,14.53,13.01,8.25,5.19
Doncaster,53.52285,-1.13116,GB,113566,2651123,Doncaster,6.42,7.05,8.22,7.82,12.23,13.73,16.36,17.86,13.02,11.69,6.54,4.15
Dinnington,53.36667,-1.2,GB,19860,2651241,Dinnington,5.87,6.47,7.66,7.3,11.75,13.18,15.84,17.32,12.54,11.12,6.04,3.57
Didcot,51.60928,-1.24214,GB,29341,2651269,Didcot,7.01,7.69,8.28,8.21,13.48,14.09,17.62,18.86,13.73,12.32,7.1,4.15
Dewsbury,53.69076,-1.62907,GB,56640,2651286,Dewsbury,6.28,6.76,7.95,7.59,11.98,13.4,15.82,17.06,12.62,11.22,6.37,4.04
Devizes,51.35084,-1.99421,GB,18064,2651294,Devizes,6.65,7.3,7.73,7.68,13.19,13.35,17.02,17.88,13.22,11.77,6.59,3.57
Derby,52.92277,-1.47663,GB,270468,2651347,Derby,6.36,6.99,7.97,7.89,12.66,13.71,16.69,18.03,13.18,11.75,6.63,3.79
Denton,53.45678,-2.11822,GB,27464,2651357,Denton,6.07,6.47,7.64,7.4,12.07,13.05,15.64,16.48,12.14,11.15,6.07,3.57
Deal,51.22316,1.4028,GB,30555,2651468,Deal,7.68,8.46,8.86,9.06,13.29,14.54,16.95,19.25,14.84,13.45,8.6,5.8
Daventry,52.25688,-1.16066,GB,23879,2651485,Daventry,6.11,6.81,7.55,7.5,12.61,13.39,16.81,18.11,12.97,11.53,6.34,3.41
Darwen,53.69803,-2.46494,GB,32566,2651495,Darwen,5.59,5.92,7.08,6.73,11.34,12.3,14.8,15.56,11.47,10.63,5.62,3.26
Darton,53.58705,-1.52676,GB,15259,2651497,Darton,6.19,6.7,7.89,7.53,11.95,13.36,15.89,17.19,12.62,11.18,6.22,3.87
Dartford,51.44657,0.21423,GB,56694,2651500,Dartford,7.4,8.23,8.74,8.87,13.78,14.71,17.7,19.66,14.12,12.96,7.57,4.79
Darlington,54.52429,-1.55039,GB,92363,2651513,Darlington,5.78,6.24,7.68,7.16,11.44,12.92,15.12,16.64,12.02,10.64,6.03,3.95
Dalserf,55.73333,-3.91667,GB,17985,2651558,Dalserf,5.58,5.51,7.13,6.97,11.45,12.6,14.7,14.76,11.09,9.97,4.73,3.32
Dagenham,51.55,0.16667,GB,108368,2651621,Dagenham,7.19,8.04,8.64,8.81,13.57,14.66,17.49,19.45,14.03,12.84,7.55,4.79
Cwmbran,51.65446,-3.02281,GB,48157,2651654,Cwmbran,7.15,7.71,8.1,8.24,13.78,13.81,17.54,18.11,13.7,12.06,7.01,4.1
Cumbernauld,55.94685,-3.99051,GB,51610,2651715,Cumbernauld,4.56,4.53,6.26,6.11,10.56,11.77,13.79,13.93,10.26,9.04,3.84,2.44
Croydon,51.38333,-0.1,GB,173314,2651817,Croydon,7.01,7.81,8.31,8.46,13.5,14.28,17.45,19.24,13.69,12.52,7.11,4.28
Crowthorne,51.37027,-0.79219,GB,25522,2651831,Crowthorne,6.73,7.47,7.97,8.06,13.33,13.86,17.27,18.74,13.43,12.09,6.8,3.83
Crowborough,51.06098,0.16342,GB,20607,2651852,Crowborough,6.33,7.1,7.46,7.63,12.66,13.33,16.52,18.41,12.99,11.79,6.36,3.53
Cricklewood,51.5567,-0.21549,GB,65000,2651984,Cricklewood,6.96,7.78,8.36,8.54,13.5,14.39,17.48,19.21,13.73,12.54,7.23,4.42
Crewe,53.09787,-2.44161,GB,75556,2652002,Crewe,6.25,6.79,7.78,7.53,12.42,13.31,16.26,17.18,12.54,11.48,6.17,3.52
Crawley,51.11303,-0.18312,GB,180508,2652053,Crawley,7.19,7.89,8.14,8.33,13.44,13.93,17.26,18.94,13.8,12.55,7.2,4.28
Cramlington,55.08652,-1.58598,GB,33180,2652095,Cramlington,5.79,6.0,7.61,7.1,10.66,12.65,14.49,16.11,11.73,10.44,6.45,4.38
Cowley,51.73213,-1.20631,GB,16500,2652191,Cowley,6.77,7.47,8.04,8.04,13.31,13.94,17.42,18.68,13.55,12.09,6.87,3.93
Cowes,50.76252,-1.29781,GB,21226,2652204,Cowes,8.27,8.75,8.8,9.0,14.12,14.17,17.58,18.87,14.88,13.39,8.55,5.53
Coventry,52.40656,-1.51217,GB,345324,2652221,Coventry,6.42,7.12,7.86,7.87,12.98,13.73,17.15,18.35,13.3,11.81,6.65,3.68
Coulsdon,51.32002,-0.14088,GB,25500,2652249,Coulsdon,6.98,7.75,8.23,8.27,13.4,14.09,17.38,19.14,13.57,12.44,6.97,4.12
Corby,52.49637,-0.68939,GB,56810,2652381,Corby,6.27,7.04,7.85,7.79,12.65,13.7,16.84,18.46,13.21,11.82,6.58,3.81
Consett,54.85404,-1.8316,GB,29137,2652437,Consett,4.76,4.91,6.58,6.03,10.32,11.66,13.88,15.12,10.59,9.52,4.92,2.79
Conisbrough,53.48188,-1.23214,GB,15934,2652458,Conisbrough,6.08,6.68,7.88,7.47,11.88,13.37,15.98,17.46,12.68,11.28,6.19,3.79
Congleton,53.16314,-2.21253,GB,26178,2652464,Congleton,6.16,6.65,7.74,7.49,12.38,13.2,16.08,16.96,12.35,11.41,6.08,3.44
Colwyn Bay,53.29483,-3.72674,GB,34284,2652513,Colwyn Bay,7.54,7.83,8.85,8.25,12.96,13.55,16.7,17.45,12.71,12.12,7.16,5.14
Colne,53.85713,-2.16851,GB,20118,2652544,Colne,5.08,5.46,6.59,6.4,11.06,12.06,14.32,15.2,11.03,9.97,5.15,2.79
Coleraine,55.13333,-6.66667,GB,25681,2652586,Coleraine,6.64,6.15,8.28,7.72,11.42,12.11,14.8,15.18,12.29,11.24,7.84,5.49
Colchester,51.88921,0.90421,GB,121859,2652618,Colchester,7.05,7.84,8.47,8.66,12.99,14.41,16.85,19.01,13.99,12.81,7.81,5.02
Coity,51.522,-3.55531,GB,41352,2652622,Coity,7.6,7.95,8.16,8.27,13.67,13.48,17.04,17.46,13.98,12.32,7.55,4.94
Cobham,51.32997,-0.4113,GB,16724,2652689,Cobham,7.33,8.09,8.53,8.62,13.84,14.43,17.81,19.42,13.94,12.74,7.31,4.37
Coatbridge,55.86216,-4.02469,GB,43970,2652696,Coatbridge,5.01,4.98,6.71,6.56,11.01,12.22,14.25,14.38,10.72,9.49,4.29,2.89
Coalville,52.72247,-1.3702,GB,38245,2652698,Coalville,5.94,6.6,7.49,7.32,12.18,13.2,16.41,17.71,12.76,11.38,6.16,3.24
Clydebank,55.90137,-4.4057,GB,26640,2652730,Clydebank,5.58,5.48,7.16,7.04,11.47,12.59,14.62,14.59,11.22,9.94,4.84,3.62
Clydach,51.68333,-3.9,GB,19307,2652734,Clydach,7.94,8.22,8.34,8.53,13.87,13.62,17.11,17.47,14.18,12.57,7.8,5.36
Clevedon,51.44227,-2.85786,GB,21002,2652861,Clevedon,7.68,8.29,8.61,8.53,14.04,13.9,17.9,18.24,13.86,12.44,7.36,4.62
Cleethorpes,53.56047,-0.03225,GB,32017,2652885,Cleethorpes,6.42,7.12,8.19,7.96,12.01,13.8,16.04,18.11,13.17,12.07,7.28,4.87
Cleckheaton,53.72405,-1.71294,GB,27393,2652890,Cleckheaton,5.94,6.37,7.55,7.24,11.67,13.02,15.44,16.58,12.22,10.86,6.05,3.68
Clacton-on-Sea,51.78967,1.15597,GB,50548,2652974,Clacton-on-Sea,7.21,7.92,8.44,8.7,12.76,14.38,16.62,18.83,14.27,13.04,8.3,5.43
Cirencester,51.71927,-1.97145,GB,17153,2652995,Cirencester,6.8,7.42,7.96,7.88,13.3,13.65,17.31,18.22,13.45,11.96,6.73,3.76
Christchurch,50.73583,-1.78129,GB,42396,2653075,Christchurch,8.4,8.82,8.88,9.02,14.05,14.08,17.47,18.73,14.94,13.41,8.68,5.67
Chorley,53.65,-2.61667,GB,33888,2653086,Chorley,6.19,6.51,7.64,7.28,11.84,12.79,15.37,16.14,12.08,11.24,6.19,3.85
Chiswick,51.49271,-0.25801,GB,34337,2653121,Chiswick,7.18,7.99,8.47,8.72,13.76,14.55,17.71,19.41,13.95,12.71,7.37,4.52
Chislehurst,51.41709,0.06858,GB,20000,2653123,Chislehurst,6.86,7.68,8.19,8.32,13.28,14.15,17.22,19.12,13.55,12.41,6.99,4.2
Chipping Sodbury,51.53813,-2.39379,GB,36108,2653137,Chipping Sodbury,6.93,7.56,7.94,7.93,13.5,13.6,17.34,17.98,13.47,11.98,6.76,3.7
Chippenham,51.46,-2.12472,GB,35800,2653144,Chippenham,7.14,7.76,8.2,8.18,13.68,13.85,17.49,18.34,13.74,12.24,7.08,4.08
Chingford,51.63033,0.00051,GB,66211,2653148,Chingford,6.83,7.7,8.28,8.53,13.43,14.43,17.39,19.25,13.66,12.47,7.09,4.34
Chichester,50.83673,-0.78003,GB,31654,2653192,Chichester,8.39,8.84,8.76,8.95,13.44,14.09,16.95,18.57,14.95,13.6,8.85,5.87
Chester-le-Street,54.85862,-1.57408,GB,36917,2653224,Chester-le-Street,6.18,6.51,8.19,7.65,11.58,13.29,15.35,16.93,12.23,10.99,6.63,4.57
Chesterfield,53.25,-1.41667,GB,113057,2653225,Chesterfield,6.2,6.73,7.93,7.7,12.22,13.51,16.17,17.58,12.87,11.38,6.41,3.85
Chester,53.1905,-2.89189,GB,90524,2653228,Chester,6.72,7.3,8.27,7.94,12.77,13.67,16.52,17.33,12.79,11.74,6.57,4.14
Chessington,51.3624,-0.30427,GB,19433,2653229,Chessington,7.01,7.79,8.24,8.45,13.55,14.25,17.49,19.18,13.71,12.48,7.11,4.23
Cheshunt,51.7002,-0.03026,GB,57374,2653232,Cheshunt,7.02,7.87,8.49,8.64,13.55,14.57,17.6,19.41,13.83,12.65,7.3,4.56
Chesham,51.7,-0.6,GB,20649,2653235,Chesham,6.4,7.13,7.78,7.75,12.84,13.63,16.98,18.43,13.08,11.88,6.62,3.73
Chepstow,51.64087,-2.67683,GB,16169,2653256,Chepstow,7.46,8.06,8.48,8.33,13.64,13.81,17.76,18.29,13.67,12.25,7.22,4.5
Cheltenham,51.90006,-2.07972,GB,116447,2653261,Cheltenham,7.0,7.63,8.2,8.11,13.47,13.91,17.63,18.5,13.72,12.19,6.95,3.99
Chelsea,51.48755,-0.16936,GB,60000,2653265,Chelsea,7.08,7.93,8.4,8.7,13.72,14.58,17.69,19.41,13.89,12.64,7.23,4.4
Chelmsford,51.73575,0.46958,GB,111511,2653266,Chelmsford,7.03,7.85,8.5,8.58,13.18,14.43,17.13,19.15,13.88,12.7,7.5,4.76
Cheadle Hulme,53.3761,-2.1897,GB,28952,2653290,Cheadle Hulme,6.09,6.55,7.65,7.48,12.26,13.16,15.79,16.59,12.18,11.19,5.98,3.4
Chatham,51.37891,0.52786,GB,75509,2653305,Chatham,7.31,8.15,8.65,8.83,13.53,14.6,17.38,19.51,14.14,12.9,7.68,4.9
Chapeltown,53.46506,-1.47217,GB,23056,2653353,Chapeltown,6.19,6.67,7.87,7.51,11.99,13.32,15.93,17.21,12.6,11.24,6.26,3.84
Chalfont Saint Peter,51.60885,-0.55618,GB,20059,2653393,Chalfont Saint Peter,6.99,7.73,8.33,8.39,13.49,14.22,17.53,19.03,13.71,12.45,7.21,4.32
Catford,51.44491,-0.02043,GB,44905,2653516,Catford,7.23,8.04,8.55,8.69,13.71,14.53,17.66,19.5,13.9,12.77,7.33,4.52
Caterham,51.2823,-0.07889,GB,20957,2653520,Caterham,6.58,7.35,7.83,7.87,13.0,13.69,16.98,18.74,13.17,12.04,6.57,3.72
Castlereagh,54.5735,-5.88472,GB,56679,2653558,Castlereagh,6.74,6.3,8.3,7.82,11.69,12.6,15.14,15.74,12.4,11.23,7.48,5.02
Castleford,53.72587,-1.36256,GB,60509,2653584,Castleford,6.49,7.05,8.26,7.8,12.09,13.62,16.15,17.54,12.93,11.49,6.57,4.27
Carterton,51.75905,-1.59435,GB,16364,2653634,Carterton,6.7,7.36,7.94,7.91,13.24,13.76,17.31,18.46,13.47,11.94,6.69,3.77
Carshalton,51.36829,-0.16755,GB,45525,2653646,Carshalton,7.07,7.87,8.35,8.53,13.61,14.35,17.55,19.29,13.77,12.58,7.17,4.32
Carrickfergus,54.7158,-5.8058,GB,29208,2653680,Carrickfergus,7.16,6.62,8.32,7.84,11.36,12.53,14.84,15.56,12.62,11.48,8.06,5.71
Carmarthen,51.85552,-4.30535,GB,15854,2653755,Carmarthen,7.84,8.1,8.28,8.4,13.63,13.51,17.01,17.37,13.79,12.41,7.5,5.18
Carlisle,54.8951,-2.9382,GB,78470,2653775,Carlisle,5.89,5.92,7.18,6.97,11.68,12.66,14.82,15.38,11.35,10.47,5.26,3.19
Cardiff,51.48,-3.18,GB,447287,2653822,Cardiff,7.53,7.95,8.23,8.38,13.91,13.75,17.38,17.8,14.06,12.33,7.42,4.69
Canterbury,51.27904,1.07992,GB,55240,2653877,Canterbury,7.52,8.34,8.82,8.97,13.46,14.62,17.2,19.48,14.59,13.24,8.23,5.44
Cannock,52.69045,-2.03085,GB,86121,2653883,Cannock,6.04,6.64,7.56,7.4,12.44,13.24,16.52,17.58,12.71,11.38,6.14,3.28
Cambuslang,55.80966,-4.16096,GB,27610,2653935,Cambuslang,5.32,5.25,6.86,6.68,11.16,12.25,14.39,14.38,10.84,9.66,4.39,3.12
Cambridge,52.2,0.11667,GB,145674,2653941,Cambridge,6.87,7.77,8.43,8.39,13.12,14.4,17.39,19.29,13.73,12.56,7.21,4.54
Camborne,50.21306,-5.29731,GB,22500,2653945,Camborne,8.83,9.29,8.85,8.76,13.81,13.58,17.03,17.56,14.81,12.78,8.89,6.58
Camberley,51.33705,-0.74261,GB,30155,2653947,Camberley,6.93,7.67,8.15,8.2,13.52,13.97,17.45,18.92,13.53,12.28,6.93,3.96
Calne,51.43879,-2.00571,GB,17274,2653974,Calne,7.0,7.65,8.08,8.02,13.54,13.7,17.37,18.22,13.57,12.12,6.94,3.92
Caerphilly,51.57452,-3.218,GB,31060,2654089,Caerphilly,7.18,7.64,8.0,8.18,13.83,13.6,17.32,17.74,13.7,12.0,7.01,4.22
Buxton,53.25741,-1.90982,GB,21300,2654141,Buxton,5.04,5.4,6.61,6.32,10.98,11.94,14.72,15.68,11.21,10.22,5.22,2.65
Bushey,51.64316,-0.36053,GB,17380,2654179,Bushey,6.68,7.45,8.02,8.15,13.17,13.97,17.17,18.79,13.41,12.19,6.94,4.09
Bury St Edmunds,52.2463,0.71111,GB,42812,2654186,Bury St Edmunds,6.63,7.52,8.32,8.21,12.79,14.22,16.94,19.04,13.34,12.36,7.0,4.36
Bury,53.6,-2.3,GB,61044,2654187,Bury,5.96,6.32,7.54,7.22,11.88,12.81,15.4,16.14,11.9,11.07,5.96,3.47
Burton upon Trent,52.80728,-1.64263,GB,122199,2654200,Burton upon Trent,6.45,7.09,8.03,7.92,12.77,13.77,16.87,18.14,13.25,11.84,6.66,3.79
Burntwood,52.68075,-1.92759,GB,29244,2654252,Burntwood,5.86,6.47,7.39,7.26,12.27,13.11,16.36,17.47,12.57,11.2,5.98,3.1
Burnley,53.8,-2.23333,GB,149422,2654264,Burnley,5.32,5.68,6.79,6.6,11.27,12.24,14.51,15.33,11.22,10.23,5.37,3.02
Burnham-on-Sea,51.23862,-2.9978,GB,23325,2654269,Burnham-on-Sea,7.93,8.51,8.61,8.6,14.06,14.07,17.77,18.12,14.29,12.78,7.75,4.77
Burgess Hill,50.95843,-0.13287,GB,30635,2654308,Burgess Hill,7.49,8.15,8.28,8.52,13.58,14.03,17.39,19.04,14.09,12.81,7.49,4.59
Buckley,53.16667,-3.08333,GB,63576,2654394,Buckley,6.07,6.59,7.61,7.27,12.13,12.9,15.84,16.6,12.06,11.04,5.96,3.59
Brymbo,53.06667,-3.06667,GB,18111,2654450,Brymbo,5.58,6.06,7.04,6.67,11.58,12.35,15.37,16.14,11.56,10.52,5.46,3.04
Broxburn,55.93415,-3.47133,GB,15360,2654480,Broxburn,5.22,5.25,6.86,6.71,10.84,12.46,14.19,14.61,10.98,9.61,4.58,3.09
Brownhills,52.63333,-1.93333,GB,20308,2654490,Brownhills,6.13,6.76,7.65,7.54,12.61,13.39,16.73,17.82,12.89,11.48,6.28,3.37
Brough,53.72861,-0.57215,GB,19904,2654532,Brough,6.42,7.17,8.33,7.93,12.15,13.81,16.17,18.1,13.1,11.97,6.91,4.54
Bromsgrove,52.33574,-2.05983,GB,49117,2654579,Bromsgrove,6.48,7.11,7.86,7.82,13.05,13.62,17.28,18.24,13.31,11.79,6.63,3.64
Broadstairs,51.35908,1.43938,GB,23283,2654635,Broadstairs,7.48,8.26,8.66,8.86,13.09,14.34,16.75,19.05,14.64,13.25,8.4,5.6
Brixham,50.39431,-3.51585,GB,16693,2654663,Brixham,8.97,9.3,8.93,9.07,13.45,13.9,16.63,17.83,14.86,13.29,9.14,6.45
Briton Ferry,51.63106,-3.81898,GB,35179,2654668,Briton Ferry,7.84,8.19,8.4,8.58,14.17,13.75,17.42,17.71,14.11,12.52,7.61,5.06
Bristol,51.45523,-2.59665,GB,465866,2654675,Bristol,7.36,7.97,8.3,8.37,14.01,13.98,17.74,18.28,13.98,12.35,7.2,4.19
Brighton,50.82838,-0.13947,GB,277103,2654710,Brighton,8.02,8.53,8.54,8.69,13.28,13.91,16.95,18.62,14.51,13.27,8.27,5.37
Brighouse,53.70322,-1.78428,GB,32872,2654715,Brighouse,6.0,6.42,7.6,7.29,11.72,13.07,15.48,16.64,12.27,10.91,6.1,3.73
Brierley Hill,52.48173,-2.12139,GB,28000,2654724,Brierley Hill,6.14,6.74,7.61,7.53,12.7,13.34,16.85,17.83,12.9,11.47,6.3,3.37
Bridlington,54.08306,-0.19192,GB,35154,2654728,Bridlington,6.52,6.94,8.02,7.71,11.19,13.12,14.97,16.95,12.96,11.79,7.92,5.59
Bridgwater,51.12837,-3.00356,GB,41276,2654730,Bridgwater,7.84,8.46,8.54,8.51,13.97,13.98,17.71,18.08,14.15,12.66,7.64,4.58
Bridgend,51.50583,-3.57722,GB,49597,2654755,Bridgend,7.9,8.25,8.46,8.57,13.97,13.78,17.34,17.76,14.28,12.62,7.85,5.24
Brentwood,51.62127,0.30556,GB,52586,2654782,Brentwood,6.59,7.44,8.04,8.19,12.89,14.04,16.8,18.8,13.43,12.24,6.98,4.22
Brent,51.55306,-0.3023,GB,329100,2654789,Brent,7.05,7.83,8.41,8.56,13.54,14.38,17.53,19.2,13.78,12.59,7.31,4.48
Bredbury,53.41667,-2.11667,GB,15126,2654814,Bredbury,6.15,6.58,7.72,7.48,12.23,13.17,15.82,16.7,12.26,11.27,6.13,3.58
Bramhall,53.35801,-2.16539,GB,25506,2654927,Bramhall,5.99,6.45,7.55,7.38,12.16,13.06,15.69,16.49,12.08,11.09,5.88,3.3
Braintree,51.87819,0.55292,GB,53477,2654938,Braintree,6.7,7.57,8.25,8.39,12.97,14.26,16.98,19.06,13.59,12.42,7.17,4.45
Bradford,53.79391,-1.75206,GB,366187,2654993,Bradford,5.92,6.32,7.53,7.2,11.64,12.94,15.32,16.41,12.1,10.8,6.05,3.7
Bracknell,51.41363,-0.75054,GB,76103,2655009,Bracknell,6.87,7.62,8.12,8.21,13.48,14.01,17.42,18.89,13.58,12.24,6.95,3.98
Bow,51.52609,-0.01665,GB,27720,2655076,Bow,7.09,7.99,8.47,8.79,13.75,14.7,17.71,19.56,13.93,12.72,7.26,4.49
Bournemouth,50.72048,-1.8795,GB,163600,2655095,Bournemouth,8.55,8.97,8.97,9.18,14.2,14.13,17.47,18.7,15.06,13.46,8.83,5.78
Boston,52.97633,-0.02664,GB,41340,2655138,Boston,6.62,7.44,8.35,8.36,12.58,14.22,16.54,18.71,13.55,12.33,7.26,4.73
Borehamwood,51.65468,-0.27762,GB,32176,2655186,Borehamwood,6.71,7.49,8.1,8.17,13.15,14.04,17.24,18.86,13.42,12.26,6.98,4.16
Bootle,53.46667,-3.01667,GB,57791,2655198,Bootle,7.28,7.48,8.38,8.11,12.44,13.51,15.97,16.79,13.24,12.14,7.41,5.28
Bonnyrigg,55.87329,-3.1051,GB,16360,2655210,Bonnyrigg,5.4,5.31,6.97,6.77,10.62,12.33,14.23,14.88,11.1,9.84,5.28,3.58
Bolton,53.58333,-2.43333,GB,141331,2655237,Bolton,5.92,6.26,7.47,7.11,11.75,12.69,15.28,16.02,11.84,11.02,5.93,3.47
Bognor Regis,50.78206,-0.67978,GB,63885,2655262,Bognor Regis,7.87,8.6,8.74,8.66,13.64,13.96,17.44,18.87,14.04,12.94,7.83,5.04
Blyth,55.12708,-1.50856,GB,37339,2655315,Blyth,6.42,6.72,8.35,7.87,11.49,13.51,15.43,17.12,12.51,11.18,7.17,5.11
Bloxwich,52.61806,-2.00431,GB,40000,2655329,Bloxwich,6.06,6.66,7.57,7.43,12.51,13.25,16.64,17.67,12.77,11.4,6.2,3.3
Bletchley,51.99334,-0.73471,GB,50193,2655351,Bletchley,6.68,7.43,8.09,8.09,13.17,14.01,17.37,18.8,13.48,12.16,6.91,4.05
Blackwall,51.50971,-0.0016,GB,19461,2655438,Blackwall,7.09,7.99,8.47,8.79,13.75,14.7,17.71,19.56,13.93,12.72,7.26,4.49
Blackpool,53.81667,-3.05,GB,145007,2655459,Blackpool,7.21,7.24,7.96,7.83,12.09,13.25,15.5,16.29,13.0,11.9,7.3,5.34
Blackburn,53.75,-2.48333,GB,146521,2655524,Blackburn,5.78,6.12,7.24,6.91,11.53,12.53,14.88,15.64,11.63,10.74,5.74,3.44
Bishopstoke,50.96643,-1.32832,GB,17667,2655557,Bishopstoke,7.65,8.32,8.62,8.72,14.23,14.19,17.78,19.13,14.31,12.83,7.65,4.62
Bishops Stortford,51.87113,0.15868,GB,37838,2655562,Bishops Stortford,6.65,7.52,8.23,8.26,13.06,14.24,17.26,19.13,13.48,12.33,6.95,4.25
Bishopbriggs,55.90669,-4.21869,GB,23430,2655582,Bishopbriggs,5.07,5.05,6.78,6.62,11.11,12.26,14.28,14.34,10.78,9.53,4.29,3.02
Bishop Auckland,54.65554,-1.67706,GB,26050,2655583,Bishop Auckland,5.52,5.83,7.42,6.85,11.01,12.52,14.7,16.18,11.55,10.32,5.76,3.69
Birmingham,52.48142,-1.89983,GB,1144919,2655603,Birmingham,6.16,6.77,7.67,7.55,12.69,13.37,16.86,17.89,12.92,11.52,6.32,3.39
Birkenhead,53.39337,-3.01479,GB,325264,2655613,Birkenhead,7.09,7.4,8.34,8.06,12.6,13.56,16.2,17.01,13.05,11.96,7.1,4.92
Bingley,53.84861,-1.83857,GB,20327,2655642,Bingley,6.0,6.42,7.6,7.29,11.72,13.07,15.48,16.64,12.27,10.91,6.1,3.73
Billingham,54.58881,-1.29034,GB,35708,2655664,Billingham,6.33,6.79,8.24,7.67,11.6,13.37,15.44,17.2,12.54,11.24,6.87,4.83
Billericay,51.62867,0.41963,GB,36338,2655672,Billericay,6.86,7.69,8.27,8.42,13.03,14.24,16.92,18.95,13.73,12.51,7.32,4.55
Biggleswade,52.08652,-0.26493,GB,16551,2655689,Biggleswade,6.84,7.68,8.31,8.32,13.2,14.32,17.52,19.19,13.69,12.44,7.12,4.36
Bideford,51.01678,-4.20832,GB,28672,2655707,Bideford,8.25,8.74,8.75,8.54,13.68,13.65,17.12,17.53,14.41,12.83,8.6,5.87
Biddulph,53.11724,-2.17584,GB,17669,2655708,Biddulph,5.7,6.19,7.24,7.01,11.91,12.74,15.7,16.66,11.99,10.98,5.67,2.98
Bicester,51.89998,-1.15357,GB,33846,2655729,Bicester,6.75,7.43,8.05,8.02,13.23,13.92,17.39,18.65,13.53,12.1,6.88,3.95
Bexley,51.44162,0.14866,GB,228000,2655775,Bexley,7.31,8.13,8.64,8.77,13.73,14.6,17.67,19.57,14.0,12.85,7.44,4.65
Bexhill-on-Sea,50.85023,0.47095,GB,40478,2655777,Bexhill-on-Sea,8.0,8.61,8.64,8.86,13.39,14.13,17.03,19.0,14.74,13.42,8.37,5.55
Beverley,53.84587,-0.42332,GB,30587,2655785,Beverley,6.44,7.13,8.26,7.9,11.88,13.66,15.75,17.85,13.09,11.99,7.28,4.9
Berkhamsted,51.7604,-0.56528,GB,21997,2655858,Berkhamsted,6.61,7.33,8.01,7.95,13.05,13.86,17.24,18.66,13.3,12.09,6.83,3.95
Bentley,53.53333,-1.15,GB,34821,2655882,Bentley,6.46,7.1,8.28,7.87,12.28,13.79,16.41,17.91,13.08,11.74,6.59,4.2
Belper,53.0233,-1.48119,GB,23417,2655942,Belper,6.25,6.86,7.91,7.78,12.5,13.59,16.5,17.86,13.04,11.62,6.52,3.73
Bellshill,55.81667,-4.01667,GB,20650,2655952,Bellshill,5.33,5.26,6.88,6.72,11.2,12.35,14.46,14.51,10.84,9.72,4.48,3.07
Belfast,54.59682,-5.92541,GB,345418,2655984,Belfast,6.89,6.45,8.45,7.97,11.84,12.75,15.29,15.88,12.55,11.38,7.63,5.17
Bedworth,52.4791,-1.46909,GB,29981,2656031,Bedworth,6.24,6.93,7.71,7.67,12.72,13.55,16.92,18.15,13.12,11.66,6.45,3.51
Bedlington,55.13061,-1.59319,GB,16974,2656039,Bedlington,5.94,6.15,7.75,7.25,10.81,12.8,14.64,16.26,11.88,10.59,6.6,4.53
Bedford,52.13459,-0.46632,GB,106940,2656046,Bedford,6.87,7.69,8.34,8.35,13.31,14.35,17.62,19.16,13.74,12.43,7.13,4.32
Beckenham,51.40878,-0.02526,GB,82000,2656065,Beckenham,7.13,7.94,8.45,8.59,13.61,14.43,17.56,19.4,13.8,12.67,7.23,4.42
Bebington,53.35,-3.01667,GB,15768,2656070,Bebington,6.94,7.25,8.19,7.91,12.45,13.41,16.06,16.85,12.9,11.81,6.95,4.76
Bearsden,55.91536,-4.33279,GB,27340,2656086,Bearsden,5.24,5.18,6.89,6.75,11.2,12.34,14.37,14.39,10.92,9.66,4.48,3.24
Batley,53.70291,-1.6337,GB,50807,2656168,Batley,6.13,6.61,7.8,7.44,11.83,13.25,15.67,16.91,12.47,11.07,6.22,3.89
Bathgate,55.90204,-3.64398,GB,21070,2656169,Bathgate,4.98,4.91,6.59,6.41,10.7,12.06,14.06,14.39,10.63,9.43,4.46,2.84
Bath,51.3751,-2.36172,GB,101557,2656173,Bath,7.19,7.82,8.17,8.12,13.66,13.73,17.46,18.07,13.64,12.23,7.04,3.99
Basingstoke,51.26249,-1.08708,GB,107642,2656192,Basingstoke,6.92,7.61,8.13,8.1,13.39,13.77,17.31,18.67,13.56,12.2,6.97,3.96
Basildon,51.56844,0.45782,GB,144859,2656194,Basildon,7.21,8.02,8.58,8.74,13.24,14.51,17.08,19.17,14.1,12.87,7.78,4.99
Basford,52.96667,-1.18333,GB,16000,2656196,Basford,6.49,7.16,8.2,8.01,12.71,13.86,16.79,18.28,13.37,11.93,6.78,3.99
Barry,51.39979,-3.2838,GB,54673,2656235,Barry,7.55,7.95,8.16,8.26,13.63,13.61,17.1,17.58,14.05,12.35,7.53,4.82
Barrow in Furness,54.11094,-3.22758,GB,45865,2656241,Barrow in Furness,6.96,6.76,7.56,7.7,12.03,13.07,15.35,16.0,12.71,11.59,6.97,5.17
Barrhead,55.79916,-4.39285,GB,17620,2656258,Barrhead,5.67,5.49,7.12,6.93,11.34,12.39,14.59,14.53,11.13,9.95,4.84,3.59
Barnstaple,51.08022,-4.05808,GB,31616,2656281,Barnstaple,8.58,8.98,9.01,8.8,13.74,13.88,17.21,17.73,14.79,13.17,8.97,6.33
Barnsley,53.55,-1.48333,GB,71447,2656284,Barnsley,5.94,6.45,7.64,7.27,11.7,13.12,15.64,16.94,12.37,10.93,5.97,3.62
Barnet,51.65,-0.2,GB,30000,2656295,Barnet,6.46,7.28,7.86,8.05,13.0,13.89,16.98,18.71,13.23,12.04,6.73,3.92
Barnes,51.47352,-0.24839,GB,21218,2656296,Barnes,7.08,7.93,8.4,8.7,13.72,14.58,17.69,19.41,13.89,12.64,7.23,4.4
Barking,51.53333,0.08333,GB,61000,2656333,Barking,7.16,8.03,8.55,8.82,13.69,14.68,17.6,19.53,13.99,12.78,7.4,4.63
Banstead,51.32233,-0.20685,GB,46280,2656379,Banstead,6.46,7.22,7.68,7.74,12.9,13.55,16.87,18.58,13.05,11.9,6.45,3.57
Bangor,54.66079,-5.66802,GB,61011,2656396,Bangor,7.09,6.54,8.2,7.73,11.22,12.41,14.71,15.44,12.52,11.38,7.98,5.66
Bangor,53.22752,-4.12936,GB,18322,2656397,Bangor,7.77,7.8,8.59,8.16,12.65,13.15,16.56,16.93,12.73,12.08,7.36,5.54
Banbury,52.0632,-1.34222,GB,48651,2656406,Banbury,6.57,7.22,7.94,7.83,12.99,13.72,17.23,18.44,13.33,11.93,6.72,3.79
Banbridge,54.35,-6.28333,GB,16173,2656407,Banbridge,5.91,5.54,7.82,7.33,11.79,12.24,15.17,15.45,11.72,10.46,6.11,3.67
Ballymena,54.86357,-6.27628,GB,28932,2656490,Ballymena,5.96,5.61,8.08,7.6,11.76,12.32,15.11,15.47,11.89,10.71,6.8,4.27
Baildon,53.84711,-1.78785,GB,15710,2656627,Baildon,5.67,6.07,7.27,6.95,11.38,12.69,15.07,16.17,11.86,10.55,5.8,3.45
Ayr,55.46273,-4.63393,GB,46260,2656708,Ayr,6.34,5.89,7.14,7.04,11.16,12.2,14.6,14.52,11.62,10.57,6.15,4.69
Aylesbury,51.81665,-0.81458,GB,74748,2656719,Aylesbury,6.67,7.4,8.05,8.01,13.21,13.93,17.38,18.74,13.42,12.12,6.86,3.94
Atherton,53.52371,-2.49354,GB,20149,2656847,Atherton,6.22,6.61,7.75,7.43,12.06,13.0,15.61,16.38,12.2,11.31,6.16,3.74
Aston,52.5,-1.88333,GB,32286,2656867,Aston,6.36,6.97,7.87,7.75,12.89,13.57,17.06,18.09,13.12,11.72,6.52,3.59
Ashton-under-Lyne,53.48876,-2.0989,GB,43675,2656915,Ashton-under-Lyne,6.02,6.42,7.6,7.35,12.02,13.0,15.59,16.43,12.09,11.1,6.01,3.52
Ashton in Makerfield,53.48333,-2.65,GB,29039,2656918,Ashton in Makerfield,6.39,6.77,7.88,7.54,12.13,13.06,15.69,16.48,12.35,11.46,6.35,3.98
Ashington,55.17719,-1.56412,GB,27670,2656946,Ashington,6.15,6.28,7.82,7.32,10.65,12.8,14.54,16.16,11.99,10.72,6.96,4.88
Ashford,51.43173,-0.45761,GB,27382,2656954,Ashford,7.2,7.97,8.42,8.62,13.77,14.39,17.69,19.29,13.91,12.63,7.31,4.38
Ashford,51.14648,0.87376,GB,62787,2656955,Ashford,7.43,8.22,8.51,8.71,13.4,14.3,17.13,19.31,14.4,13.06,7.87,5.09
Ascot,51.41082,-0.6748,GB,17899,2656992,Ascot,6.75,7.5,7.99,8.11,13.35,13.91,17.31,18.81,13.45,12.14,6.82,3.87
Arnold,53.0,-1.13333,GB,37873,2657030,Arnold,6.24,6.95,7.94,7.75,12.43,13.63,16.53,18.08,13.12,11.71,6.51,3.75
Arbroath,56.56317,-2.58736,GB,23640,2657215,Arbroath,5.84,5.74,7.27,7.17,9.99,12.37,13.75,15.15,11.76,10.22,6.47,4.47
Antrim,54.7175,-6.211,GB,19661,2657255,Antrim,6.11,5.79,8.14,7.74,12.01,12.58,15.33,15.72,12.06,10.82,6.79,4.21
Andover,51.21135,-1.49393,GB,42276,2657324,Andover,7.19,7.87,8.29,8.25,13.67,13.83,17.5,18.66,13.8,12.39,7.2,4.15
Ampthill,52.02694,-0.49567,GB,20026,2657337,Ampthill,6.57,7.36,8.02,8.04,13.05,13.99,17.3,18.8,13.39,12.12,6.83,4.0
Ammanford,51.79279,-3.98833,GB,23709,2657345,Ammanford,7.89,8.12,8.28,8.38,13.53,13.41,16.86,17.27,13.98,12.51,7.75,5.42
Amersham,51.66667,-0.61667,GB,21731,2657356,Amersham,6.8,7.53,8.18,8.15,13.24,14.03,17.38,18.83,13.48,12.28,7.02,4.13
Altrincham,53.38752,-2.34848,GB,41548,2657402,Altrincham,6.16,6.62,7.72,7.51,12.3,13.19,15.82,16.61,12.22,11.26,6.01,3.46
Alton,51.14931,-0.97469,GB,16584,2657408,Alton,7.2,7.82,8.26,8.17,13.54,13.75,17.32,18.71,13.75,12.42,7.2,4.2
Alloa,56.11586,-3.78997,GB,20390,2657471,Alloa,5.38,5.41,7.17,7.0,11.22,12.83,14.53,14.91,11.26,9.84,4.72,3.23
Alfreton,53.09766,-1.38376,GB,22550,2657508,Alfreton,5.92,6.49,7.63,7.39,12.03,13.19,16.06,17.44,12.64,11.24,6.21,3.48
Aldridge,52.60549,-1.91715,GB,16008,2657528,Aldridge,5.99,6.61,7.5,7.39,12.46,13.23,16.59,17.67,12.74,11.34,6.13,3.22
Aldershot,51.24827,-0.76389,GB,61339,2657540,Aldershot,7.04,7.72,8.17,8.17,13.51,13.87,17.37,18.82,13.62,12.33,7.04,4.05
Airdrie,55.86602,-3.98025,GB,37130,2657613,Airdrie,4.71,4.68,6.41,6.26,10.71,11.92,13.95,14.08,10.42,9.19,3.99,2.59
Adwick le Street,53.57077,-1.18454,GB,19481,2657658,Adwick le Street,6.41,7.02,8.22,7.76,12.11,13.64,16.21,17.71,12.94,11.57,6.51,4.17
Acton,51.50901,-0.2762,GB,53689,2657697,Acton,7.03,7.84,8.32,8.58,13.61,14.41,17.56,19.26,13.8,12.56,7.22,4.37
Acocks Green,52.45,-1.81667,GB,26635,2657703,Acocks Green,6.25,6.88,7.77,7.66,12.78,13.49,16.95,18.02,13.04,11.62,6.43,3.48
Accrington,53.75379,-2.35863,GB,35318,2657770,Accrington,5.54,5.9,7.06,6.74,11.39,12.38,14.74,15.52,11.43,10.54,5.54,3.19
Abingdon,51.67109,-1.28278,GB,38676,2657780,Abingdon,6.94,7.62,8.17,8.19,13.47,14.04,17.53,18.77,13.71,12.22,7.02,4.09
Aberystwyth,52.41548,-4.08292,GB,18749,2657782,Aberystwyth,7.45,7.76,8.28,8.15,13.42,13.36,16.94,17.1,13.19,12.17,7.08,4.79
Abergele,53.28436,-3.5822,GB,17769,2657812,Abergele,7.23,7.48,8.39,8.05,12.68,13.45,16.37,17.11,12.82,11.92,7.09,4.91
Aberdeen,57.14369,-2.09814,GB,198590,2657832,Aberdeen,6.11,5.87,7.28,7.08,9.46,11.74,13.25,14.54,11.6,10.43,7.09,5.21
Aberdare,51.71438,-3.44918,GB,31135,2657835,Aberdare,6.94,7.36,7.74,7.91,13.54,13.29,17.01,17.41,13.4,11.74,6.77,3.99
Crosby,53.47778,-3.03333,GB,52140,3209584,Crosby,7.28,7.48,8.38,8.11,12.44,13.51,15.97,16.79,13.24,12.14,7.41,5.28
Tonypandy,51.62202,-3.45544,GB,62545,3345283,Tonypandy,7.06,7.44,7.8,7.93,13.51,13.23,16.94,17.31,13.39,11.83,6.87,4.15
Blackwood,51.66778,-3.2075,GB,15476,3345317,Blackwood,6.33,6.79,7.29,7.38,12.88,12.81,16.53,17.05,12.73,11.19,6.19,3.39
Neston,51.41222,-2.20056,GB,15352,3345432,Neston,6.8,7.45,7.79,7.79,13.32,13.43,17.08,17.83,13.33,11.88,6.7,3.66
Camden Town,51.54057,-0.14334,GB,26122,3345437,Camden Town,6.91,7.79,8.26,8.58,13.58,14.49,17.55,19.32,13.74,12.51,7.05,4.26
Telford,52.67659,-2.44926,GB,155570,3345439,Telford,5.83,6.43,7.28,7.12,12.26,12.99,16.36,17.29,12.39,11.08,5.78,2.95
Craigavon,54.44709,-6.387,GB,59236,3345440,Craigavon,6.22,5.85,8.16,7.68,12.17,12.59,15.54,15.78,12.03,10.78,6.38,3.93
Bayswater,51.51116,-0.18426,GB,17500,6545243,Bayswater,6.93,7.78,8.25,8.55,13.57,14.43,17.54,19.26,13.74,12.5,7.07,4.26
Yateley,51.34305,-0.82985,GB,20214,6620293,Yateley,7.09,7.81,8.3,8.33,13.68,14.11,17.61,19.05,13.71,12.41,7.09,4.11
Bowthorpe,52.63884,1.21885,GB,20000,6620355,Bowthorpe,6.6,7.54,8.35,8.26,12.51,14.25,16.55,18.91,13.48,12.49,7.42,4.85
Hedge End,50.91234,-1.30076,GB,17978,6620360,Hedge End,7.78,8.37,8.54,8.71,14.03,14.05,17.53,18.88,14.44,12.96,7.92,4.9
Gerrards Cross,51.5861,-0.55543,GB,20633,6620444,Gerrards Cross,6.79,7.53,8.13,8.19,13.29,14.02,17.33,18.83,13.51,12.25,7.01,4.12
Erskine,55.9005,-4.45028,GB,15530,6639623,Erskine,5.56,5.4,7.08,6.97,11.35,12.46,14.52,14.46,11.17,9.89,4.85,3.69
Hale,53.37831,-2.33271,GB,15315,6640028,Hale,6.16,6.62,7.72,7.51,12.3,13.19,15.82,16.61,12.22,11.26,6.01,3.46
Kilburn,51.55295,-0.19157,GB,29027,6690572,Kilburn,6.81,7.63,8.21,8.4,13.35,14.24,17.33,19.06,13.58,12.39,7.08,4.27
Chalk Farm,51.54313,-0.14987,GB,24977,6690583,Chalk Farm,6.91,7.79,8.26,8.58,13.58,14.49,17.55,19.32,13.74,12.51,7.05,4.26
Amersham on the Hill,51.67468,-0.60742,GB,17719,6690592,Amersham on the Hill,6.4,7.13,7.78,7.75,12.84,13.63,16.98,18.43,13.08,11.88,6.62,3.73
Shadwell,51.51135,-0.05663,GB,15110,6690595,Shadwell,7.06,7.94,8.41,8.73,13.73,14.64,17.7,19.47,13.89,12.66,7.2,4.41
Battersea,51.47475,-0.15547,GB,75651,6690602,Battersea,7.08,7.93,8.4,8.7,13.72,14.58,17.69,19.41,13.89,12.64,7.23,4.4
Tooting,51.42524,-0.16394,GB,16239,6690824,Tooting,7.17,7.97,8.45,8.63,13.71,14.45,17.65,19.39,13.87,12.68,7.27,4.42
South Croydon,51.36217,-0.09421,GB,55198,6690862,South Croydon,7.01,7.81,8.31,8.46,13.5,14.28,17.45,19.24,13.69,12.52,7.11,4.28
Hornchurch,51.55685,0.21664,GB,25470,6690863,Hornchurch,7.09,7.94,8.54,8.71,13.47,14.56,17.39,19.35,13.93,12.74,7.45,4.69
Surbiton,51.39148,-0.29825,GB,38158,6690866,Surbiton,7.05,7.85,8.29,8.5,13.6,14.3,17.54,19.23,13.76,12.53,7.16,4.28
Ewell,51.34948,-0.2494,GB,39994,6690867,Ewell,7.26,8.02,8.48,8.54,13.7,14.35,17.67,19.38,13.85,12.7,7.25,4.37
Becontree,51.5529,0.129,GB,100000,6690870,Becontree,7.18,8.03,8.62,8.83,13.65,14.7,17.58,19.5,14.01,12.82,7.49,4.74
Brixton,51.46593,-0.10652,GB,66300,6690877,Brixton,7.06,7.94,8.41,8.73,13.73,14.64,17.7,19.47,13.89,12.66,7.2,4.41
Bethnal Green,51.52718,-0.06109,GB,17590,6690989,Bethnal Green,7.01,7.89,8.36,8.68,13.68,14.59,17.65,19.42,13.84,12.61,7.15,4.36
Failsworth,53.50484,-2.16568,GB,20555,6691219,Failsworth,5.89,6.33,7.48,7.26,11.97,12.92,15.48,16.25,11.95,10.97,5.77,3.26
Radcliffe,53.56178,-2.32455,GB,34239,6691227,Radcliffe,6.06,6.42,7.64,7.32,11.98,12.91,15.5,16.24,12.0,11.17,6.06,3.57
Heywood,53.59245,-2.21941,GB,28024,6691235,Heywood,5.81,6.19,7.4,7.1,11.77,12.72,15.29,16.05,11.78,10.91,5.82,3.32
Longsight,53.45801,-2.20104,GB,16007,6691766,Longsight,6.14,6.58,7.72,7.51,12.22,13.17,15.73,16.5,12.2,11.22,6.02,3.51
Heavitree,50.72044,-3.49646,GB,22000,6691884,Heavitree,7.99,8.54,8.45,8.64,13.91,13.88,17.21,17.94,14.19,12.56,7.99,4.88
Ferndown,50.80743,-1.89975,GB,17650,6691927,Ferndown,8.23,8.69,8.76,8.9,14.03,13.99,17.4,18.62,14.76,13.2,8.44,5.39
Canary Wharf,51.50519,-0.02085,GB,73390,6692280,Canary Wharf,6.99,7.89,8.37,8.69,13.65,14.6,17.61,19.46,13.83,12.62,7.16,4.39
Leytonstone,51.56856,0.00768,GB,54696,6692921,Leytonstone,7.08,7.95,8.53,8.78,13.68,14.68,17.65,19.5,13.91,12.72,7.34,4.59
Earl Shilton,52.57682,-1.31536,GB,19578,6693007,Earl Shilton,6.25,6.94,7.76,7.66,12.59,13.56,16.81,18.14,13.12,11.7,6.49,3.56
Bordon,51.11357,-0.86245,GB,20978,6693242,Bordon,7.24,7.87,8.3,8.24,13.59,13.84,17.38,18.81,13.79,12.48,7.24,4.24
Lytham St Annes,53.7426,-2.997,GB,41327,6693470,Lytham St Annes,7.34,7.51,8.35,8.13,12.43,13.53,15.93,16.74,13.26,12.16,7.47,5.39
Hadley Wood,51.66669,-0.16981,GB,21639,6693771,Hadley Wood,6.59,7.39,8.0,8.11,13.08,14.04,17.17,18.85,13.34,12.17,6.85,4.06
Muswell Hill,51.59054,-0.14212,GB,27992,6694222,Muswell Hill,6.54,7.39,7.97,8.19,13.11,14.06,17.09,18.88,13.34,12.15,6.8,4.02
Chapel Allerton,53.82901,-1.53834,GB,18206,6695247,Chapel Allerton,5.83,6.36,7.57,7.12,11.39,12.9,15.35,16.68,12.18,10.78,5.96,3.69
Blackheath,51.4647,0.0079,GB,25116,6947041,Blackheath,6.94,7.83,8.32,8.65,13.61,14.55,17.56,19.41,13.78,12.57,7.11,4.34
Kempston Hardwick,52.08956,-0.49908,GB,20000,6947168,Kempston Hardwick,6.82,7.64,8.28,8.3,13.26,14.3,17.57,19.11,13.68,12.39,7.08,4.26
Mendip,51.2372,-2.6266,GB,110000,6947756,Mendip,5.99,6.57,6.91,6.74,12.22,12.25,16.03,16.51,12.26,10.96,5.82,2.8
Lower Earley,51.42708,-0.91979,GB,32000,7290015,Lower Earley,7.09,7.82,8.32,8.39,13.65,14.15,17.57,19.02,13.79,12.43,7.18,4.21
Bartley Green,52.43532,-1.99707,GB,25473,7302130,Bartley Green,5.93,6.51,7.4,7.26,12.45,13.04,16.64,17.62,12.67,11.27,6.12,3.17
Golders Green,51.57631,-0.20033,GB,18818,7535506,Golders Green,6.86,7.68,8.26,8.45,13.4,14.29,17.38,19.11,13.63,12.44,7.13,4.32
Canvey Island,51.52199,0.5809,GB,38170,7911271,Canvey Island,7.45,8.27,8.76,9.05,13.58,14.79,17.33,19.46,14.48,13.11,8.11,5.29
Earlsfield,51.4439,-0.1854,GB,15562,8063096,Earlsfield,7.22,8.02,8.5,8.68,13.76,14.5,17.7,19.44,13.92,12.73,7.32,4.47
Peacehaven,50.7927,-0.00652,GB,18579,8128721,Peacehaven,8.42,8.88,8.68,8.91,13.04,13.85,16.52,18.37,14.98,13.72,8.96,6.09
Letchworth Garden City,51.97938,-0.22664,GB,43529,8224216,Letchworth Garden City,6.61,7.43,8.09,8.07,12.94,14.05,17.25,18.92,13.39,12.22,6.89,4.13
Peckham,51.47403,-0.06969,GB,71552,8224580,Peckham,7.06,7.94,8.41,8.73,13.73,14.64,17.7,19.47,13.89,12.66,7.2,4.41
Shirley,52.41074,-1.81952,GB,32000,8224782,Shirley,6.18,6.8,7.67,7.54,12.7,13.34,16.88,17.94,12.97,11.54,6.37,3.4
Stanley,54.86796,-1.69846,GB,21938,8224783,Stanley,4.83,5.12,6.81,6.26,10.29,11.9,13.98,15.46,10.81,9.61,5.18,3.13
Rossendale,53.68456,-2.2769,GB,67400,8299614,Rossendale,4.14,4.48,5.74,5.41,10.07,11.02,13.6,14.38,10.09,9.26,4.23,1.76
Thornton-Cleveleys,53.87389,-3.02244,GB,31157,8299615,Thornton-Cleveleys,7.16,7.16,7.89,7.82,12.11,13.24,15.49,16.26,12.97,11.86,7.29,5.34
Deeside,53.20053,-3.03841,GB,32000,8299616,Deeside,6.89,7.43,8.41,8.06,12.9,13.75,16.63,17.42,12.89,11.86,6.74,4.36
High Peak,53.36797,-1.84536,GB,92666,8299617,High Peak,5.12,5.47,6.72,6.38,10.95,12.02,14.78,15.78,11.31,10.28,5.32,2.8
Hayling Island,50.7838,-0.96869,GB,16887,8299619,Hayling Island,8.53,9.1,9.13,9.17,14.3,14.23,17.8,18.98,14.93,13.52,8.72,5.91
Isle of Lewis,58.21901,-6.38803,GB,18500,8299620,Isle of Lewis,5.82,5.2,6.89,6.82,10.53,11.85,13.94,13.58,10.97,9.89,6.59,5.25
Holloway,51.55237,-0.12497,GB,41329,8315400,Holloway,6.94,7.79,8.37,8.59,13.51,14.46,17.49,19.28,13.74,12.55,7.2,4.42
Harringay,51.5824,-0.09956,GB,16500,8581595,Harringay,7.09,7.94,8.52,8.73,13.66,14.61,17.64,19.43,13.89,12.7,7.35,4.57
Canning Town,51.51363,0.01948,GB,30806,11549407,Canning Town,7.14,8.03,8.52,8.85,13.81,14.75,17.76,19.61,13.98,12.77,7.31,4.54
Manor Park,51.54932,0.04867,GB,15318,11550772,Manor Park,7.09,7.99,8.47,8.79,13.75,14.7,17.71,19.56,13.93,12.72,7.26,4.49
Thamesmead,51.50372,0.11982,GB,31824,11551039,Thamesmead,7.21,8.08,8.6,8.87,13.74,14.73,17.65,19.58,14.04,12.83,7.45,4.68
Brockley,51.46369,-0.03652,GB,17156,11551040,Brockley,6.99,7.89,8.37,8.69,13.65,14.6,17.61,19.46,13.83,12.62,7.16,4.39
Blantyre,55.79634,-4.09485,GB,17090,11592111,Blantyre,5.37,5.29,6.92,6.75,11.22,12.34,14.46,14.48,10.89,9.73,4.47,3.13
Vale of Leven,55.97132,-4.57928,GB,24640,11592272,Vale of Leven,5.37,5.3,7.06,6.99,11.51,12.66,14.48,14.39,11.15,9.76,4.57,3.52
Viewpark,55.82737,-4.0573,GB,16020,11592296,Viewpark,5.37,5.29,6.92,6.75,11.22,12.34,14.46,14.48,10.89,9.73,4.47,3.13
Stamford Hill,51.56872,-0.07334,GB,68050,11669854,Stamford Hill,6.99,7.84,8.42,8.63,13.56,14.51,17.54,19.33,13.79,12.6,7.25,4.47
Burngreave,53.39302,-1.45789,GB,27481,11776857,Burngreave,6.29,6.82,8.04,7.67,12.13,13.54,16.14,17.52,12.82,11.35,6.35,3.94
Archway,51.56733,-0.13415,GB,215667,11777624,Archway,6.79,7.64,8.22,8.43,13.36,14.31,17.34,19.13,13.59,12.4,7.05,4.27
Sinfin,52.88157,-1.48681,GB,15128,11863036,Sinfin,6.41,7.05,8.02,7.94,12.71,13.76,16.74,18.08,13.23,11.8,6.68,3.84
Perry Vale,51.43639,-0.04442,GB,15618,12048177,Perry Vale,7.13,7.94,8.45,8.59,13.61,14.43,17.56,19.4,13.8,12.67,7.23,4.42
Furzedown,51.42456,-0.14656,GB,15504,12048252,Furzedown,7.11,7.91,8.41,8.56,13.6,14.38,17.55,19.34,13.79,12.62,7.21,4.38
Seven Sisters,51.57769,-0.07895,GB,15968,12048325,Seven Sisters,7.14,7.99,8.57,8.79,13.71,14.66,17.69,19.48,13.94,12.75,7.4,4.62
Tottenham Hale,51.59366,-0.05962,GB,15064,12048327,Tottenham Hale,7.19,8.04,8.62,8.83,13.76,14.71,17.74,19.53,13.99,12.8,7.45,4.67
Washwood Heath,52.50054,-1.82657,GB,32921,12076699,Washwood Heath,6.5,7.13,8.02,7.91,13.03,13.74,17.2,18.27,13.29,11.88,6.68,3.73
