name,latitude,longitude,country,population,id,city,jan,feb,mar,apr,may,jun,jul,aug,sep,oct,nov,dec
Vittoria,36.95151,14.52788,IT,50852,2522713,Vittoria,11.0,12.43,13.12,14.47,18.13,22.33,24.82,24.69,23.25,20.9,15.79,10.89
Villabate,38.07789,13.44275,IT,19031,2522767,Villabate,11.57,13.28,13.42,14.77,18.97,23.49,25.56,25.45,24.18,22.36,15.87,11.26
Vibo Valentia,38.67618,16.10094,IT,19263,2522776,Vibo Valentia,8.57,10.36,10.91,12.31,16.38,20.46,22.89,22.55,20.42,18.51,13.2,8.55
Trapani,38.0176,12.53617,IT,67531,2522876,Trapani,12.77,14.18,14.13,15.37,19.05,22.93,25.2,25.75,24.46,22.4,16.84,12.41
Termini Imerese,37.98225,13.69729,IT,22957,2522960,Termini Imerese,11.2,12.75,12.98,14.45,18.53,22.91,25.0,24.99,23.64,21.97,15.47,10.93
Siracusa,37.07542,15.28664,IT,121605,2523083,Siracusa,11.26,13.04,13.56,14.92,18.45,23.13,25.8,25.62,24.25,21.11,15.93,10.96
Sinnai,39.30286,9.20283,IT,15791,2523087,Sinnai,9.95,12.65,12.34,12.99,17.4,22.02,24.68,24.55,22.94,19.97,13.27,8.63
Siderno,38.26993,16.29607,IT,15651,2523113,Siderno,10.32,12.28,12.95,14.41,18.47,22.52,25.37,25.19,23.02,20.26,15.49,10.69
Sestu,39.29846,9.09248,IT,18191,2523136,Sestu,10.11,12.52,12.51,13.35,17.82,22.16,25.06,24.93,23.07,20.23,13.53,8.84
Selargius,39.25779,9.16323,IT,23285,2523166,Selargius,10.31,12.72,12.71,13.55,18.02,22.36,25.26,25.13,23.27,20.43,13.73,9.04
Scordia,37.29548,14.84058,IT,16645,2523180,Scordia,8.55,11.15,11.94,13.39,18.11,23.43,25.54,24.53,22.79,19.48,13.29,7.97
Scicli,36.79014,14.7028,IT,16109,2523192,Scicli,11.87,13.05,13.53,14.86,18.08,21.99,24.47,24.78,23.5,21.47,16.6,11.81
Sciacca,37.50693,13.08399,IT,40569,2523194,Sciacca,11.47,13.0,13.37,14.49,18.32,22.3,24.72,25.1,23.29,21.11,15.78,11.15
San Giovanni la Punta,37.5769,15.09371,IT,22046,2523460,San Giovanni la Punta,9.49,11.65,12.2,13.43,17.37,22.08,24.56,23.9,22.43,19.48,14.12,9.08
San Giovanni in Fiore,39.25446,16.69699,IT,17358,2523461,San Giovanni in Fiore,5.14,8.07,9.29,10.24,14.82,19.47,22.02,20.6,18.16,16.07,10.08,4.73
San Cataldo,37.48412,13.98542,IT,22079,2523513,San Cataldo,6.52,8.99,9.73,11.11,15.97,21.41,23.13,22.24,20.68,17.85,11.18,6.17
Sambiase,38.96667,16.28333,IT,20000,2523535,Sambiase,10.05,11.83,12.27,13.62,17.61,21.16,23.79,23.8,21.64,19.74,14.64,9.94
Rossano Stazione,39.59855,16.63485,IT,23824,2523577,Rossano Stazione,8.94,11.35,12.69,13.73,18.41,22.46,25.47,24.74,21.64,19.13,13.72,8.82
Rosolini,36.82145,14.95132,IT,19721,2523581,Rosolini,11.58,12.84,13.28,14.68,17.9,21.75,24.72,24.88,23.39,21.04,16.51,11.68
Ribera,37.49773,13.26676,IT,17664,2523619,Ribera,10.07,11.85,12.34,13.51,17.59,21.91,24.16,24.22,22.37,20.09,14.51,9.86
Reggio Calabria,38.11047,15.66129,IT,182455,2523630,Reggio Calabria,10.74,12.3,12.53,14.22,18.12,21.94,24.61,24.46,22.94,20.73,15.29,10.89
Ragusa,36.92574,14.72443,IT,74251,2523650,Ragusa,8.78,10.67,11.42,12.88,16.9,21.83,24.15,23.32,22.01,19.42,13.57,8.48
Quattromiglia,39.34474,16.23802,IT,22889,2523664,Quattromiglia,8.81,11.37,12.03,13.31,17.84,21.63,24.09,23.9,21.35,19.74,13.64,8.79
Quartu Sant'Elena,39.22935,9.25004,IT,66620,2523665,Quartu Sant'Elena,10.69,13.4,13.09,13.74,18.15,22.77,25.43,25.3,23.69,20.71,14.02,9.38
Pozzallo,36.73028,14.84672,IT,18166,2523693,Pozzallo,12.6,13.86,14.32,15.75,19.02,22.96,25.75,25.9,24.44,22.19,17.52,12.64
Porto Empedocle,37.28942,13.52494,IT,16574,2523705,Porto Empedocle,10.87,12.67,13.2,14.42,18.45,22.62,24.78,24.94,23.2,21.04,15.43,10.71
Piazza Armerina,37.38417,14.36921,IT,17736,2523796,Piazza Armerina,5.97,8.72,9.39,10.57,15.39,20.72,22.45,21.41,19.83,16.87,10.51,5.31
Paternò,37.56675,14.90254,IT,46030,2523866,Paternò,9.02,11.53,12.37,13.75,18.37,23.7,25.88,24.84,23.18,19.72,13.71,8.42
Partinico,38.04657,13.11785,IT,28708,2523871,Partinico,9.58,11.9,12.46,13.95,18.9,24.14,25.64,25.19,23.71,21.09,14.21,9.17
Palmi,38.35943,15.85155,IT,18556,2523902,Palmi,10.11,11.5,11.78,13.45,17.29,20.85,23.44,23.57,21.61,19.75,14.72,10.27
Palma di Montechiaro,37.19066,13.76603,IT,22654,2523908,Palma di Montechiaro,10.12,11.96,12.83,14.2,18.38,22.53,24.69,24.68,22.93,20.63,14.85,9.94
Palermo,38.1166,13.3636,IT,648260,2523920,Palermo,11.72,13.42,13.57,14.92,19.12,23.65,25.71,25.6,24.33,22.52,16.02,11.41
Palagonia,37.32955,14.74474,IT,16227,2523927,Palagonia,8.65,11.25,12.04,13.49,18.21,23.53,25.64,24.63,22.89,19.58,13.39,8.07
Pachino,36.71522,15.09019,IT,20493,2523938,Pachino,12.08,13.34,13.78,15.18,18.4,22.25,25.22,25.38,23.89,21.54,17.01,12.18
Oristano,39.9036,8.59257,IT,31671,2523964,Oristano,9.17,11.77,11.51,12.7,17.4,21.38,23.61,23.72,21.92,19.8,12.63,8.02
Noto,36.89244,15.06977,IT,18421,2523998,Noto,10.93,12.82,13.38,14.9,18.88,23.84,26.63,25.93,24.8,21.37,15.38,10.54
Niscemi,37.14649,14.39381,IT,26893,2524006,Niscemi,9.01,11.02,11.93,13.27,17.55,22.3,24.4,24.0,22.31,19.71,13.73,8.67
Nicastro,38.97089,16.31285,IT,40000,2524013,Nicastro,9.79,11.58,12.02,13.37,17.36,20.91,23.54,23.55,21.4,19.49,14.39,9.69
Monserrato,39.25642,9.1444,IT,20193,2524084,Monserrato,10.36,12.77,12.76,13.59,18.07,22.41,25.31,25.18,23.32,20.48,13.78,9.09
Monreale,38.08125,13.28947,IT,21964,2524085,Monreale,9.89,11.87,12.01,13.26,17.61,22.45,24.3,24.03,22.85,20.84,14.17,9.43
Modica,36.85868,14.75966,IT,54456,2524119,Modica,10.06,11.68,12.35,13.77,17.48,22.06,24.5,23.99,22.72,20.32,14.89,9.9
Misterbianco,37.51803,15.00913,IT,45542,2524123,Misterbianco,9.35,11.58,12.34,13.82,18.04,22.91,25.56,24.87,23.09,19.46,14.02,8.81
Misilmeri,38.03183,13.44795,IT,19171,2524126,Misilmeri,10.97,12.68,12.82,14.17,18.37,22.89,24.96,24.85,23.58,21.76,15.27,10.66
Milazzo,38.22008,15.24023,IT,31771,2524155,Milazzo,11.39,13.11,13.53,14.89,18.92,23.0,25.51,25.29,23.71,21.56,15.9,11.55
Messina,38.19394,15.55256,IT,219948,2524170,Messina,11.17,12.75,13.0,14.58,18.5,22.42,25.08,24.87,23.34,21.14,15.65,11.25
Mazara del Vallo,37.65535,12.58986,IT,51534,2524205,Mazara del Vallo,12.19,13.75,13.88,15.08,18.8,22.85,25.21,25.66,24.13,21.93,16.36,11.81
Mascalucia,37.57465,15.04964,IT,32179,2524236,Mascalucia,8.99,11.15,11.7,12.93,16.87,21.58,24.06,23.4,21.93,18.98,13.62,8.58
Marsala,37.7992,12.4367,IT,77915,2524245,Marsala,12.67,14.08,14.03,15.27,18.95,22.83,25.1,25.65,24.36,22.3,16.74,12.31
Licata,37.10267,13.93972,IT,36537,2524393,Licata,11.12,12.96,13.83,15.2,19.38,23.53,25.69,25.68,23.93,21.63,15.85,10.94
Lentini,37.28556,14.99737,IT,24102,2524410,Lentini,10.37,12.56,13.27,14.67,18.74,23.84,26.38,25.67,24.2,20.75,15.0,9.93
Iglesias,39.3092,8.5372,IT,22659,2524533,Iglesias,9.17,12.19,12.11,12.9,17.66,22.41,24.68,24.26,22.85,19.99,12.61,7.92
Gioia Tauro,38.4251,15.8975,IT,18769,2524606,Gioia Tauro,11.79,13.12,13.32,14.74,18.29,21.81,24.56,24.79,23.02,21.24,16.32,11.83
Giarre,37.7244,15.18165,IT,24138,2524618,Giarre,9.86,12.09,12.68,13.69,17.53,22.07,24.53,23.89,22.53,19.81,14.6,9.54
Gela,37.07381,14.24038,IT,75001,2524653,Gela,11.23,12.73,13.47,14.86,18.68,22.67,25.04,25.2,23.55,21.28,15.95,11.08
Floridia,37.08343,15.15332,IT,22089,2524734,Floridia,11.46,13.03,13.45,14.9,18.16,22.46,25.25,25.29,23.86,21.14,16.2,11.35
Favara,37.31754,13.66226,IT,32110,2524786,Favara,8.76,10.89,11.7,13.05,17.5,21.95,23.86,23.62,21.92,19.62,13.46,8.57
Enna,37.5655,14.27433,IT,22998,2524819,Enna,5.31,7.62,8.27,9.6,14.37,19.91,21.5,20.56,19.34,16.6,9.77,4.75
Crotone,39.08077,17.12764,IT,64603,2524881,Crotone,9.75,11.95,13.12,14.2,18.24,22.19,25.38,24.76,22.22,19.69,14.61,9.77
Cosenza,39.2989,16.25307,IT,63852,2524907,Cosenza,8.59,11.36,12.23,13.58,18.27,22.23,24.61,24.25,21.63,19.92,13.57,8.56
Comiso,36.94893,14.60731,IT,26298,2524955,Comiso,10.96,12.4,12.99,14.35,17.88,22.2,24.57,24.38,23.15,20.91,15.72,10.82
Catanzaro,38.88247,16.60086,IT,78970,2525059,Catanzaro,9.17,11.73,12.73,14.03,18.39,22.55,25.26,24.73,22.27,19.39,14.23,9.25
Catania,37.49223,15.07041,IT,311584,2525068,Catania,11.02,13.06,13.77,15.11,19.03,23.56,26.32,25.95,24.19,20.83,15.7,10.66
Castrovillari,39.81632,16.20183,IT,20334,2525070,Castrovillari,7.58,10.33,11.42,12.38,17.15,21.2,24.03,23.37,20.39,18.05,12.35,7.34
Castelvetrano,37.68081,12.79194,IT,31680,2525083,Castelvetrano,10.44,12.32,12.61,13.82,17.95,22.44,24.56,24.66,23.05,20.68,14.73,10.08
Casarano,40.01131,18.16237,IT,19359,2525207,Casarano,10.19,11.88,13.29,14.38,18.25,21.75,25.19,24.86,21.88,19.52,15.4,10.32
Carini,38.1324,13.18274,IT,35082,2525350,Carini,10.12,12.24,12.67,14.07,18.73,23.8,25.41,25.09,23.77,21.43,14.56,9.62
Carbonia,39.16465,8.5213,IT,21664,2525362,Carbonia,9.86,12.58,12.7,13.49,18.2,22.82,25.12,24.72,23.29,20.51,13.31,8.6
Canicattì,37.35842,13.84786,IT,32918,2525405,Canicattì,7.36,9.75,10.52,11.89,16.6,21.49,23.25,22.63,20.94,18.49,12.03,7.0
Caltanissetta,37.49025,14.06216,IT,62797,2525448,Caltanissetta,7.11,9.62,10.32,11.68,16.51,21.96,23.69,22.75,21.19,18.34,11.72,6.64
Caltagirone,37.23785,14.51551,IT,38391,2525450,Caltagirone,7.2,9.52,10.27,11.66,16.07,21.16,22.99,22.29,20.77,18.15,11.78,6.68
Cagliari,39.23054,9.11917,IT,149257,2525473,Cagliari,10.16,12.57,12.56,13.39,17.87,22.21,25.11,24.98,23.12,20.28,13.58,8.89
Bronte,37.78863,14.83377,IT,19074,2525498,Bronte,6.2,8.5,9.36,10.7,15.41,20.93,22.62,21.38,20.4,17.44,10.64,5.55
Biancavilla,37.64442,14.86685,IT,23188,2525560,Biancavilla,7.96,10.43,11.14,12.47,16.87,22.16,24.34,23.23,21.74,18.48,12.55,7.28
Belpasso,37.59192,14.97985,IT,16319,2525571,Belpasso,8.01,10.46,11.06,12.33,16.48,21.65,23.88,22.78,21.44,18.37,12.65,7.45
Barcellona Pozzo di Gotto,38.14772,15.21469,IT,34598,2525597,Barcellona Pozzo di Gotto,11.14,12.85,13.28,14.64,18.67,22.74,25.26,25.04,23.46,21.31,15.65,11.3
Bagheria,38.07892,13.51237,IT,53149,2525628,Bagheria,11.29,12.95,13.16,14.59,18.76,23.32,25.33,25.19,23.89,22.13,15.57,10.95
Avola,36.9084,15.13937,IT,28666,2525643,Avola,11.58,13.47,14.02,15.55,19.53,24.5,27.28,26.57,25.46,22.03,16.03,11.19
Augusta,37.24065,15.22121,IT,30723,2525646,Augusta,11.31,13.09,13.61,14.96,18.5,23.18,25.85,25.67,24.3,21.16,15.99,11.01
Assemini,39.29123,8.99879,IT,25257,2525655,Assemini,10.07,12.47,12.59,13.52,18.07,22.33,25.38,25.15,23.24,20.37,13.55,8.83
Alcamo,37.9779,12.96473,IT,44431,2525755,Alcamo,8.98,11.3,11.86,13.35,18.3,23.54,25.04,24.59,23.11,20.49,13.61,8.57
Agrigento,37.31065,13.57661,IT,32514,2525764,Agrigento,9.35,11.3,12.05,13.35,17.63,21.9,23.95,23.92,22.19,19.96,14.05,9.2
Adrano,37.66358,14.83283,IT,34446,2525769,Adrano,7.64,10.02,10.89,12.25,16.88,22.15,24.12,22.99,21.75,18.58,12.34,7.07
Acireale,37.60886,15.16577,IT,49477,2525790,Acireale,10.32,12.36,13.07,14.41,18.33,22.86,25.62,25.25,23.49,20.13,15.0,9.96
Aci Catena,37.60614,15.14165,IT,24663,2525791,Aci Catena,9.16,11.39,11.98,12.99,16.83,21.37,23.83,23.19,21.83,19.11,13.9,8.84
Aci Castello,37.55564,15.14535,IT,17588,2525792,Aci Castello,10.6,12.82,13.59,15.07,19.29,24.16,26.81,26.12,24.34,20.71,15.27,10.06
Zola Predosa,44.48967,11.21831,IT,15965,3163853,Zola Predosa,3.46,8.16,10.89,11.48,18.09,21.62,23.72,23.47,19.2,15.28,8.49,2.24
Vomero,40.84282,14.23075,IT,44791,3163948,Vomero,8.19,10.45,11.0,12.29,16.8,20.2,23.35,23.05,20.35,18.2,12.73,7.61
Voghera,44.99151,9.01175,IT,38464,3163995,Voghera,1.87,7.53,10.15,10.95,17.15,20.38,24.39,23.55,19.37,14.18,6.65,0.76
Vittorio Veneto,45.98026,12.30065,IT,24789,3164028,Vittorio Veneto,2.28,5.97,9.49,9.96,16.5,18.28,21.21,21.58,16.27,13.45,6.51,1.09
Viterbo,42.41937,12.1056,IT,47134,3164039,Viterbo,4.83,8.86,9.95,10.8,16.52,20.13,23.42,23.06,19.27,16.86,9.78,4.48
Vimodrone,45.51461,9.28772,IT,17072,3164080,Vimodrone,1.19,6.1,9.7,10.51,17.11,19.04,22.31,22.25,18.01,13.87,5.96,0.46
Vimercate,45.61545,9.36801,IT,22727,3164083,Vimercate,0.99,5.55,9.16,10.0,16.51,18.4,21.55,21.43,17.13,13.51,5.63,0.23
Lancenigo-Villorba,45.71289,12.25697,IT,15265,3164090,Lancenigo-Villorba,2.19,6.0,9.54,10.98,17.55,19.38,22.14,22.56,17.32,14.04,7.28,1.98
Villaricca,40.92006,14.19339,IT,25074,3164153,Villaricca,8.74,11.0,11.56,12.84,17.35,20.75,23.9,23.61,20.9,18.75,13.28,8.16
Villafranca di Verona,45.35405,10.84462,IT,15895,3164241,Villafranca di Verona,3.12,6.86,10.52,11.24,18.13,20.51,24.05,24.2,18.6,14.86,7.81,2.19
Vignola,44.48383,11.01096,IT,22397,3164342,Vignola,3.48,8.09,10.51,11.13,17.62,20.96,23.11,22.64,18.61,15.03,8.14,2.03
Vigevano,45.31407,8.85437,IT,57970,3164376,Vigevano,1.2,6.71,10.48,11.39,17.86,20.12,23.78,23.69,19.35,14.29,6.27,0.45
Vicenza,45.54672,11.5475,IT,111980,3164419,Vicenza,2.01,6.37,10.01,10.9,17.52,19.42,22.57,22.58,17.57,14.13,6.77,1.03
Viareggio,43.86693,10.2502,IT,62169,3164433,Viareggio,6.85,10.13,10.94,11.87,17.11,19.65,22.73,23.34,19.54,17.21,10.95,5.91
Viadana,44.93553,10.51898,IT,20013,3164440,Viadana,2.32,7.47,10.79,11.7,18.72,21.67,24.55,24.08,19.59,15.09,7.57,1.89
Verona,45.4299,10.98444,IT,258031,3164527,Verona,2.51,6.63,10.47,11.28,18.22,20.45,23.99,24.17,18.51,14.66,7.41,1.58
Vercelli,45.32163,8.41989,IT,45875,3164565,Vercelli,1.13,6.65,10.3,11.01,17.6,19.68,23.47,23.45,18.93,13.93,5.89,0.28
Ventimiglia,43.78956,7.60872,IT,24120,3164582,Ventimiglia,8.84,12.72,12.86,13.25,18.55,21.31,24.29,24.37,21.11,18.22,11.73,7.06
Venice,45.43713,12.33265,IT,51298,3164603,Venice,2.31,7.47,10.81,12.49,19.36,21.16,24.16,23.99,19.28,15.47,8.75,3.29
Venaria Reale,45.12597,7.63136,IT,33531,3164617,Venaria Reale,0.33,6.22,9.07,9.42,15.9,18.15,22.07,21.82,17.65,12.73,4.91,-1.22
Velletri,41.68573,12.77753,IT,52911,3164630,Velletri,5.5,8.65,9.74,10.64,15.99,19.38,22.83,21.89,18.89,16.89,10.08,4.78
Vasto,42.1115,14.70649,IT,41409,3164672,Vasto,6.56,8.68,10.48,11.43,16.71,20.49,22.78,22.34,19.22,16.86,11.3,5.7
Varese,45.82058,8.82511,IT,80588,3164699,Varese,1.65,5.35,8.7,9.09,15.61,17.4,20.95,21.1,17.0,13.0,5.64,0.07
Valenzano,41.04376,16.88491,IT,16101,3164919,Valenzano,8.76,10.89,12.73,13.82,18.47,22.49,25.07,24.37,21.28,18.78,13.93,8.43
Valenza,45.01242,8.64379,IT,17305,3164920,Valenza,0.75,6.86,9.87,10.54,16.77,19.73,23.72,22.86,18.79,13.73,5.7,-0.72
Valdagno,45.64498,11.29886,IT,22555,3164954,Valdagno,2.13,6.15,9.79,9.99,16.78,18.42,21.58,21.51,16.66,13.2,6.38,-0.51
Udine,46.0693,13.23715,IT,100170,3165072,Udine,1.4,4.98,8.74,9.4,15.96,17.37,20.23,20.57,15.29,12.55,5.86,0.48
Triggiano,41.06549,16.92501,IT,26811,3165178,Triggiano,9.37,11.22,12.72,13.82,18.17,21.88,24.6,24.09,21.26,18.78,14.3,8.99
Trieste,45.64953,13.77678,IT,204338,3165185,Trieste,5.43,8.54,10.76,11.54,17.58,19.68,22.25,22.86,18.28,15.49,10.36,5.23
Trezzano sul Naviglio,45.42212,9.06342,IT,20001,3165198,Trezzano sul Naviglio,1.0,6.39,10.22,11.09,17.66,19.68,23.04,23.03,18.79,14.13,6.12,0.4
Treviso,45.66673,12.2416,IT,85760,3165201,Treviso,2.13,5.96,9.45,10.82,17.36,19.24,22.05,22.39,17.16,13.95,7.05,1.87
Treviglio,45.52081,9.59102,IT,24937,3165207,Treviglio,1.06,5.76,9.25,10.08,16.72,18.75,21.92,21.67,17.31,13.66,5.7,0.36
Trentola-Ducenta,40.97517,14.1749,IT,17056,3165240,Trentola-Ducenta,8.14,10.55,11.41,12.75,17.43,20.92,24.06,23.55,20.71,18.49,12.84,7.62
Trento,46.06787,11.12108,IT,120709,3165243,Trento,3.74,7.45,10.59,10.34,16.78,18.64,21.91,21.62,17.39,14.35,6.72,-1.79
Trecate,45.43399,8.7364,IT,19430,3165275,Trecate,1.02,6.28,10.3,11.09,17.56,19.58,23.15,23.37,18.94,14.05,6.05,0.36
Trani,41.27733,16.41011,IT,53981,3165322,Trani,8.41,10.8,12.41,13.66,18.57,22.6,25.04,24.4,21.28,18.67,13.67,8.21
Tradate,45.70843,8.90763,IT,17154,3165340,Tradate,1.54,5.74,9.42,9.97,16.32,18.23,21.59,21.66,17.49,13.45,6.03,0.36
Tortona,44.89784,8.86374,IT,22743,3165370,Tortona,1.37,7.32,9.91,10.72,16.9,20.05,23.99,23.05,19.18,13.87,6.22,0.2
Torremaggiore,41.68894,15.29408,IT,16955,3165435,Torremaggiore,6.29,8.68,11.03,11.91,17.9,22.39,24.2,23.37,20.3,17.58,11.67,5.8
Torre del Greco,40.78931,14.36806,IT,85332,3165456,Torre del Greco,9.09,11.39,11.93,13.25,17.77,21.17,24.38,24.1,21.26,19.12,13.63,8.58
Torre Annunziata,40.75337,14.45251,IT,43521,3165475,Torre Annunziata,8.3,10.96,11.79,13.23,17.8,21.43,24.6,24.1,21.18,18.84,13.13,7.92
Turin,45.07049,7.68682,IT,847287,3165524,Turin,0.49,6.51,9.28,9.51,16.12,18.29,22.34,22.16,17.85,12.88,5.04,-0.71
Tolentino,43.20918,13.28524,IT,16504,3165595,Tolentino,4.78,8.19,10.36,10.94,17.0,20.53,23.35,22.71,18.98,16.01,9.5,3.24
Tivoli,41.95952,12.8016,IT,22018,3165624,Tivoli,5.18,8.76,10.12,11.05,16.54,20.13,23.64,22.5,19.27,17.17,9.99,4.6
Thiene,45.7088,11.47959,IT,21145,3165698,Thiene,1.97,5.95,9.93,10.46,17.17,18.82,21.93,21.92,16.91,13.39,6.33,0.01
Terzigno,40.804,14.49309,IT,17138,3165737,Terzigno,8.97,11.27,11.82,13.08,17.64,21.07,24.24,23.92,21.09,18.98,13.47,8.43
Terracina,41.29174,13.24359,IT,30980,3165762,Terracina,9.41,11.29,12.17,13.39,18.29,21.41,24.62,24.3,21.39,19.4,13.76,8.77
Terni,42.56335,12.64329,IT,111189,3165771,Terni,4.93,8.99,10.68,11.4,17.12,20.75,24.1,23.6,19.79,17.26,9.88,4.46
Termoli,41.99994,14.99389,IT,31044,3165773,Termoli,8.37,10.21,11.87,12.94,18.03,21.61,24.04,23.7,20.77,18.33,13.12,7.69
Terlizzi,41.12905,16.54536,IT,25811,3165788,Terlizzi,7.47,10.02,11.89,13.0,17.93,22.25,24.67,23.76,20.55,18.12,12.85,7.27
Teramo,42.66123,13.69901,IT,54338,3165803,Teramo,4.78,7.53,9.78,10.84,16.3,19.8,22.12,21.43,17.94,15.55,9.27,2.73
Taranto,40.46438,17.24707,IT,198585,3165926,Taranto,8.98,10.99,12.96,14.26,18.99,22.8,26.17,25.61,22.02,19.17,14.54,9.02
Suzzara,44.99242,10.74407,IT,16571,3166006,Suzzara,2.24,7.44,10.94,11.87,18.8,21.34,24.4,23.96,19.31,15.29,7.75,1.99
Sulmona,42.04945,13.92578,IT,21086,3166034,Sulmona,5.3,8.35,10.6,10.79,16.59,20.82,23.29,22.48,18.87,16.45,9.05,2.04
Spoleto,42.74071,12.73899,IT,19266,3166236,Spoleto,4.17,8.06,9.8,10.37,16.08,19.81,23.06,22.56,18.71,16.31,8.85,3.29
Sora,41.71829,13.61356,IT,23758,3166387,Sora,4.8,7.72,9.56,10.71,16.15,19.89,23.08,21.97,18.59,16.34,9.36,3.31
Sondrio,46.16852,9.87134,IT,19208,3166397,Sondrio,0.91,5.32,8.53,9.3,15.87,18.29,22.18,21.33,17.63,14.28,5.32,-3.54
Somma Vesuviana,40.87329,14.43865,IT,32484,3166404,Somma Vesuviana,7.36,10.17,11.06,12.37,17.03,20.77,23.92,23.28,20.33,18.05,12.15,6.95
Soccavo,40.8455,14.19262,IT,45314,3166465,Soccavo,8.89,11.15,11.7,12.99,17.5,20.9,24.05,23.75,21.05,18.9,13.43,8.31
Siena,43.31822,11.33064,IT,53901,3166548,Siena,3.48,8.13,9.22,10.03,15.67,19.11,22.48,21.92,18.15,15.55,8.21,3.2
Sezze,41.50032,13.06176,IT,16071,3166571,Sezze,5.86,8.83,10.08,10.92,16.39,19.91,23.35,22.36,19.19,17.14,10.54,5.23
Seveso,45.6467,9.14296,IT,22733,3166574,Seveso,1.17,5.75,9.54,10.33,16.77,18.69,21.95,21.9,17.71,13.62,5.88,0.43
Settimo Torinese,45.13925,7.77008,IT,47485,3166576,Settimo Torinese,0.92,7.08,9.91,10.21,16.87,19.03,23.3,23.09,18.64,13.51,5.59,0.01
Sestri Levante,44.27317,9.39683,IT,16963,3166595,Sestri Levante,8.95,11.4,11.87,12.2,17.62,19.71,22.8,23.51,19.92,17.66,12.02,7.57
Sesto San Giovanni,45.53329,9.22585,IT,81822,3166598,Sesto San Giovanni,1.14,6.07,9.75,10.57,17.15,19.09,22.39,22.34,18.12,13.86,5.96,0.4
Sesto Fiorentino,43.83193,11.19924,IT,45656,3166601,Sesto Fiorentino,3.87,8.49,9.8,10.92,16.73,19.73,23.01,22.77,18.77,16.0,8.75,3.4
Seriate,45.68532,9.72487,IT,23552,3166706,Seriate,1.24,5.36,8.89,9.81,16.34,18.27,21.35,21.06,16.6,13.63,5.55,-0.4
Seregno,45.65002,9.20548,IT,42760,3166711,Seregno,1.75,6.05,9.72,10.36,16.75,18.58,21.79,21.71,17.53,13.82,6.22,0.48
Senigallia,43.71626,13.20882,IT,30882,3166740,Senigallia,6.76,9.59,11.76,12.71,18.87,22.42,24.65,24.41,20.61,17.27,11.85,6.55
Senago,45.57562,9.1262,IT,20620,3166753,Senago,1.47,6.05,9.84,10.63,17.07,18.99,22.25,22.2,18.01,13.92,6.18,0.73
Segrate,45.49185,9.29812,IT,28296,3166808,Segrate,1.24,6.15,9.75,10.56,17.16,19.09,22.36,22.29,18.06,13.92,6.01,0.51
Secondigliano,40.9,14.26667,IT,42827,3166830,Secondigliano,8.26,10.71,11.42,12.83,17.36,20.86,24.03,23.64,20.82,18.54,13.01,7.82
Schio,45.71262,11.35671,IT,33740,3166917,Schio,2.63,6.65,10.29,10.49,17.28,18.92,22.08,22.01,17.16,13.7,6.88,-0.01
Scandicci,43.75423,11.18794,IT,44951,3166988,Scandicci,3.97,8.59,9.9,11.02,16.83,19.83,23.11,22.87,18.87,16.1,8.85,3.5
Scandiano,44.5983,10.69558,IT,25896,3166989,Scandiano,3.1,7.74,10.11,10.92,17.44,20.63,22.94,22.28,18.36,14.73,7.64,1.72
Scafati,40.7602,14.53723,IT,48702,3167010,Scafati,8.35,11.01,11.84,13.29,17.85,21.47,24.65,24.15,21.23,18.89,13.18,7.97
Savona,44.30905,8.47715,IT,61345,3167022,Savona,7.13,11.21,11.89,12.1,17.56,20.03,23.41,23.45,20.09,16.12,10.34,4.57
Savigliano,44.64808,7.65677,IT,16800,3167034,Savigliano,0.75,6.52,8.64,8.66,14.75,17.78,21.29,20.46,17.05,12.15,4.4,-2.09
Sava,40.40203,17.55267,IT,15898,3167044,Sava,9.06,10.99,12.83,14.2,18.77,22.57,25.9,25.2,21.74,19.11,14.52,9.02
Sassuolo,44.5432,10.7848,IT,36926,3167053,Sassuolo,2.54,7.31,9.86,10.64,17.17,20.44,22.69,22.03,18.06,14.36,7.3,1.32
Sassari,40.72586,8.55552,IT,91895,3167096,Sassari,9.2,11.6,11.27,12.38,17.15,20.69,23.2,23.58,21.25,19.17,12.59,8.19
Sarzana,44.11178,9.9622,IT,20435,3167104,Sarzana,7.85,10.35,10.92,11.68,17.21,19.37,22.48,23.04,19.25,17.13,11.13,6.01
Saronno,45.62513,9.03517,IT,38099,3167113,Saronno,1.25,5.81,9.64,10.4,16.84,18.76,22.08,22.07,17.88,13.67,5.97,0.51
Sarno,40.80748,14.62151,IT,28837,3167116,Sarno,8.21,11.02,11.9,13.22,17.88,21.63,24.77,24.13,21.18,18.9,13.01,7.8
San Vito dei Normanni,40.65642,17.70814,IT,17617,3167184,San Vito dei Normanni,9.12,11.05,13.0,14.22,18.74,22.56,25.42,24.73,21.48,18.79,14.22,8.82
Santeramo in Colle,40.79236,16.75873,IT,24922,3167327,Santeramo in Colle,5.67,8.33,10.43,11.45,16.59,20.99,23.69,22.62,18.99,16.58,11.09,5.43
Sant'Antonio Abate,40.72152,14.54021,IT,18859,3167393,Sant'Antonio Abate,9.39,11.69,12.23,13.55,18.07,21.47,24.68,24.4,21.56,19.42,13.93,8.88
Sant'Antimo,40.94223,14.23476,IT,33561,3167419,Sant'Antimo,9.04,11.3,11.86,13.14,17.65,21.05,24.2,23.91,21.2,19.05,13.58,8.46
Sant'Anastasia,40.86842,14.40196,IT,20733,3167509,Sant'Anastasia,7.5,10.16,10.99,12.43,17.0,20.63,23.8,23.3,20.38,18.04,12.33,7.12
Santa Maria Capua Vetere,41.08156,14.25342,IT,31743,3167561,Santa Maria Capua Vetere,6.95,9.83,11.01,12.32,17.3,20.96,24.11,23.33,20.25,17.96,11.85,6.49
San Severo,41.68564,15.38148,IT,51919,3167731,San Severo,6.9,9.27,11.73,12.55,18.78,23.22,24.96,24.12,20.99,18.19,12.3,6.44
San Sebastiano,45.65192,10.25681,IT,23228,3167744,San Sebastiano,0.99,3.9,7.07,7.76,14.31,16.59,20.02,20.0,15.4,12.37,5.0,0.0
San Salvo,42.04413,14.73335,IT,17123,3167751,San Salvo,7.52,9.52,11.42,12.46,17.71,21.56,23.84,23.37,20.32,17.86,12.41,6.86
San Remo,43.81725,7.7772,IT,47043,3167777,San Remo,8.91,12.63,13.21,13.09,18.63,20.96,23.92,24.17,20.8,17.88,11.66,6.58
Sannicandro Garganico,41.83844,15.56535,IT,15815,3167940,Sannicandro Garganico,7.55,9.6,11.62,12.32,18.18,22.35,24.43,23.76,20.69,18.17,12.45,6.87
San Miniato,43.67954,10.84975,IT,16900,3167953,San Miniato,3.4,8.22,9.61,10.88,16.42,19.58,22.76,22.74,18.66,15.91,8.63,3.43
San Miniato Basso,43.69332,10.84119,IT,26365,3167954,San Miniato Basso,4.15,8.97,10.36,11.63,17.17,20.33,23.51,23.49,19.41,16.66,9.38,4.18
San Mauro Torinese,45.10359,7.76803,IT,18521,3167978,San Mauro Torinese,0.87,7.03,9.86,10.16,16.82,18.98,23.25,23.04,18.59,13.46,5.54,-0.04
San Lazzaro,44.4705,11.40851,IT,22350,3168175,San Lazzaro,3.35,8.1,11.02,11.66,18.4,21.87,23.91,23.87,19.39,15.44,8.69,2.44
San Giuseppe Vesuviano,40.8356,14.50487,IT,26888,3168209,San Giuseppe Vesuviano,9.02,11.32,11.88,13.13,17.69,21.12,24.3,23.97,21.13,19.03,13.51,8.48
San Giuliano Milanese,45.39402,9.29109,IT,31050,3168222,San Giuliano Milanese,1.03,6.39,10.15,10.99,17.61,19.62,22.97,23.01,18.72,14.18,6.09,0.52
San Giovanni Valdarno,43.56757,11.52987,IT,16002,3168231,San Giovanni Valdarno,4.39,8.82,10.2,11.1,16.96,20.1,23.39,22.82,19.0,16.44,9.12,3.83
San Giovanni Rotondo,41.70643,15.7277,IT,27124,3168234,San Giovanni Rotondo,6.37,8.66,10.24,10.72,16.07,20.13,22.69,22.02,18.8,16.6,10.96,5.49
San Giovanni Lupatoto,45.38193,11.04474,IT,20038,3168236,San Giovanni Lupatoto,2.61,6.73,10.57,11.38,18.32,20.55,24.09,24.27,18.61,14.76,7.51,1.68
San Giovanni in Persiceto,44.63838,11.18419,IT,15783,3168239,San Giovanni in Persiceto,3.3,8.03,10.94,11.6,18.34,21.9,24.07,23.81,19.44,15.38,8.52,2.25
San Giovanni a Teduccio,40.83808,14.30606,IT,23839,3168257,San Giovanni a Teduccio,8.82,11.25,11.97,13.38,17.91,21.41,24.58,24.19,21.37,19.1,13.56,8.37
San Giorgio a Cremano,40.83261,14.34162,IT,45463,3168309,San Giorgio a Cremano,8.05,10.71,11.54,12.98,17.55,21.17,24.35,23.85,20.93,18.59,12.88,7.67
San Donato Milanese,45.41047,9.26838,IT,28351,3168414,San Donato Milanese,1.03,6.39,10.15,10.99,17.61,19.62,22.97,23.01,18.72,14.18,6.09,0.52
San Donà di Piave,45.63019,12.5681,IT,41856,3168429,San Donà di Piave,3.68,7.1,10.36,11.61,18.19,19.88,22.52,23.13,18.35,14.95,9.26,3.78
San Bonifacio,45.39595,11.27352,IT,17347,3168514,San Bonifacio,2.03,6.53,10.31,11.29,18.18,20.17,23.52,23.66,18.26,14.57,7.1,1.34
San Benedetto del Tronto,42.9568,13.87676,IT,45873,3168550,San Benedetto del Tronto,7.32,9.48,11.33,12.69,18.16,21.16,23.82,23.75,19.94,17.22,11.83,6.54
Saluzzo,44.64671,7.49309,IT,16537,3168609,Saluzzo,1.08,6.44,8.58,8.41,14.58,17.49,20.96,20.18,16.74,11.98,4.31,-2.13
Salsomaggiore Terme,44.81592,9.98637,IT,15754,3168627,Salsomaggiore Terme,2.74,7.63,10.23,10.79,17.51,20.27,23.32,22.86,18.86,14.42,7.19,1.52
Salerno,40.67545,14.79328,IT,125797,3168673,Salerno,9.04,11.03,11.66,13.08,17.73,20.75,23.89,23.7,20.73,18.78,13.56,8.58
Sacile,45.95412,12.50274,IT,16626,3168730,Sacile,2.66,6.41,10.18,10.91,17.52,19.16,22.04,22.61,17.13,14.07,7.25,1.49
Ruvo di Puglia,41.11758,16.48421,IT,23938,3168770,Ruvo di Puglia,7.02,9.57,11.44,12.55,17.48,21.8,24.22,23.31,20.1,17.67,12.4,6.82
Rutigliano,41.00997,17.00558,IT,17674,3168775,Rutigliano,8.69,10.71,12.47,13.58,18.13,22.05,24.68,24.06,21.03,18.53,13.79,8.35
Rozzano,45.38193,9.1559,IT,39731,3168837,Rozzano,1.04,6.42,10.22,11.08,17.67,19.68,23.03,23.05,18.79,14.18,6.13,0.48
Rovigo,45.06982,11.79022,IT,50279,3168843,Rovigo,2.42,7.32,10.69,11.99,18.69,20.76,23.82,23.87,19.04,15.39,8.47,2.61
Rovereto,45.8904,11.04053,IT,34152,3168854,Rovereto,4.34,7.79,11.1,10.87,17.3,19.22,22.48,22.36,17.89,14.84,7.4,-0.37
Rosignano Solvay-Castiglioncello,43.38946,10.43615,IT,19786,3168930,Rosignano Solvay-Castiglioncello,6.37,10.49,11.47,12.78,18.12,20.89,23.68,24.13,20.78,18.02,11.41,6.41
Roseto degli Abruzzi,42.67164,14.01481,IT,16538,3168936,Roseto degli Abruzzi,6.93,9.32,11.25,12.42,18.01,21.2,23.91,23.58,19.77,17.1,11.49,5.97
Romano di Lombardia,45.52081,9.7544,IT,17549,3169056,Romano di Lombardia,1.17,5.63,9.12,10.05,16.67,18.77,21.93,21.61,17.12,13.7,5.75,0.54
Rome,41.89193,12.51133,IT,2318895,3169070,Rome,6.61,9.89,11.01,12.34,17.65,21.06,24.53,23.85,20.59,18.46,11.64,6.31
Rocca di Papa,41.7658,12.70188,IT,15036,3169181,Rocca di Papa,4.1,7.25,8.34,9.24,14.59,17.98,21.43,20.49,17.49,15.49,8.68,3.38
Rivoli,45.07073,7.51465,IT,48629,3169231,Rivoli,-0.02,5.55,8.39,8.84,15.26,17.61,21.42,21.09,17.07,12.25,4.37,-2.14
Riva del Garda,45.88577,10.84117,IT,17331,3169272,Riva del Garda,5.09,8.54,11.85,11.61,18.05,19.96,23.23,23.11,18.64,15.59,8.15,0.38
Rimini,44.05755,12.56528,IT,148688,3169361,Rimini,5.26,8.67,11.03,12.16,18.37,21.58,23.65,23.83,19.79,16.46,10.65,5.44
Rieti,42.40476,12.85735,IT,39068,3169412,Rieti,4.25,7.86,9.5,9.93,15.39,19.09,22.68,21.89,18.37,16.12,8.77,3.42
Riccione,43.99942,12.65689,IT,32744,3169424,Riccione,6.37,9.38,11.46,12.47,18.31,21.54,23.57,23.71,20.13,16.96,11.51,6.26
Rho,45.53245,9.0402,IT,47086,3169447,Rho,1.23,6.17,9.96,10.76,17.3,19.25,22.62,22.61,18.42,13.96,6.13,0.47
Reggio nell'Emilia,44.69825,10.63125,IT,171944,3169522,Reggio nell'Emilia,2.75,7.46,10.12,10.91,17.69,20.89,23.35,22.7,18.62,14.65,7.41,1.63
Ravenna,44.41344,12.20121,IT,80868,3169561,Ravenna,4.35,8.12,10.86,11.99,18.75,21.86,23.92,24.28,19.8,16.21,10.14,4.75
Rapallo,44.3496,9.22796,IT,26993,3169602,Rapallo,8.45,11.6,12.01,12.44,17.88,20.06,23.35,23.73,20.23,17.32,11.5,6.77
Qualiano,40.91899,14.15352,IT,23752,3169724,Qualiano,8.79,11.05,11.6,12.89,17.4,20.8,23.95,23.65,20.95,18.8,13.33,8.21
Putignano,40.85106,17.1219,IT,23661,3169742,Putignano,6.99,9.17,11.11,12.24,16.98,21.15,23.75,22.96,19.72,17.28,12.22,6.69
Prato,43.8805,11.09699,IT,195089,3169921,Prato,3.61,8.27,9.62,10.79,16.57,19.57,22.82,22.69,18.62,15.75,8.5,3.15
Pozzuoli,40.84394,14.0952,IT,81231,3169984,Pozzuoli,9.85,11.94,12.32,13.6,18.03,21.4,24.55,24.26,21.64,19.54,14.23,9.18
Potenza,40.64175,15.80794,IT,56433,3170027,Potenza,3.95,6.93,8.49,9.03,14.4,19.18,21.62,20.44,17.17,15.23,8.51,2.86
Posillipo,40.81279,14.20001,IT,22856,3170055,Posillipo,8.29,10.55,11.1,12.39,16.9,20.3,23.45,23.15,20.45,18.3,12.83,7.71
Porto Torres,40.83375,8.40531,IT,21653,3170069,Porto Torres,11.12,13.0,12.66,13.68,18.08,21.21,23.72,24.41,22.13,20.27,14.32,10.05
Porto Sant'Elpidio,43.25297,13.7597,IT,22233,3170072,Porto Sant'Elpidio,7.25,9.93,11.59,12.31,18.21,21.28,24.02,23.96,20.22,17.17,11.87,6.77
Porto San Giorgio,43.17784,13.79411,IT,15558,3170073,Porto San Giorgio,7.29,9.98,11.64,12.36,18.26,21.33,24.07,24.01,20.27,17.22,11.92,6.82
Portogruaro,45.78071,12.84052,IT,17468,3170086,Portogruaro,2.84,6.62,10.06,11.18,17.74,19.4,22.07,22.6,17.55,14.38,8.05,2.27
Civitanova Marche,43.30491,13.72068,IT,42251,3170102,Civitanova Marche,7.29,9.98,11.64,12.36,18.26,21.33,24.07,24.01,20.27,17.22,11.92,6.82
Portici,40.81563,14.33716,IT,53801,3170116,Portici,8.62,11.05,11.77,13.18,17.71,21.21,24.38,23.99,21.17,18.9,13.36,8.17
Pordenone,45.95689,12.66051,IT,49878,3170147,Pordenone,1.95,5.7,9.64,10.45,17.12,18.63,21.46,22.0,16.49,13.53,6.59,0.53
Ponticelli,40.8542,14.33038,IT,52284,3170206,Ponticelli,8.66,11.11,11.82,13.23,17.76,21.26,24.43,24.04,21.22,18.94,13.41,8.22
Pontedera,43.66141,10.63067,IT,19518,3170272,Pontedera,4.82,9.36,10.74,11.97,17.39,20.36,23.49,23.72,19.68,16.97,9.95,4.66
Pompei,40.74574,14.49698,IT,23902,3170335,Pompei,9.44,11.74,12.28,13.6,18.12,21.52,24.73,24.45,21.61,19.47,13.98,8.93
Pomigliano d'Arco,40.90975,14.38316,IT,38921,3170341,Pomigliano d'Arco,8.2,10.86,11.69,13.13,17.7,21.33,24.5,24.0,21.08,18.74,13.03,7.82
Pomezia,41.66931,12.50124,IT,22346,3170342,Pomezia,7.79,10.58,11.35,12.51,17.45,20.78,24.04,23.66,20.76,18.71,12.47,7.21
Poggioreale,40.86543,14.28877,IT,23654,3170446,Poggioreale,8.72,11.15,11.87,13.28,17.81,21.31,24.48,24.09,21.27,19.0,13.46,8.27
Poggiomarino,40.80114,14.54066,IT,19451,3170457,Poggiomarino,8.2,10.86,11.69,13.13,17.7,21.33,24.5,24.0,21.08,18.74,13.03,7.82
Poggibonsi,43.47064,11.14804,IT,21692,3170504,Poggibonsi,3.82,8.74,9.94,10.98,16.6,19.92,23.21,22.89,18.96,16.26,8.94,3.71
Pistoia,43.93064,10.92365,IT,73832,3170621,Pistoia,4.04,8.45,9.85,11.09,16.95,19.63,22.87,22.89,18.78,15.9,8.69,3.2
Piscinola,40.89299,14.23394,IT,27534,3170631,Piscinola,8.54,10.8,11.36,12.64,17.15,20.55,23.7,23.41,20.7,18.55,13.08,7.96
Pisa,43.70853,10.4036,IT,109960,3170647,Pisa,6.29,10.12,11.11,12.23,17.41,20.21,23.26,23.78,19.94,17.42,10.92,5.82
Piossasco,44.98802,7.4601,IT,16904,3170659,Piossasco,0.18,5.81,8.64,8.92,15.35,17.7,21.46,21.0,17.08,12.31,4.49,-1.97
Piombino,42.92554,10.52585,IT,34041,3170674,Piombino,8.97,12.2,12.25,13.08,17.96,20.86,23.99,24.75,21.24,18.99,13.24,8.36
Pioltello,45.50147,9.33053,IT,34203,3170676,Pioltello,1.19,6.1,9.7,10.51,17.11,19.04,22.31,22.25,18.01,13.87,5.96,0.46
Pinerolo,44.88534,7.33135,IT,30866,3170694,Pinerolo,0.05,5.18,8.16,8.26,14.67,17.1,20.7,20.05,16.38,11.67,3.88,-2.86
Pietrasanta,43.95952,10.22784,IT,18897,3170778,Pietrasanta,7.77,10.71,11.35,12.03,17.44,19.82,22.98,23.66,19.79,17.57,11.46,6.43
Pianura,40.85907,14.17314,IT,57821,3170921,Pianura,6.94,9.6,10.56,11.93,16.66,20.29,23.42,22.79,19.83,17.57,11.73,6.46
Piacenza,45.05242,9.69342,IT,103607,3171058,Piacenza,2.04,7.48,10.71,11.66,18.16,20.63,24.11,23.55,19.25,14.67,7.06,1.28
Pescara,42.4584,14.20283,IT,119554,3171168,Pescara,6.15,8.78,10.89,12.19,17.79,21.46,23.76,23.28,19.66,16.78,11.09,5.34
Pesaro,43.90921,12.9164,IT,77241,3171173,Pesaro,7.56,10.33,12.08,13.37,19.43,22.5,24.73,24.66,21.1,17.78,12.75,7.67
Perugia,43.1122,12.38878,IT,120137,3171180,Perugia,3.05,7.07,8.75,9.38,15.54,19.42,22.18,21.49,17.61,14.85,7.81,2.27
Pavia,45.19205,9.15917,IT,65734,3171366,Pavia,1.92,7.31,10.62,11.48,17.95,20.5,24.24,23.9,19.54,14.55,6.82,1.05
Parma,44.79935,10.32618,IT,198292,3171457,Parma,2.52,7.53,10.52,11.23,18.16,21.21,24.07,23.61,19.37,14.78,7.36,1.69
Parabiago,45.56034,8.94545,IT,26364,3171484,Parabiago,1.63,6.11,9.91,10.64,17.11,19.02,22.4,22.47,18.24,13.96,6.27,0.8
Palo del Colle,41.05562,16.70321,IT,20692,3171562,Palo del Colle,8.17,10.32,12.08,13.22,17.86,21.89,24.44,23.72,20.68,18.21,13.36,7.9
Palazzolo sull'Oglio,45.59665,9.88688,IT,17973,3171586,Palazzolo sull'Oglio,1.17,5.12,8.66,9.7,16.32,18.36,21.53,21.28,16.72,13.69,5.64,0.51
Palagiano,40.57762,17.03812,IT,15388,3171664,Palagiano,8.33,10.73,13.04,14.07,19.31,23.57,26.78,25.88,21.69,18.89,13.78,8.13
Pagani,40.74199,14.61448,IT,32835,3171703,Pagani,9.47,11.77,12.32,13.58,18.14,21.57,24.74,24.42,21.59,19.48,13.97,8.93
Padova,45.40797,11.88586,IT,203725,3171728,Padova,2.45,6.55,10.07,11.42,17.95,19.88,22.95,23.15,18.24,14.68,7.63,2.27
Paderno Dugnano,45.56899,9.16483,IT,46235,3171737,Paderno Dugnano,1.48,6.06,9.74,10.52,16.98,18.91,22.13,22.05,17.81,13.91,6.13,0.73
Ottaviano,40.85193,14.47826,IT,23396,3171778,Ottaviano,7.16,9.97,10.86,12.17,16.83,20.57,23.72,23.08,20.13,17.85,11.95,6.75
Ostuni,40.72913,17.57675,IT,24157,3171786,Ostuni,8.28,10.24,12.25,13.47,18.08,21.98,24.84,24.12,20.77,18.13,13.42,7.97
Osimo,43.48539,13.48222,IT,16610,3171848,Osimo,4.6,7.89,10.04,10.75,17.03,20.6,23.28,22.84,18.74,15.57,9.56,4.09
Orta Nova,41.32879,15.70994,IT,16677,3171900,Orta Nova,6.56,9.66,11.69,12.51,18.57,23.12,25.12,24.1,20.81,18.01,11.83,6.14
Orbassano,45.00547,7.53813,IT,21813,3171986,Orbassano,0.44,6.06,8.89,9.17,15.6,17.95,21.71,21.25,17.33,12.56,4.74,-1.73
Olbia,40.92337,9.49802,IT,60345,3172087,Olbia,10.08,12.49,12.38,13.43,17.75,21.53,23.91,24.26,22.17,19.66,13.55,9.2
Oderzo,45.78114,12.49442,IT,15764,3172116,Oderzo,2.27,6.07,9.76,10.96,17.58,19.24,22.01,22.55,17.21,13.89,7.24,1.54
Nuoro,40.31991,9.32568,IT,35948,3172154,Nuoro,6.84,9.87,9.72,10.41,15.72,20.28,22.82,22.17,20.19,17.34,9.92,5.06
Novi Ligure,44.76246,8.787,IT,25957,3172170,Novi Ligure,1.13,7.31,9.8,10.56,16.64,19.69,23.65,22.71,18.97,13.53,5.98,-0.28
Novate Milanese,45.5305,9.13954,IT,19758,3172184,Novate Milanese,1.24,6.16,9.9,10.72,17.27,19.22,22.55,22.51,18.33,13.96,6.09,0.49
Novara,45.44694,8.62118,IT,101916,3172189,Novara,0.83,6.09,10.05,10.8,17.25,19.26,22.91,23.19,18.69,13.8,5.81,0.17
Nova Milanese,45.58882,9.19792,IT,22310,3172191,Nova Milanese,1.38,5.96,9.64,10.42,16.88,18.81,22.03,21.95,17.71,13.81,6.03,0.63
Nola,40.92606,14.52816,IT,24101,3172227,Nola,8.15,10.81,11.64,13.09,17.65,21.27,24.45,23.95,21.03,18.69,12.98,7.77
Noicattaro,41.03449,16.98963,IT,21988,3172228,Noicattaro,8.89,10.91,12.67,13.78,18.33,22.25,24.88,24.26,21.23,18.73,14.0,8.55
Noci,40.79356,17.12681,IT,15383,3172240,Noci,6.83,9.16,11.19,12.27,17.34,21.56,24.29,23.38,19.83,17.43,12.13,6.55
Nocera Superiore,40.74248,14.67447,IT,23452,3172243,Nocera Superiore,9.79,11.89,12.31,13.45,18.02,21.29,24.46,24.2,21.38,19.43,14.12,9.19
Nocera Inferiore,40.7454,14.64542,IT,45608,3172244,Nocera Inferiore,9.32,11.62,12.17,13.43,17.99,21.42,24.6,24.27,21.43,19.33,13.81,8.78
Nichelino,45.00031,7.65305,IT,47760,3172269,Nichelino,0.67,6.79,9.58,9.67,16.21,18.47,22.53,22.17,17.97,12.98,5.22,-0.58
Nettuno,41.45794,12.66393,IT,49873,3172287,Nettuno,9.04,11.27,12.0,13.16,18.1,21.22,24.53,24.18,21.3,19.25,13.42,8.36
Nerviano,45.55343,8.9792,IT,17030,3172297,Nerviano,1.5,6.05,9.89,10.65,17.09,19.01,22.32,22.32,18.13,13.92,6.22,0.76
Nardò,40.17953,18.03174,IT,29668,3172379,Nardò,9.95,11.8,13.49,14.7,18.88,22.68,26.04,25.46,22.21,19.61,15.31,10.0
Naples,40.85216,14.26811,IT,909048,3172394,Naples,8.72,11.15,11.87,13.28,17.81,21.31,24.48,24.09,21.27,19.0,13.46,8.27
Mugnano di Napoli,40.90936,14.20984,IT,34231,3172472,Mugnano di Napoli,8.64,10.9,11.46,12.74,17.25,20.65,23.8,23.51,20.8,18.65,13.18,8.06
Muggiò,45.58878,9.22784,IT,23193,3172479,Muggiò,1.38,5.96,9.64,10.42,16.88,18.81,22.03,21.95,17.71,13.81,6.03,0.63
Monza,45.58005,9.27246,IT,124398,3172629,Monza,1.32,5.9,9.52,10.33,16.8,18.71,21.9,21.8,17.54,13.78,5.97,0.55
Montichiari,45.41317,10.39799,IT,15030,3172681,Montichiari,2.93,6.72,10.05,10.91,17.69,19.93,23.45,23.42,18.35,14.72,7.56,2.28
Montevarchi,43.5252,11.57238,IT,18682,3172718,Montevarchi,4.52,8.86,10.22,11.22,17.03,20.67,23.88,23.2,19.49,16.64,9.37,4.36
Montesilvano Marina,42.5114,14.14507,IT,45991,3172729,Montesilvano Marina,6.59,9.06,11.08,12.37,17.93,21.41,23.89,23.48,19.79,17.07,11.34,5.74
Monterotondo,42.05159,12.61969,IT,37225,3172768,Monterotondo,4.76,8.65,10.21,11.45,17.13,20.79,24.38,23.37,19.81,17.45,10.1,4.59
Montemurlo,43.92686,11.03718,IT,17502,3172828,Montemurlo,4.03,8.46,9.77,10.94,16.83,19.56,22.82,22.74,18.66,15.82,8.65,3.21
Montecchio Maggiore-Alte Ceccato,45.50369,11.412,IT,20815,3172979,Montecchio Maggiore-Alte Ceccato,2.15,6.47,10.11,10.93,17.62,19.52,22.72,22.75,17.69,14.21,6.87,1.05
Montecatini-Terme,43.88153,10.7723,IT,17954,3172996,Montecatini-Terme,4.05,8.66,10.01,11.27,16.95,19.86,23.06,23.12,18.99,16.12,8.9,3.6
Montebelluna,45.77504,12.04904,IT,26670,3173029,Montebelluna,1.93,5.67,9.13,9.75,16.19,18.08,21.09,21.2,16.07,13.27,6.02,1.08
Monselice,45.239,11.74984,IT,18682,3173124,Monselice,2.2,7.04,10.54,11.69,18.42,20.4,23.53,23.55,18.63,15.08,7.87,2.06
Monopoli,40.94918,17.29717,IT,37738,3173131,Monopoli,10.23,11.97,13.55,14.72,18.9,22.42,25.41,25.09,22.07,19.62,15.4,10.08
Monfalcone,45.80463,13.53292,IT,26706,3173153,Monfalcone,4.99,7.84,10.45,11.21,17.48,19.27,21.94,22.46,17.83,14.98,9.66,4.87
Mondragone,41.11399,13.89157,IT,28683,3173160,Mondragone,10.22,12.24,12.55,13.84,18.1,21.22,24.31,24.24,21.79,19.75,14.7,9.67
Mondovì,44.39603,7.81764,IT,21880,3173162,Mondovì,1.52,6.93,9.25,9.18,15.21,18.37,21.79,20.76,17.44,12.24,4.87,-2.08
Moncalieri,44.9994,7.68236,IT,56134,3173180,Moncalieri,0.62,6.74,9.53,9.62,16.15,18.42,22.49,22.12,17.93,12.93,5.17,-0.63
Molfetta,41.20036,16.59905,IT,59557,3173287,Molfetta,8.5,10.77,12.55,13.81,18.63,22.75,25.22,24.48,21.34,18.82,13.89,8.44
Mola di Bari,41.05997,17.09001,IT,24682,3173302,Mola di Bari,9.79,11.56,13.01,14.11,18.38,21.97,24.75,24.33,21.53,19.07,14.66,9.41
Mogliano Veneto,45.55594,12.24294,IT,21991,3173314,Mogliano Veneto,2.87,6.49,9.91,11.32,17.79,19.66,22.5,22.94,17.85,14.54,7.82,2.77
Modugno,41.08433,16.78342,IT,36384,3173326,Modugno,9.03,11.01,12.62,13.73,18.21,22.07,24.7,24.09,21.2,18.71,14.09,8.71
Modena,44.64783,10.92539,IT,184732,3173331,Modena,2.95,7.76,10.42,11.18,17.75,21.11,23.29,22.68,18.65,14.88,7.86,1.82
Mirano,45.49458,12.10775,IT,15139,3173369,Mirano,3.17,6.73,10.13,11.51,17.92,19.83,22.76,23.15,18.23,14.83,8.14,3.05
Mirandola,44.88515,11.06902,IT,17380,3173370,Mirandola,2.61,7.58,10.99,11.99,18.97,21.7,24.59,24.16,19.54,15.47,8.21,2.19
Mira Taglio,45.4346,12.12942,IT,32881,3173385,Mira Taglio,3.57,7.03,10.29,11.83,18.22,20.15,23.06,23.46,18.78,15.25,8.84,3.55
Minturno,41.26294,13.74583,IT,16236,3173391,Minturno,7.5,9.71,10.62,11.78,16.66,19.87,23.0,22.52,19.66,17.62,11.95,6.91
Milan,45.46427,9.18951,IT,1371498,3173435,Milan,1.14,6.07,9.75,10.57,17.15,19.09,22.39,22.34,18.12,13.86,5.96,0.4
Miano,40.88816,14.25339,IT,23896,3173473,Miano,8.06,10.51,11.22,12.63,17.16,20.66,23.83,23.44,20.62,18.34,12.81,7.62
Mestre,45.49167,12.24538,IT,147662,3173529,Mestre,3.34,6.74,10.1,11.5,17.9,19.79,22.66,23.14,18.23,14.83,8.35,3.26
Mesagne,40.55851,17.80774,IT,26497,3173537,Mesagne,8.92,11.06,13.22,14.48,19.19,23.18,26.04,25.12,21.7,18.95,14.26,8.7
Merano,46.66817,11.15953,IT,41051,3173577,Merano,0.56,5.93,8.69,9.38,15.83,17.64,21.22,20.66,16.59,13.35,5.23,-3.73
Mentana,42.03539,12.64413,IT,17047,3173582,Mentana,5.61,9.14,10.48,11.69,17.19,20.69,24.23,23.19,19.91,17.75,10.66,5.24
Melzo,45.4981,9.42043,IT,18031,3173599,Melzo,1.22,6.09,9.63,10.42,17.04,18.98,22.23,22.12,17.84,13.87,5.94,0.5
Melito di Napoli,40.91948,14.23104,IT,36933,3173614,Melito di Napoli,8.79,11.05,11.6,12.89,17.4,20.8,23.95,23.65,20.95,18.8,13.33,8.21
Melegnano,45.35781,9.3236,IT,16707,3173631,Melegnano,1.03,6.39,10.15,10.99,17.61,19.62,22.97,23.01,18.72,14.18,6.09,0.52
Meda,45.66121,9.15337,IT,22665,3173671,Meda,1.81,6.1,9.77,10.41,16.79,18.63,21.84,21.77,17.58,13.87,6.27,0.53
Matera,40.66599,16.60463,IT,60403,3173721,Matera,5.73,8.7,10.73,11.86,17.24,21.67,24.38,23.23,19.5,16.9,11.01,5.37
Massarosa,43.86638,10.34458,IT,22435,3173754,Massarosa,6.8,10.09,10.9,11.82,17.06,19.6,22.69,23.29,19.49,17.16,10.9,5.86
Massafra,40.58618,17.11635,IT,30875,3173762,Massafra,8.17,10.5,12.83,13.84,19.08,23.28,26.43,25.58,21.47,18.69,13.62,7.99
Massa,44.03541,10.13927,IT,64783,3173775,Massa,7.7,10.2,10.77,11.53,17.06,19.22,22.33,22.89,19.1,16.98,10.98,5.86
Martina Franca,40.70355,17.33814,IT,37685,3173841,Martina Franca,6.95,9.16,11.19,12.21,17.24,21.36,24.24,23.39,19.79,17.4,12.18,6.64
Marino,41.76984,12.65917,IT,44142,3173914,Marino,5.15,8.47,9.57,10.58,15.93,19.35,22.79,21.9,18.85,16.84,9.9,4.6
Marina di Massa,44.0038,10.10674,IT,19092,3173931,Marina di Massa,8.0,10.5,11.07,11.83,17.36,19.52,22.63,23.19,19.4,17.28,11.28,6.16
Marina di Carrara,44.03837,10.04142,IT,25000,3173935,Marina di Carrara,8.25,10.61,11.11,11.82,17.25,19.45,22.5,23.05,19.36,17.24,11.44,6.37
Marigliano,40.9248,14.45612,IT,29901,3173945,Marigliano,8.2,10.86,11.69,13.13,17.7,21.33,24.5,24.0,21.08,18.74,13.03,7.82
Mariano Comense,45.69651,9.1818,IT,22643,3173949,Mariano Comense,1.55,5.85,9.52,10.16,16.55,18.38,21.59,21.51,17.33,13.62,6.02,0.28
Marcianise,41.03064,14.29868,IT,40239,3173995,Marcianise,7.74,10.4,11.36,12.73,17.46,21.09,24.22,23.59,20.63,18.37,12.53,7.26
Marano di Napoli,40.8971,14.18824,IT,49920,3174021,Marano di Napoli,6.84,9.5,10.46,11.83,16.56,20.19,23.32,22.69,19.73,17.47,11.63,6.36
Mantova,45.16031,10.79784,IT,39260,3174051,Mantova,2.42,7.2,10.66,11.33,18.23,20.5,23.8,23.63,18.57,14.89,7.57,1.91
Manfredonia,41.63065,15.91876,IT,56932,3174092,Manfredonia,9.12,11.34,12.94,14.08,19.35,22.88,25.33,24.9,21.95,19.16,14.27,8.83
Manduria,40.39899,17.63726,IT,27411,3174096,Manduria,9.22,11.14,12.98,14.34,18.92,22.72,26.06,25.35,21.89,19.26,14.68,9.17
Malnate,45.79377,8.88104,IT,15466,3174141,Malnate,1.95,5.55,8.99,9.39,15.85,17.67,21.15,21.18,17.16,13.33,5.9,0.27
Magenta,45.46456,8.88453,IT,22566,3174295,Magenta,1.37,6.26,10.12,10.9,17.42,19.37,22.81,22.87,18.62,14.06,6.24,0.6
Maddaloni,41.03578,14.3823,IT,34546,3174358,Maddaloni,7.39,10.32,11.31,12.59,17.46,21.26,24.4,23.63,20.52,18.27,12.24,6.88
Macerata,43.29789,13.45293,IT,30842,3174380,Macerata,4.16,7.52,9.75,10.38,16.35,19.91,22.64,22.11,18.29,15.33,8.96,3.17
Lugo,44.42137,11.91094,IT,21273,3174494,Lugo,3.52,8.03,10.95,11.8,18.6,21.76,23.84,23.99,19.36,15.8,9.24,3.4
Lucera,41.5055,15.3391,IT,32222,3174526,Lucera,5.99,8.71,10.79,11.48,17.77,22.34,24.21,23.45,20.04,17.3,11.19,5.42
Lucca,43.84369,10.50447,IT,81748,3174530,Lucca,5.35,9.41,10.57,11.61,17.13,19.84,23.05,23.35,19.23,16.81,9.85,4.52
Lodi,45.30989,9.50085,IT,40767,3174638,Lodi,1.38,6.85,10.41,11.27,17.86,20.01,23.45,23.25,18.91,14.46,6.48,0.96
Livorno,43.54427,10.32615,IT,157017,3174659,Livorno,7.79,11.16,11.72,12.64,17.78,20.5,23.61,24.28,20.57,17.99,12.09,7.16
Lissone,45.61236,9.23985,IT,37353,3174679,Lissone,1.28,5.86,9.54,10.32,16.78,18.71,21.93,21.85,17.61,13.71,5.93,0.53
Limbiate,45.59951,9.12509,IT,32062,3174719,Limbiate,1.37,5.95,9.74,10.53,16.97,18.89,22.15,22.1,17.91,13.82,6.08,0.63
Lido di Ostia,41.73212,12.27654,IT,85301,3174741,Lido di Ostia,8.72,11.46,12.01,13.17,17.88,21.14,24.37,24.38,21.41,19.38,13.34,8.16
Lido,45.4105,12.36649,IT,15719,3174748,Lido,3.83,6.98,10.21,11.64,18.09,19.88,22.64,23.29,18.5,15.03,9.02,3.87
Legnano,45.59788,8.91506,IT,57589,3174921,Legnano,1.48,5.96,9.76,10.49,16.96,18.87,22.26,22.32,18.09,13.8,6.12,0.66
Legnago,45.19365,11.30227,IT,21646,3174922,Legnago,2.25,7.03,10.63,11.44,18.33,20.28,23.63,23.65,18.57,14.89,7.65,1.71
Lecco,45.85589,9.39704,IT,46580,3174945,Lecco,2.69,6.21,9.84,10.39,16.91,18.69,21.99,21.84,17.81,14.33,6.58,0.53
Lecce,40.35481,18.17244,IT,80695,3174953,Lecce,9.35,11.4,13.38,14.77,19.2,22.99,26.02,25.37,21.93,19.32,14.81,9.37
Latina,41.46614,12.9043,IT,76305,3175058,Latina,7.77,10.26,11.37,12.73,17.94,21.24,24.62,23.97,20.84,18.68,12.56,7.26
La Spezia,44.103,9.82375,IT,93288,3175081,La Spezia,9.71,12.12,12.37,12.64,18.02,20.01,23.07,23.73,20.35,18.12,12.77,8.3
L'Aquila,42.35055,13.39954,IT,33691,3175121,L'Aquila,4.62,7.4,9.25,9.16,14.79,18.78,21.81,21.07,17.46,15.49,7.77,1.33
Lanciano,42.22718,14.39024,IT,34791,3175173,Lanciano,4.74,7.36,9.68,10.7,16.19,20.3,22.24,21.51,18.18,15.65,9.51,3.46
Lainate,45.57176,9.02681,IT,25011,3175238,Lainate,1.48,6.05,9.88,10.65,17.09,19.01,22.32,22.32,18.13,13.92,6.22,0.74
Ladispoli,41.95068,12.075,IT,34204,3175298,Ladispoli,8.61,11.56,12.1,13.29,18.12,21.28,24.65,24.71,21.5,19.42,13.28,8.08
Ivrea,45.46723,7.87617,IT,23599,3175384,Ivrea,1.81,6.71,9.45,9.87,16.34,18.29,22.32,22.69,18.09,13.17,5.58,0.17
Isernia,41.59603,14.23399,IT,16945,3175445,Isernia,4.47,7.23,8.95,10.01,15.38,19.07,22.03,21.14,17.62,15.68,8.86,3.18
Ischia Porto,40.73913,13.951,IT,18192,3175453,Ischia Porto,10.12,12.14,12.45,13.74,18.0,21.12,24.21,24.14,21.69,19.65,14.6,9.57
Ischia,40.73793,13.94862,IT,18564,3175458,Ischia,10.12,12.14,12.45,13.74,18.0,21.12,24.21,24.14,21.69,19.65,14.6,9.57
Pallanza-Intra-Suna,45.93778,8.57088,IT,28911,3175500,Pallanza-Intra-Suna,2.33,6.26,9.58,10.07,16.62,18.35,21.93,22.23,18.02,13.8,6.49,0.8
Imperia,43.88917,8.03933,IT,42328,3175532,Imperia,7.84,11.1,11.96,12.06,17.53,19.8,23.01,23.47,19.77,16.74,10.69,5.78
Imola,44.35916,11.7132,IT,69953,3175537,Imola,3.43,8.09,10.91,11.68,18.36,21.5,23.6,23.69,19.19,15.55,8.95,2.86
Jesi,43.52142,13.24368,IT,36985,3175628,Jesi,5.48,8.8,11.01,11.91,18.11,21.77,24.32,23.78,19.88,16.63,10.6,4.95
Guidonia,41.99232,12.71876,IT,20943,3175678,Guidonia,5.5,9.12,10.54,11.78,17.36,20.94,24.5,23.37,20.03,17.81,10.58,5.13
Grumo Nevano,40.93591,14.25983,IT,17879,3175743,Grumo Nevano,8.46,10.91,11.62,13.03,17.56,21.06,24.23,23.84,21.02,18.74,13.21,8.02
Grugliasco,45.06516,7.57954,IT,36700,3175755,Grugliasco,0.13,6.02,8.87,9.22,15.7,17.95,21.87,21.62,17.45,12.53,4.71,-1.42
Grottaglie,40.53694,17.43723,IT,31320,3175773,Grottaglie,8.68,10.67,12.57,13.82,18.49,22.38,25.65,24.95,21.47,18.74,14.16,8.62
Grottaferrata,41.78664,12.67144,IT,18144,3175775,Grottaferrata,5.21,8.52,9.62,10.63,15.99,19.4,22.84,21.95,18.9,16.89,9.96,4.65
Grosseto,42.76296,11.10941,IT,60922,3175786,Grosseto,7.02,10.96,11.39,12.43,17.86,21.24,24.72,24.78,20.67,18.5,11.83,6.76
Gravina in Puglia,40.81748,16.41915,IT,42210,3175860,Gravina in Puglia,5.5,8.57,10.62,11.69,17.16,21.72,24.21,23.05,19.41,16.83,10.83,5.2
Gragnano,40.68907,14.52036,IT,29082,3175952,Gragnano,8.69,10.99,11.53,12.85,17.37,20.77,23.98,23.7,20.86,18.72,13.23,8.18
Gorizia,45.94088,13.62167,IT,34428,3175986,Gorizia,3.46,6.82,9.9,10.5,16.92,18.59,21.36,21.71,16.71,13.91,8.14,3.1
Gorgonzola,45.53069,9.40531,IT,18979,3175990,Gorgonzola,1.07,5.94,9.48,10.27,16.89,18.83,22.08,21.96,17.7,13.72,5.79,0.35
Giussano,45.70004,9.2089,IT,25916,3176041,Giussano,1.45,5.75,9.42,10.06,16.45,18.28,21.49,21.41,17.23,13.52,5.92,0.18
Giulianova,42.75381,13.9665,IT,20490,3176053,Giulianova,7.32,9.48,11.33,12.69,18.16,21.16,23.82,23.75,19.94,17.22,11.83,6.54
Giugliano in Campania,40.92849,14.20197,IT,80269,3176059,Giugliano in Campania,8.79,11.05,11.6,12.89,17.4,20.8,23.95,23.65,20.95,18.8,13.33,8.21
Giovinazzo,41.185,16.67054,IT,19186,3176072,Giovinazzo,8.6,10.87,12.65,13.91,18.73,22.85,25.32,24.58,21.44,18.92,13.99,8.54
Gioia del Colle,40.79968,16.92298,IT,24184,3176090,Gioia del Colle,6.68,9.25,11.39,12.43,17.57,21.97,24.69,23.62,19.96,17.51,12.14,6.47
Ginosa,40.5769,16.75655,IT,16151,3176097,Ginosa,6.66,9.31,11.39,12.49,17.75,22.1,25.17,24.16,20.14,17.48,11.99,6.35
Ghedi,45.40204,10.27681,IT,16351,3176177,Ghedi,2.7,6.78,10.13,11.07,17.8,20.02,23.52,23.35,18.46,14.78,7.46,2.18
Genzano di Roma,41.70706,12.68904,IT,20582,3176203,Genzano di Roma,4.94,8.1,9.19,10.09,15.44,18.83,22.29,21.34,18.34,16.34,9.53,4.23
Genoa,44.40478,8.94439,IT,580097,3176219,Genoa,6.4,10.75,11.38,12.01,17.54,20.07,23.61,23.4,19.92,16.32,9.8,4.37
Garbagnate Milanese,45.57438,9.07537,IT,25974,3176322,Garbagnate Milanese,1.37,5.95,9.74,10.53,16.97,18.89,22.15,22.1,17.91,13.82,6.08,0.63
Gallipoli,40.05594,17.99088,IT,19176,3176366,Gallipoli,10.5,12.19,13.54,14.75,18.5,22.03,25.47,25.2,22.35,19.83,15.76,10.59
Galliate,45.47942,8.69815,IT,15699,3176379,Galliate,1.35,6.15,10.0,10.7,17.22,19.14,22.71,22.99,18.53,13.88,6.11,0.48
Gallarate,45.66019,8.79164,IT,50439,3176391,Gallarate,2.1,6.17,9.71,10.2,16.61,18.49,21.93,22.1,17.87,13.84,6.41,0.77
Galatina,40.17416,18.17032,IT,19569,3176407,Galatina,9.63,11.56,13.32,14.58,18.78,22.54,25.79,25.22,21.9,19.45,15.06,9.71
Gaeta,41.21408,13.57082,IT,19936,3176438,Gaeta,8.35,10.67,11.78,12.75,17.7,20.98,24.14,23.54,20.66,18.75,12.75,7.73
Fuorigrotta,40.83333,14.2,IT,76521,3176477,Fuorigrotta,8.99,11.25,11.8,13.09,17.6,21.0,24.15,23.85,21.15,19.0,13.53,8.41
Frosinone,41.63976,13.34109,IT,44505,3176515,Frosinone,5.38,8.36,10.1,11.34,16.93,20.48,23.97,22.77,19.23,16.93,10.13,4.3
Frattaminore,40.9558,14.27201,IT,15487,3176560,Frattaminore,7.69,10.35,11.3,12.68,17.41,21.03,24.17,23.54,20.58,18.31,12.48,7.21
Frattamaggiore,40.9414,14.27588,IT,29822,3176561,Frattamaggiore,8.52,10.95,11.67,13.08,17.61,21.11,24.28,23.89,21.07,18.8,13.26,8.07
Frascati,41.8091,12.67942,IT,20036,3176589,Frascati,5.35,8.67,9.77,10.78,16.13,19.55,22.99,22.1,19.05,17.04,10.1,4.8
Francavilla Fontana,40.53123,17.58522,IT,33415,3176603,Francavilla Fontana,8.63,10.69,12.73,14.01,18.77,22.73,25.87,25.02,21.45,18.8,14.09,8.47
Francavilla al Mare,42.42158,14.28217,IT,21095,3176605,Francavilla al Mare,6.72,9.16,11.11,12.31,17.91,21.5,23.87,23.43,19.89,17.11,11.44,5.88
Fossano,44.55077,7.71922,IT,18773,3176639,Fossano,0.51,6.27,8.39,8.41,14.49,17.53,21.04,20.21,16.8,11.9,4.15,-2.34
Fornacelle,43.92377,11.03525,IT,17278,3176722,Fornacelle,3.64,8.32,9.67,10.85,16.62,19.62,22.87,22.74,18.66,15.8,8.55,3.19
Formigine,44.57268,10.84737,IT,34328,3176733,Formigine,2.79,7.56,10.11,10.89,17.42,20.69,22.94,22.28,18.31,14.61,7.55,1.57
Formia,41.25632,13.60888,IT,28521,3176738,Formia,8.35,10.67,11.78,12.75,17.7,20.98,24.14,23.54,20.66,18.75,12.75,7.73
Forlì,44.22177,12.04144,IT,116696,3176746,Forlì,3.84,8.35,10.94,11.81,18.36,21.4,23.56,23.55,19.15,15.8,9.29,3.48
Forio,40.73757,13.86003,IT,15969,3176748,Forio,10.27,12.28,12.61,13.89,18.15,21.27,24.36,24.29,21.84,19.8,14.75,9.72
Fondi,41.35787,13.42718,IT,39762,3176843,Fondi,8.78,11.02,12.01,12.9,17.92,21.22,24.55,23.91,20.95,19.02,13.07,8.05
Follonica,42.92779,10.76451,IT,21163,3176849,Follonica,7.84,11.58,11.91,12.78,18.03,21.19,24.61,25.0,21.11,18.84,12.48,7.52
Foligno,42.95488,12.70268,IT,56918,3176854,Foligno,4.48,8.42,10.14,10.75,16.89,20.86,23.72,23.14,19.18,16.46,9.14,3.41
Foggia,41.45845,15.55188,IT,137032,3176885,Foggia,6.78,9.69,11.98,12.84,19.49,23.77,25.56,24.7,21.26,18.13,12.22,6.47
Fiumicino,41.77093,12.23662,IT,34556,3176923,Fiumicino,8.77,11.51,12.06,13.22,17.93,21.18,24.42,24.43,21.47,19.43,13.39,8.21
Florence,43.77925,11.24626,IT,367150,3176959,Florence,3.97,8.59,9.9,11.02,16.83,19.83,23.11,22.87,18.87,16.1,8.85,3.5
Fiorano,44.53889,10.81166,IT,16278,3176970,Fiorano,2.54,7.31,9.86,10.64,17.17,20.44,22.69,22.03,18.06,14.36,7.3,1.32
Fidenza,44.86694,10.06039,IT,21952,3177029,Fidenza,2.15,7.3,10.3,11.03,17.82,20.63,23.83,23.37,19.11,14.5,6.99,1.28
Ferrara,44.83804,11.62057,IT,132009,3177090,Ferrara,2.76,7.7,10.91,11.98,19.03,21.84,24.27,24.34,19.59,15.64,8.67,2.71
Fermo,43.16296,13.72274,IT,18109,3177099,Fermo,5.13,8.28,10.06,10.67,16.36,19.72,22.4,22.11,18.38,15.79,9.75,4.25
Fasano,40.83625,17.36007,IT,22593,3177171,Fasano,9.25,10.99,12.75,14.1,18.43,22.24,25.09,24.58,21.47,18.82,14.27,8.98
Fano,43.84052,13.01665,IT,60978,3177219,Fano,6.73,9.41,11.35,12.34,18.38,21.85,24.09,23.94,20.31,17.08,11.7,6.4
Falconara Marittima,43.62558,13.39954,IT,25948,3177250,Falconara Marittima,7.12,9.79,11.55,12.42,18.45,21.71,24.19,24.07,20.4,17.15,11.89,6.75
Faenza,44.29007,11.87948,IT,41714,3177300,Faenza,3.56,8.17,10.94,11.8,18.47,21.54,23.66,23.72,19.16,15.64,9.16,3.25
Fabriano,43.33941,12.90327,IT,23230,3177315,Fabriano,4.43,8.22,10.17,10.7,16.84,20.49,23.16,22.49,18.68,15.81,9.33,3.12
Este,45.22338,11.66379,IT,16963,3177337,Este,2.2,7.04,10.54,11.69,18.42,20.4,23.53,23.55,18.63,15.08,7.87,2.06
Ercolano,40.80783,14.35012,IT,53576,3177363,Ercolano,9.14,11.44,11.98,13.3,17.82,21.22,24.43,24.15,21.31,19.17,13.68,8.63
Erba,45.8088,9.22609,IT,16431,3177372,Erba,1.41,5.73,9.31,9.96,16.37,18.19,21.35,21.25,17.03,13.5,5.84,0.14
Empoli,43.71795,10.94758,IT,34394,3177400,Empoli,3.9,8.81,10.19,11.43,17.04,20.25,23.49,23.35,19.27,16.51,9.15,3.95
Eboli,40.61747,15.05693,IT,26183,3177438,Eboli,7.64,10.32,11.33,12.51,17.54,21.16,24.08,23.35,20.14,18.28,12.23,7.14
Domodossola,46.1165,8.29313,IT,17778,3177532,Domodossola,1.41,5.31,7.62,8.07,14.73,17.11,20.97,20.65,16.85,13.12,5.28,-0.73
Desio,45.61831,9.20249,IT,41960,3177608,Desio,1.23,5.81,9.49,10.27,16.72,18.66,21.88,21.8,17.57,13.66,5.88,0.48
Desenzano del Garda,45.47127,10.53559,IT,22665,3177610,Desenzano del Garda,3.77,6.69,10.08,10.76,17.46,19.75,23.25,23.48,18.33,14.86,8.04,2.92
Dalmine,45.64933,9.60617,IT,22881,3177650,Dalmine,0.63,5.03,8.69,9.65,16.24,18.15,21.24,21.03,16.59,13.28,5.24,-0.11
Cusano,45.55187,9.18373,IT,18904,3177664,Cusano,1.53,6.11,9.79,10.57,17.02,18.96,22.18,22.1,17.87,13.96,6.18,0.78
Cuneo,44.39071,7.54828,IT,55980,3177700,Cuneo,1.39,5.95,8.87,8.03,14.57,17.52,20.83,19.87,16.72,11.42,4.3,-2.96
Cremona,45.13325,10.02129,IT,71223,3177838,Cremona,1.56,7.11,10.68,11.51,18.26,20.74,24.36,23.67,19.18,14.68,6.78,1.03
Crema,45.36264,9.68176,IT,31481,3177841,Crema,1.41,6.64,10.13,11.05,17.69,19.78,23.08,22.81,18.43,14.43,6.43,0.97
Corsico,45.43099,9.11093,IT,33669,3178004,Corsico,1.0,6.39,10.22,11.09,17.66,19.68,23.04,23.03,18.79,14.13,6.12,0.4
Correggio,44.76737,10.78345,IT,15571,3178019,Correggio,2.45,7.47,10.65,11.62,18.61,21.67,24.22,23.6,19.24,15.1,7.73,1.92
Cornaredo,45.50128,9.02681,IT,20098,3178074,Cornaredo,1.31,6.22,10.01,10.81,17.35,19.3,22.67,22.66,18.47,14.01,6.18,0.54
Cormano,45.54917,9.15964,IT,20031,3178087,Cormano,1.04,5.97,9.65,10.48,17.05,18.99,22.29,22.24,18.02,13.76,5.86,0.3
Cordenons,45.9836,12.70038,IT,15962,3178112,Cordenons,1.89,5.65,9.58,10.4,17.07,18.58,21.41,21.95,16.44,13.48,6.54,0.48
Corato,41.15171,16.41143,IT,46505,3178131,Corato,7.03,9.56,11.34,12.54,17.49,21.8,24.17,23.29,20.13,17.6,12.42,6.85
Copertino,40.26821,18.0543,IT,23489,3178141,Copertino,9.38,11.45,13.45,14.82,19.28,23.2,26.37,25.65,22.12,19.55,15.01,9.44
Conversano,40.96836,17.11329,IT,22661,3178147,Conversano,8.43,10.3,11.98,13.11,17.53,21.36,24.05,23.5,20.55,18.06,13.43,8.06
Conegliano,45.88805,12.30201,IT,30765,3178197,Conegliano,2.74,6.42,9.95,10.41,16.95,18.73,21.66,22.03,16.72,13.9,6.95,1.54
Como,45.80819,9.0832,IT,84808,3178229,Como,1.83,6.13,9.91,10.58,16.92,18.78,22.02,21.98,17.83,13.92,6.39,0.66
Cologno Monzese,45.53004,9.27795,IT,45786,3178283,Cologno Monzese,1.14,6.05,9.65,10.46,17.06,18.99,22.26,22.19,17.96,13.82,5.91,0.41
Collegno,45.07873,7.56735,IT,46524,3178388,Collegno,0.03,5.92,8.77,9.12,15.6,17.85,21.77,21.52,17.35,12.43,4.61,-1.52
Colleferro,41.72722,13.00481,IT,20736,3178398,Colleferro,6.41,9.35,10.44,11.43,16.79,20.16,23.63,22.71,19.66,17.62,11.02,5.75
Colle di Val d'Elsa,43.42107,11.12739,IT,16625,3178402,Colle di Val d'Elsa,3.97,8.92,9.99,11.0,16.59,19.96,23.24,22.88,19.02,16.39,9.09,3.9
Civitavecchia,42.09325,11.79674,IT,47543,3178587,Civitavecchia,9.6,12.27,12.37,13.44,17.89,20.8,23.96,24.32,21.57,19.61,13.99,8.95
Città di Castello,43.46556,12.2375,IT,22497,3178619,Città di Castello,4.09,8.23,9.89,10.51,16.58,20.06,22.9,22.21,18.49,15.86,8.83,3.5
Cisterna di Latina,41.5908,12.82808,IT,27362,3178631,Cisterna di Latina,7.52,10.24,11.23,12.38,17.61,20.88,24.33,23.57,20.55,18.5,12.14,6.89
Ciriè,45.23486,7.60125,IT,17439,3178650,Ciriè,0.26,5.55,8.43,8.73,15.11,17.46,21.41,21.16,17.05,12.23,4.36,-2.02
Cinisello Balsamo,45.55823,9.21495,IT,75943,3178671,Cinisello Balsamo,1.53,6.11,9.79,10.57,17.02,18.96,22.18,22.1,17.87,13.96,6.18,0.78
Ciampino,41.80064,12.60158,IT,38277,3178738,Ciampino,6.83,9.99,11.01,12.12,17.4,20.81,24.22,23.46,20.41,18.36,11.57,6.27
Chivasso,45.19093,7.88981,IT,23017,3178745,Chivasso,1.55,7.31,10.14,10.46,17.15,19.22,23.54,23.44,18.87,13.78,5.94,0.63
Chioggia,45.21857,12.27774,IT,41897,3178784,Chioggia,4.51,7.96,10.61,12.15,18.64,20.77,23.47,23.93,19.58,16.06,10.37,5.09
Chieti,42.34827,14.16494,IT,44444,3178796,Chieti,4.78,7.54,9.61,10.49,16.07,20.15,22.23,21.54,18.13,15.53,9.43,3.29
Chieri,45.01054,7.82133,IT,36749,3178818,Chieri,0.39,6.8,9.68,9.87,16.42,18.72,22.98,22.61,18.25,13.09,5.24,-0.47
Chiavari,44.31771,9.32241,IT,26572,3178832,Chiavari,8.95,11.4,11.87,12.2,17.62,19.71,22.8,23.51,19.92,17.66,12.02,7.57
Chiari,45.53763,9.92699,IT,15541,3178850,Chiari,1.11,5.4,8.86,9.86,16.5,18.61,21.82,21.52,16.98,13.57,5.73,0.59
Cesenatico,44.19987,12.3991,IT,18925,3178956,Cesenatico,4.39,8.32,11.1,12.15,18.98,22.25,24.31,24.55,19.82,16.3,10.06,4.8
Cesena,44.1391,12.24315,IT,97137,3178957,Cesena,4.05,8.23,10.67,11.61,17.9,21.02,23.23,23.16,19.02,15.82,9.42,3.87
Cesano Maderno,45.62915,9.15189,IT,36986,3178972,Cesano Maderno,1.23,5.81,9.49,10.27,16.72,18.66,21.88,21.8,17.57,13.66,5.88,0.48
Cervia,44.26204,12.34812,IT,28700,3178998,Cervia,4.39,8.28,11.15,12.19,19.14,22.34,24.37,24.7,19.93,16.36,10.11,4.84
Cerveteri,41.9908,12.09082,IT,15883,3178999,Cerveteri,8.46,11.41,11.95,13.14,17.97,21.14,24.5,24.56,21.35,19.28,13.13,7.93
Cernusco sul Naviglio,45.52526,9.33297,IT,29078,3179066,Cernusco sul Naviglio,1.14,6.05,9.65,10.46,17.06,18.99,22.26,22.19,17.96,13.82,5.91,0.41
Cerignola,41.26523,15.89559,IT,54056,3179075,Cerignola,6.56,9.57,11.56,12.5,18.33,22.7,24.93,23.79,20.47,17.62,11.86,6.21
Cercola,40.86043,14.35733,IT,17821,3179109,Cercola,8.0,10.66,11.49,12.93,17.5,21.13,24.3,23.8,20.88,18.54,12.83,7.62
Cento,44.73099,11.28716,IT,18191,3179162,Cento,3.43,8.16,11.1,11.79,18.76,22.02,24.43,24.22,19.68,15.61,8.77,2.48
Ceglie Messapica,40.6462,17.51661,IT,16536,3179218,Ceglie Messapica,7.32,9.55,11.82,12.92,17.96,22.07,25.01,24.07,20.34,17.71,12.71,7.07
Cecina,43.30621,10.51729,IT,22018,3179235,Cecina,9.26,12.21,12.41,13.29,18.09,20.77,23.61,24.43,21.36,19.0,13.34,8.58
Cava Dè Tirreni,40.69954,14.70773,IT,53130,3179337,Cava Dè Tirreni,8.89,10.99,11.41,12.55,17.12,20.39,23.56,23.3,20.48,18.53,13.22,8.29
Cattolica,43.96182,12.73631,IT,16189,3179347,Cattolica,6.37,9.38,11.46,12.47,18.31,21.54,23.57,23.71,20.13,16.96,11.51,6.26
Castiglione delle Stiviere,45.3902,10.48619,IT,18530,3179415,Castiglione delle Stiviere,3.15,6.8,10.15,10.97,17.76,20.05,23.55,23.56,18.39,14.82,7.73,2.42
Castel Volturno,41.03288,13.94354,IT,21881,3179443,Castel Volturno,8.46,10.73,11.61,13.0,17.86,21.26,24.4,23.82,20.95,18.69,13.13,7.91
Castel Maggiore,44.57707,11.36071,IT,16068,3179560,Castel Maggiore,3.29,8.03,11.03,11.72,18.6,22.04,24.18,24.15,19.57,15.59,8.72,2.49
Castellammare di Stabia,40.70211,14.48685,IT,66164,3179661,Castellammare di Stabia,9.39,11.69,12.23,13.55,18.07,21.47,24.68,24.4,21.56,19.42,13.93,8.88
Castelfranco Veneto,45.67146,11.92755,IT,25545,3179684,Castelfranco Veneto,1.81,5.74,9.4,10.37,16.79,18.67,21.67,21.86,16.58,13.48,6.19,1.32
Castelfranco Emilia,44.59445,11.04979,IT,17315,3179686,Castelfranco Emilia,2.95,7.77,10.51,11.25,17.87,21.29,23.45,22.92,18.82,14.96,7.99,1.88
Cassino,41.48581,13.82835,IT,21074,3179781,Cassino,6.77,9.53,11.0,12.12,17.35,20.95,24.15,23.17,19.97,17.81,11.4,6.03
Cassano d'Adda,45.52637,9.51528,IT,17267,3179795,Cassano d'Adda,1.09,5.9,9.37,10.18,16.8,18.78,22.0,21.81,17.51,13.7,5.77,0.38
Casoria,40.90751,14.293,IT,73918,3179806,Casoria,8.36,10.81,11.52,12.93,17.46,20.96,24.13,23.74,20.92,18.64,13.11,7.92
Caserta,41.07262,14.33231,IT,72844,3179866,Caserta,6.7,9.58,10.76,12.07,17.05,20.71,23.86,23.08,20.0,17.71,11.61,6.23
Cascina,43.67557,10.55494,IT,40512,3179977,Cascina,4.88,9.41,10.79,12.02,17.44,20.41,23.54,23.77,19.73,17.02,10.0,4.71
Casamassima,40.95653,16.92075,IT,18380,3180133,Casamassima,7.86,9.99,11.83,12.92,17.57,21.59,24.17,23.47,20.38,17.88,13.03,7.53
Casalnuovo di Napoli,40.90969,14.34205,IT,45796,3180172,Casalnuovo di Napoli,8.56,11.01,11.72,13.13,17.66,21.16,24.33,23.94,21.12,18.84,13.31,8.12
Casale Monferrato,45.13338,8.4525,IT,33213,3180208,Casale Monferrato,0.49,6.61,10.25,11.0,17.34,20.04,23.92,23.21,18.92,14.01,5.62,-0.7
Casalecchio di Reno,44.47563,11.27495,IT,33789,3180224,Casalecchio di Reno,3.44,8.16,11.03,11.63,18.31,21.83,23.91,23.75,19.36,15.37,8.63,2.36
Casal di Principe,41.00996,14.13013,IT,20589,3180240,Casal di Principe,8.81,11.04,11.76,13.1,17.74,21.13,24.28,23.87,21.09,18.89,13.42,8.23
Carugate,45.54983,9.34044,IT,15368,3180389,Carugate,1.04,5.95,9.55,10.36,16.96,18.89,22.16,22.09,17.86,13.72,5.81,0.31
Carrara,44.07926,10.09789,IT,58666,3180423,Carrara,7.4,9.9,10.47,11.23,16.76,18.92,22.03,22.59,18.8,16.68,10.68,5.56
Carpi Centro,44.78237,10.8777,IT,71148,3180445,Carpi Centro,2.59,7.59,10.73,11.7,18.65,21.69,24.24,23.64,19.27,15.26,7.92,2.02
Carmagnola,44.84963,7.72032,IT,23012,3180496,Carmagnola,0.68,6.88,9.52,9.49,15.87,18.43,22.36,21.64,17.79,12.86,5.15,-0.9
Cardito,40.9459,14.29952,IT,22239,3180541,Cardito,8.62,11.05,11.77,13.18,17.71,21.21,24.38,23.99,21.17,18.9,13.36,8.17
Carate Brianza,45.67574,9.23723,IT,15404,3180581,Carate Brianza,1.61,5.9,9.57,10.21,16.59,18.43,21.64,21.57,17.38,13.67,6.07,0.33
Capua,41.10519,14.21269,IT,15438,3180601,Capua,7.37,10.12,11.22,12.55,17.49,21.1,24.26,23.51,20.49,18.19,12.25,6.93
Capannori,43.84171,10.57271,IT,41116,3180733,Capannori,4.97,9.27,10.51,11.66,17.2,19.99,23.17,23.37,19.29,16.68,9.62,4.29
Cantù,45.74096,9.13084,IT,39917,3180758,Cantù,1.75,5.33,9.01,9.51,15.99,17.76,21.12,21.07,17.05,13.34,5.75,-0.1
Canosa di Puglia,41.21954,16.06768,IT,29847,3180792,Canosa di Puglia,6.88,9.84,11.66,12.83,18.2,22.72,24.98,23.92,20.65,17.98,12.35,6.61
Campobasso,41.55947,14.66737,IT,49230,3180991,Campobasso,4.12,6.72,8.35,8.95,14.42,18.58,21.18,20.68,17.02,14.93,8.43,2.78
Campi Bisenzio,43.8245,11.13027,IT,32871,3181018,Campi Bisenzio,4.02,8.64,9.95,11.07,16.88,19.88,23.16,22.92,18.92,16.15,8.9,3.56
Camaiore,43.94265,10.29754,IT,26746,3181125,Camaiore,6.65,9.93,10.74,11.67,16.91,19.45,22.53,23.14,19.34,17.01,10.75,5.71
Caivano,40.95753,14.30591,IT,34604,3181258,Caivano,7.79,10.45,11.4,12.78,17.51,21.13,24.27,23.64,20.68,18.41,12.58,7.31
Busto Arsizio,45.61128,8.84914,IT,83405,3181355,Busto Arsizio,1.5,5.92,9.64,10.29,16.77,18.68,22.13,22.3,17.98,13.69,6.06,0.61
Bussolengo,45.46903,10.85371,IT,15170,3181359,Bussolengo,3.61,7.05,10.63,11.04,17.86,20.08,23.57,23.83,18.36,14.71,7.98,2.08
Brusciano,40.92237,14.42386,IT,15238,3181471,Brusciano,8.2,10.86,11.69,13.13,17.7,21.33,24.5,24.0,21.08,18.74,13.03,7.82
Brugherio,45.55301,9.29907,IT,33061,3181495,Brugherio,1.47,6.05,9.66,10.48,16.95,18.86,22.05,21.95,17.69,13.93,6.11,0.7
Brindisi,40.63215,17.93607,IT,87141,3181528,Brindisi,9.35,11.46,13.56,14.93,19.52,23.47,26.23,25.37,22.08,19.29,14.65,9.14
Bresso,45.53792,9.18921,IT,25712,3181548,Bresso,1.1,6.02,9.7,10.52,17.1,19.04,22.34,22.3,18.07,13.81,5.91,0.35
Bressanone,46.71503,11.65598,IT,15868,3181550,Bressanone,0.32,4.34,6.83,7.5,13.96,16.1,19.24,19.31,14.32,11.65,3.36,-3.62
Brescia,45.53558,10.21472,IT,200423,3181554,Brescia,2.21,5.79,9.17,10.05,16.73,18.88,22.34,22.26,17.5,14.1,6.66,1.72
Bra,44.69776,7.85128,IT,24072,3181631,Bra,0.33,6.93,9.61,9.95,16.03,18.99,23.14,22.19,18.36,12.99,5.07,-1.31
Bovisio-Masciago,45.61019,9.15301,IT,16542,3181641,Bovisio-Masciago,1.33,5.91,9.59,10.37,16.82,18.76,21.98,21.9,17.67,13.76,5.98,0.58
Boscoreale,40.77274,14.48118,IT,26861,3181683,Boscoreale,8.1,10.76,11.59,13.03,17.6,21.23,24.4,23.9,20.98,18.64,12.93,7.72
Borgomanero,45.69873,8.4623,IT,20430,3181790,Borgomanero,1.47,5.57,8.64,8.97,15.47,17.25,20.79,21.02,16.68,12.69,5.45,-0.65
Bolzano,46.49067,11.33982,IT,107436,3181913,Bolzano,2.17,7.82,10.01,10.7,16.99,18.6,22.02,21.26,17.49,14.33,6.76,-2.56
Bologna,44.49381,11.33875,IT,394843,3181928,Bologna,3.44,8.16,11.03,11.63,18.31,21.83,23.91,23.75,19.36,15.37,8.63,2.36
Bollate,45.54647,9.12054,IT,35235,3181931,Bollate,1.14,6.06,9.8,10.62,17.17,19.12,22.45,22.41,18.23,13.86,5.99,0.39
Bitonto,41.11006,16.69086,IT,51661,3181995,Bitonto,8.42,10.57,12.33,13.47,18.1,22.14,24.69,23.97,20.93,18.46,13.61,8.15
Bisceglie,41.24264,16.50104,IT,55385,3182007,Bisceglie,8.56,10.92,12.69,13.93,18.83,23.02,25.46,24.67,21.52,18.98,13.95,8.47
Biella,45.56304,8.05796,IT,43030,3182043,Biella,0.65,5.15,7.62,7.96,14.6,16.55,20.22,20.37,16.06,11.72,3.99,-1.86
Bergamo,45.69601,9.66721,IT,121200,3182164,Bergamo,1.14,5.26,8.79,9.71,16.24,18.17,21.25,20.96,16.5,13.53,5.45,-0.5
Benevento,41.1307,14.77816,IT,58418,3182179,Benevento,6.74,9.75,11.07,12.27,17.75,21.8,24.62,23.94,20.08,17.87,11.41,5.93
Belluno,46.14262,12.2156,IT,25064,3182210,Belluno,1.31,4.7,8.04,8.14,14.57,16.46,19.44,19.55,14.57,12.06,4.87,-0.93
Battipaglia,40.60861,14.98209,IT,47104,3182272,Battipaglia,8.26,10.58,11.42,12.72,17.59,20.96,24.03,23.52,20.37,18.42,12.8,7.8
Bastia umbra,43.06425,12.54612,IT,17831,3182289,Bastia umbra,4.71,8.72,10.48,11.18,17.39,21.37,24.12,23.45,19.5,16.7,9.56,3.98
Bassano del Grappa,45.76656,11.72739,IT,38224,3182297,Bassano del Grappa,1.7,5.67,9.57,10.33,16.83,18.61,21.61,21.61,16.63,13.37,6.1,0.21
Barra,40.84255,14.31849,IT,36642,3182336,Barra,8.72,11.15,11.87,13.28,17.81,21.31,24.48,24.09,21.27,19.0,13.46,8.27
Barletta,41.31429,16.28165,IT,93279,3182340,Barletta,8.36,10.75,12.36,13.61,18.53,22.56,24.99,24.35,21.23,18.62,13.62,8.16
Bari,41.12066,16.86982,IT,316491,3182351,Bari,9.67,11.52,13.02,14.12,18.47,22.18,24.9,24.39,21.56,19.08,14.6,9.29
Bareggio,45.47927,8.99789,IT,16546,3182361,Bareggio,1.36,6.27,10.06,10.86,17.4,19.35,22.72,22.71,18.52,14.06,6.23,0.59
Bagnoli,40.81322,14.16807,IT,23333,3182518,Bagnoli,8.82,11.25,11.97,13.38,17.91,21.41,24.58,24.19,21.37,19.1,13.56,8.37
Bacoli,40.79672,14.07349,IT,25590,3182599,Bacoli,10.0,12.09,12.47,13.75,18.18,21.55,24.69,24.42,21.79,19.69,14.38,9.33
Avezzano,42.02896,13.42641,IT,37808,3182636,Avezzano,3.94,6.83,8.63,8.57,14.37,18.45,21.42,20.53,17.07,14.84,7.29,0.58
Aversa,40.97259,14.20745,IT,52974,3182640,Aversa,8.14,10.55,11.41,12.75,17.43,20.92,24.06,23.55,20.71,18.49,12.84,7.62
Avellino,40.91494,14.79103,IT,48104,3182650,Avellino,7.31,9.73,10.43,11.55,16.27,19.83,22.92,22.38,19.49,17.46,11.77,6.72
Asti,44.90162,8.20751,IT,74348,3182714,Asti,1.17,7.62,10.75,11.35,17.46,20.15,24.06,23.22,19.18,13.98,6.11,-0.52
Ascoli Piceno,42.85351,13.57395,IT,41741,3182749,Ascoli Piceno,5.72,8.46,10.18,11.11,16.56,19.81,22.46,22.19,18.59,16.1,10.23,4.74
Arzignano,45.52027,11.33446,IT,21247,3182757,Arzignano,2.16,6.41,10.01,10.72,17.48,19.42,22.65,22.71,17.6,14.11,6.8,0.91
Arzano,40.90959,14.26519,IT,34933,3182765,Arzano,8.32,10.75,11.47,12.88,17.41,20.91,24.08,23.69,20.87,18.6,13.06,7.87
Ariccia,41.72063,12.6723,IT,17487,3182851,Ariccia,5.1,8.25,9.34,10.24,15.59,18.98,22.43,21.49,18.49,16.49,9.68,4.38
Arezzo,43.46276,11.88068,IT,100734,3182884,Arezzo,3.84,8.12,9.51,10.45,16.29,19.92,23.07,22.41,18.74,15.88,8.66,3.62
Arese,45.55048,9.07741,IT,19138,3182886,Arese,1.47,6.05,9.84,10.63,17.07,18.99,22.25,22.2,18.01,13.92,6.18,0.73
Ardea,41.60742,12.54158,IT,17078,3182897,Ardea,8.55,11.47,12.08,13.42,18.28,21.44,24.59,24.26,21.58,19.66,13.33,8.03
Arcore,45.62675,9.32454,IT,16690,3182904,Arcore,1.17,5.75,9.36,10.18,16.65,18.56,21.75,21.65,17.39,13.63,5.81,0.4
Aprilia,41.59452,12.65419,IT,74977,3182957,Aprilia,7.87,10.43,11.33,12.54,17.63,20.86,24.25,23.65,20.69,18.64,12.47,7.25
Aosta,45.73764,7.31722,IT,35261,3182997,Aosta,1.67,5.43,7.3,7.21,14.1,17.35,21.89,21.64,16.96,12.83,3.51,-2.22
Anzio,41.45263,12.62157,IT,45403,3183005,Anzio,8.5,11.41,12.02,13.37,18.23,21.39,24.54,24.21,21.53,19.61,13.28,7.99
Angri,40.73815,14.5707,IT,31632,3183063,Angri,9.52,11.82,12.38,13.63,18.19,21.62,24.8,24.47,21.63,19.53,14.01,8.98
Andria,41.23117,16.29797,IT,99784,3183072,Andria,7.31,10.02,11.78,12.96,18.01,22.4,24.74,23.79,20.61,18.07,12.73,7.1
Ancona,43.5942,13.50337,IT,89994,3183089,Ancona,7.43,9.97,11.66,12.49,18.5,21.65,24.17,24.15,20.49,17.25,12.1,7.03
Altamura,40.82664,16.54952,IT,70539,3183178,Altamura,5.03,8.09,10.05,10.97,16.38,20.95,23.4,22.22,18.71,16.33,10.38,4.75
Alpignano,45.09346,7.52392,IT,16598,3183187,Alpignano,0.23,5.8,8.64,9.09,15.51,17.86,21.67,21.34,17.32,12.5,4.62,-1.89
Alghero,40.55969,8.31953,IT,34261,3183284,Alghero,10.69,12.69,12.58,13.69,18.7,21.97,24.35,24.95,22.6,20.53,14.1,9.72
Alessandria,44.90924,8.61007,IT,92104,3183299,Alessandria,0.97,7.3,10.07,10.76,16.95,20.0,23.98,23.04,19.19,13.9,5.93,-0.71
Albignasego,45.34705,11.86781,IT,16477,3183319,Albignasego,2.69,6.92,10.43,11.78,18.36,20.34,23.39,23.56,18.7,15.1,8.13,2.59
Albenga,44.04997,8.21829,IT,17103,3183343,Albenga,7.84,11.1,11.96,12.06,17.53,19.8,23.01,23.47,19.77,16.74,10.69,5.78
Albano Laziale,41.72748,12.659,IT,26684,3183356,Albano Laziale,5.58,8.58,9.62,10.64,15.89,19.24,22.68,21.86,18.9,16.89,10.23,4.91
Alba,44.6999,8.0347,IT,24923,3183364,Alba,1.17,7.82,10.73,11.34,17.34,20.12,24.2,23.27,19.28,13.89,6.14,-0.49
Agropoli,40.34923,14.99067,IT,17335,3183412,Agropoli,9.77,11.81,12.32,13.72,18.33,21.62,24.69,24.28,21.61,19.85,14.44,9.55
Afragola,40.92298,14.30935,IT,64470,3183455,Afragola,8.56,11.01,11.72,13.13,17.66,21.16,24.33,23.94,21.12,18.84,13.31,8.12
Adelfia,41.0033,16.87208,IT,16756,3183472,Adelfia,8.36,10.49,12.33,13.42,18.07,22.09,24.67,23.97,20.88,18.38,13.53,8.03
Acqui Terme,44.67552,8.46934,IT,17828,3183490,Acqui Terme,2.05,8.07,10.12,10.85,16.79,19.63,23.41,22.6,18.97,13.8,6.61,-0.27
Acquaviva delle Fonti,40.89704,16.8433,IT,20536,3183494,Acquaviva delle Fonti,6.93,9.46,11.54,12.5,17.49,21.85,24.47,23.35,19.91,17.55,12.2,6.57
Acilia-Castel Fusano-Ostia Antica,41.76337,12.33078,IT,129362,3183539,Acilia-Castel Fusano-Ostia Antica,8.72,11.46,12.01,13.17,17.88,21.14,24.37,24.38,21.41,19.38,13.34,8.16
Acerra,40.94477,14.3714,IT,59910,3183541,Acerra,8.2,10.86,11.69,13.13,17.7,21.33,24.5,24.0,21.08,18.74,13.03,7.82
Abbiategrasso,45.39821,8.91678,IT,32784,3183573,Abbiategrasso,1.03,6.41,10.31,11.19,17.72,19.76,23.24,23.3,18.98,14.16,6.16,0.4
Abano Terme,45.35753,11.78725,IT,18224,3183587,Abano Terme,2.28,6.53,10.06,11.3,17.87,19.8,22.9,23.05,18.09,14.56,7.35,1.93
Spinea-Orgnano,45.49107,12.155,IT,23710,3219114,Spinea-Orgnano,3.34,6.74,10.1,11.5,17.9,19.79,22.66,23.14,18.23,14.83,8.35,3.26
Verbania,45.92136,8.55183,IT,31070,6457398,Verbania,2.38,6.31,9.63,10.12,16.67,18.4,21.98,22.28,18.07,13.85,6.54,0.84
Lumezzane,45.64789,10.26487,IT,23712,6534216,Lumezzane,1.44,4.35,7.52,8.2,14.76,17.04,20.47,20.45,15.85,12.83,5.45,0.45
Guidonia Montecelio,41.99362,12.72238,IT,67516,6534228,Guidonia Montecelio,5.5,9.12,10.54,11.78,17.36,20.94,24.5,23.37,20.03,17.81,10.58,5.13
Lamezia Terme,38.96255,16.30938,IT,70501,6534232,Lamezia Terme,10.15,11.93,12.37,13.72,17.71,21.26,23.89,23.9,21.74,19.84,14.74,10.04
Caronno Pertusella,45.59777,9.04634,IT,16377,6534234,Caronno Pertusella,1.4,5.95,9.79,10.55,16.99,18.91,22.22,22.22,18.03,13.82,6.12,0.66
Cassano Magnago,45.67206,8.82691,IT,21208,6534235,Cassano Magnago,2.0,6.07,9.61,10.1,16.51,18.39,21.83,22.0,17.77,13.74,6.31,0.67
San Felice A Cancello,41.01702,14.48736,IT,16571,6534252,San Felice A Cancello,7.19,10.12,11.11,12.39,17.26,21.06,24.2,23.43,20.32,18.07,12.04,6.68
San Nicola la Strada,41.05237,14.33334,IT,21147,6534253,San Nicola la Strada,6.85,9.73,10.91,12.22,17.2,20.86,24.01,23.23,20.15,17.86,11.75,6.39
Quarto,40.87822,14.14352,IT,37683,6534256,Quarto,9.7,11.79,12.17,13.45,17.88,21.25,24.39,24.12,21.49,19.39,14.08,9.03
Orta di Atella,40.96441,14.26854,IT,24750,6534264,Orta di Atella,7.74,10.4,11.36,12.73,17.46,21.09,24.22,23.59,20.63,18.37,12.53,7.26
Casavatore,40.89921,14.27663,IT,18663,6534267,Casavatore,8.26,10.71,11.42,12.83,17.36,20.86,24.03,23.64,20.82,18.54,13.01,7.82
Volla,40.87363,14.34085,IT,22911,6534268,Volla,8.66,11.11,11.82,13.23,17.76,21.26,24.43,24.04,21.22,18.94,13.41,8.22
Gravina di Catania,37.56085,15.06292,IT,26524,6534275,Gravina di Catania,9.44,11.59,12.15,13.38,17.32,22.03,24.51,23.85,22.38,19.43,14.07,9.03
Cesano Boscone,45.44207,9.09445,IT,23368,6534280,Cesano Boscone,1.0,6.39,10.22,11.09,17.66,19.68,23.04,23.03,18.79,14.13,6.12,0.4
Tor Lupara,41.99771,12.61814,IT,20843,6534284,Tor Lupara,5.07,8.87,10.35,11.73,17.37,20.97,24.52,23.48,20.03,17.73,10.46,4.93
Torvaianica,41.62112,12.46197,IT,17235,6620312,Torvaianica,8.6,11.51,12.12,13.47,18.33,21.49,24.64,24.31,21.63,19.71,13.38,8.09
Casal Palocco,41.74845,12.34726,IT,32706,6698333,Casal Palocco,8.72,11.46,12.01,13.17,17.88,21.14,24.37,24.38,21.41,19.38,13.34,8.16
Bellaria-Igea Marina,44.14255,12.47154,IT,17635,8224092,Bellaria-Igea Marina,5.36,8.77,11.13,12.26,18.47,21.68,23.75,23.93,19.89,16.56,10.75,5.54
Villanova,41.96357,12.75633,IT,15117,8378910,Villanova,5.7,9.32,10.74,11.98,17.56,21.14,24.7,23.57,20.23,18.01,10.78,5.33
Marina di Ardea-Tor San Lorenzo,41.55439,12.54115,IT,20216,8394392,Marina di Ardea-Tor San Lorenzo,8.6,11.51,12.12,13.47,18.33,21.49,24.64,24.31,21.63,19.71,13.38,8.09
San Paolo,41.12476,16.79258,IT,29800,8948703,San Paolo,9.28,11.26,12.87,13.98,18.46,22.32,24.95,24.34,21.45,18.96,14.34,8.96
Monterusciello,40.86874,14.08276,IT,29125,8948704,Monterusciello,9.35,11.44,11.82,13.1,17.53,20.9,24.05,23.76,21.14,19.04,13.73,8.68
Romano Banco,45.42309,9.10707,IT,26163,8948705,Romano Banco,1.05,6.44,10.27,11.14,17.71,19.73,23.09,23.08,18.84,14.18,6.17,0.45
Casa Santa,38.02514,12.5484,IT,23880,8948706,Casa Santa,12.67,14.08,14.03,15.27,18.95,22.83,25.1,25.65,24.36,22.3,16.74,12.31
Arpino,40.88882,14.32015,IT,19988,8948708,Arpino,8.66,11.11,11.82,13.23,17.76,21.26,24.43,24.04,21.22,18.94,13.41,8.22
Paolo VI,40.52218,17.27401,IT,17330,8948709,Paolo VI,9.08,11.06,12.97,14.24,18.92,22.75,26.07,25.47,21.98,19.17,14.62,9.11
Corigliano Scalo,39.62713,16.51368,IT,15136,9003711,Corigliano Scalo,9.04,11.45,12.79,13.83,18.51,22.56,25.57,24.84,21.74,19.23,13.82,8.92
Stella,40.86027,14.25223,IT,30483,10294260,Stella,8.42,10.85,11.57,12.98,17.51,21.01,24.18,23.79,20.97,18.7,13.16,7.97
San Carlo All'Arena,40.86511,14.26291,IT,69094,10295350,San Carlo All'Arena,8.46,10.91,11.62,13.03,17.56,21.06,24.23,23.84,21.02,18.74,13.21,8.02
Chiaia,40.83255,14.22677,IT,38356,12070058,Chiaia,8.72,11.15,11.87,13.28,17.81,21.31,24.48,24.09,21.27,19.0,13.46,8.27
Chiaiano,40.88101,14.20759,IT,23396,12070059,Chiaiano,6.49,9.15,10.1,11.48,16.21,19.83,22.97,22.34,19.38,17.11,11.28,6.01
Vicaria,40.86151,14.27328,IT,15062,12070060,Vicaria,8.66,11.11,11.82,13.23,17.76,21.26,24.43,24.04,21.22,18.94,13.41,8.22
San Ferdinando,40.83342,14.24751,IT,18404,12070061,San Ferdinando,9.7,11.79,12.17,13.45,17.88,21.25,24.39,24.12,21.49,19.39,14.08,9.03
Pendino,40.84708,14.26321,IT,16848,12070063,Pendino,8.66,11.11,11.82,13.23,17.76,21.26,24.43,24.04,21.22,18.94,13.41,8.22
Arenella,40.85734,14.2228,IT,67634,12070064,Arenella,6.44,9.1,10.06,11.43,16.16,19.79,22.92,22.29,19.33,17.07,11.23,5.96
Avvocata,40.85432,14.24325,IT,33001,12070065,Avvocata,8.74,11.0,11.56,12.84,17.35,20.75,23.9,23.61,20.9,18.75,13.28,8.16
Montecalvario,40.84436,14.24555,IT,23050,12070066,Montecalvario,8.94,11.2,11.76,13.04,17.55,20.95,24.1,23.81,21.1,18.95,13.48,8.36
Scampia,40.90347,14.23736,IT,39060,12070067,Scampia,8.74,11.0,11.56,12.84,17.35,20.75,23.9,23.61,20.9,18.75,13.28,8.16
San Pietro a Patierno,40.88566,14.29008,IT,17324,12070069,San Pietro a Patierno,8.36,10.81,11.52,12.93,17.46,20.96,24.13,23.74,20.92,18.64,13.11,7.92
San Lorenzo,40.85686,14.26481,IT,48078,12070070,San Lorenzo,8.66,11.11,11.82,13.23,17.76,21.26,24.43,24.04,21.22,18.94,13.41,8.22
Monte Rosello,40.73542,8.56771,IT,45000,12188754,Monte Rosello,8.67,11.39,10.95,12.04,16.86,20.59,23.15,23.36,21.07,18.89,12.09,7.64
Arcella,45.42178,11.88755,IT,44000,12188755,Arcella,2.5,6.6,10.12,11.47,18.0,19.93,23.0,23.2,18.29,14.73,7.68,2.32
Casal de' Pazzi,41.92884,12.56582,IT,27206,12188855,Casal de' Pazzi,6.46,9.87,11.12,12.46,17.89,21.34,24.87,23.96,20.7,18.55,11.54,6.18
Giardinetti-Tor Vergata,41.85305,12.61853,IT,20680,12188858,Giardinetti-Tor Vergata,6.26,9.67,10.92,12.26,17.69,21.14,24.67,23.76,20.5,18.35,11.34,5.98
Casal Bertone,41.89821,12.53413,IT,16273,12188859,Casal Bertone,6.76,10.04,11.16,12.5,17.8,21.21,24.68,23.99,20.74,18.61,11.79,6.46
