name,latitude,longitude,country,population,id,city,jan,feb,mar,apr,may,jun,jul,aug,sep,oct,nov,dec
Vittoria,36.95151,14.52788,IT,50852,2522713,Vittoria,11.06,9.96,12.82,16.07,19.16,22.43,25.13,26.0,22.81,20.88,15.04,11.88
Villabate,38.07789,13.44275,IT,19031,2522767,Villabate,11.49,9.93,13.43,16.52,18.95,22.03,25.63,26.61,23.32,21.77,15.56,12.54
Vibo Valentia,38.67618,16.10094,IT,19263,2522776,Vibo Valentia,8.33,7.25,10.36,13.55,16.56,19.57,22.75,24.06,20.28,18.31,12.58,9.41
Trapani,38.0176,12.53617,IT,67531,2522876,Trapani,13.27,11.51,14.21,16.78,18.97,22.09,26.1,26.97,23.85,22.45,16.57,13.92
Termini Imerese,37.98225,13.69729,IT,22957,2522960,Termini Imerese,11.27,9.83,13.16,16.43,18.76,21.66,25.29,26.25,22.89,21.45,15.52,12.33
Siracusa,37.07542,15.28664,IT,121605,2523083,Siracusa,11.17,10.4,13.41,16.34,19.58,23.25,26.36,27.32,23.95,21.46,15.62,12.1
Sinnai,39.30286,9.20283,IT,15791,2523087,Sinnai,9.93,8.32,11.83,14.76,16.74,20.97,25.62,25.83,21.75,20.94,13.56,10.88
Siderno,38.26993,16.29607,IT,15651,2523113,Siderno,10.71,9.58,12.33,15.68,18.75,22.41,25.87,26.88,22.7,19.95,15.1,11.4
Sestu,39.29846,9.09248,IT,18191,2523136,Sestu,10.15,8.73,12.14,14.94,16.98,21.15,26.08,26.41,22.09,20.99,13.83,10.99
Selargius,39.25779,9.16323,IT,23285,2523166,Selargius,10.35,8.93,12.34,15.14,17.18,21.35,26.28,26.61,22.29,21.19,14.03,11.19
Scordia,37.29548,14.84058,IT,16645,2523180,Scordia,8.52,7.46,11.49,15.54,19.26,23.22,26.03,26.45,22.32,19.79,12.79,9.28
Scicli,36.79014,14.7028,IT,16109,2523192,Scicli,11.76,10.65,13.25,16.08,18.79,21.84,24.74,25.84,23.28,21.47,15.78,12.76
Sciacca,37.50693,13.08399,IT,40569,2523194,Sciacca,11.34,9.93,12.76,15.95,18.55,21.73,25.09,25.83,22.78,21.02,15.08,12.13
San Giovanni la Punta,37.5769,15.09371,IT,22046,2523460,San Giovanni la Punta,9.24,8.17,11.7,14.94,18.28,21.88,24.69,25.73,22.06,19.61,13.7,10.38
San Giovanni in Fiore,39.25446,16.69699,IT,17358,2523461,San Giovanni in Fiore,5.08,4.14,8.04,12.04,15.19,18.76,21.0,22.49,18.23,15.74,9.78,6.21
San Cataldo,37.48412,13.98542,IT,22079,2523513,San Cataldo,6.61,5.29,9.29,13.12,16.42,20.33,23.6,24.12,19.88,17.69,10.86,7.23
Sambiase,38.96667,16.28333,IT,20000,2523535,Sambiase,10.35,9.01,11.59,15.08,17.83,20.67,23.8,25.12,21.61,19.75,14.38,11.45
Rossano Stazione,39.59855,16.63485,IT,23824,2523577,Rossano Stazione,9.46,8.44,11.32,15.29,18.28,22.6,25.54,26.93,22.48,19.28,14.12,10.22
Rosolini,36.82145,14.95132,IT,19721,2523581,Rosolini,11.66,10.73,13.1,15.89,18.8,22.09,25.13,26.13,23.36,21.13,15.76,12.42
Ribera,37.49773,13.26676,IT,17664,2523619,Ribera,9.98,8.6,11.68,15.08,17.94,21.29,24.58,25.14,21.76,19.85,13.77,10.61
Reggio Calabria,38.11047,15.66129,IT,182455,2523630,Reggio Calabria,11.22,9.82,12.53,15.84,18.57,21.45,24.7,25.77,22.61,20.5,15.41,12.1
Ragusa,36.92574,14.72443,IT,74251,2523650,Ragusa,8.46,7.55,11.24,14.74,18.22,21.89,24.38,25.06,21.59,19.37,12.84,9.31
Quattromiglia,39.34474,16.23802,IT,22889,2523664,Quattromiglia,9.14,8.18,11.37,15.22,18.12,20.77,24.14,25.59,21.45,19.28,13.72,10.2
Quartu Sant'Elena,39.22935,9.25004,IT,66620,2523665,Quartu Sant'Elena,10.68,9.07,12.58,15.51,17.49,21.72,26.37,26.58,22.5,21.69,14.31,11.63
Pozzallo,36.73028,14.84672,IT,18166,2523693,Pozzallo,12.6,11.66,14.15,17.01,19.95,23.17,26.13,27.14,24.36,22.22,16.73,13.39
Porto Empedocle,37.28942,13.52494,IT,16574,2523705,Porto Empedocle,10.95,9.53,12.66,15.89,18.75,21.94,25.32,25.94,22.83,20.88,14.68,11.47
Piazza Armerina,37.38417,14.36921,IT,17736,2523796,Piazza Armerina,6.06,4.72,8.82,12.62,16.26,20.02,22.86,23.24,19.25,16.92,10.02,6.66
Paternò,37.56675,14.90254,IT,46030,2523866,Paternò,8.74,7.67,11.61,15.67,19.26,23.32,26.27,26.68,22.47,19.84,13.27,9.68
Partinico,38.04657,13.11785,IT,28708,2523871,Partinico,10.0,8.46,12.36,15.85,18.94,22.5,26.47,26.86,22.63,20.9,13.83,10.58
Palmi,38.35943,15.85155,IT,18556,2523902,Palmi,10.25,8.88,11.39,14.66,17.33,20.22,23.64,24.99,21.48,19.41,14.46,11.17
Palma di Montechiaro,37.19066,13.76603,IT,22654,2523908,Palma di Montechiaro,10.34,9.02,12.5,15.64,19.06,22.4,25.42,26.14,22.76,20.47,14.06,10.59
Palermo,38.1166,13.3636,IT,648260,2523920,Palermo,11.64,10.08,13.58,16.67,19.11,22.18,25.78,26.76,23.47,21.91,15.71,12.7
Palagonia,37.32955,14.74474,IT,16227,2523927,Palagonia,8.62,7.56,11.59,15.64,19.36,23.32,26.13,26.55,22.42,19.89,12.89,9.38
Pachino,36.71522,15.09019,IT,20493,2523938,Pachino,12.16,11.23,13.6,16.39,19.3,22.59,25.63,26.63,23.86,21.63,16.26,12.92
Oristano,39.9036,8.59257,IT,31671,2523964,Oristano,9.38,7.73,11.62,14.57,16.12,20.4,25.38,25.48,21.2,20.05,12.91,9.81
Noto,36.89244,15.06977,IT,18421,2523998,Noto,11.09,10.13,13.61,16.94,19.86,23.6,26.73,27.66,23.9,21.41,14.88,11.57
Niscemi,37.14649,14.39381,IT,26893,2524006,Niscemi,9.13,7.98,11.64,15.15,18.42,21.91,24.67,25.33,21.89,19.73,13.13,9.69
Nicastro,38.97089,16.31285,IT,40000,2524013,Nicastro,10.1,8.76,11.34,14.83,17.58,20.42,23.55,24.87,21.36,19.5,14.12,11.2
Monserrato,39.25642,9.1444,IT,20193,2524084,Monserrato,10.4,8.98,12.39,15.19,17.23,21.39,26.33,26.66,22.34,21.25,14.07,11.24
Monreale,38.08125,13.28947,IT,21964,2524085,Monreale,9.77,8.13,11.92,15.05,17.63,20.82,24.4,25.23,21.92,20.36,13.74,10.8
Modica,36.85868,14.75966,IT,54456,2524119,Modica,9.85,8.89,12.15,15.41,18.73,22.12,24.73,25.55,22.4,20.23,14.09,10.65
Misterbianco,37.51803,15.00913,IT,45542,2524123,Misterbianco,9.0,8.17,11.72,15.52,19.13,23.15,26.04,26.86,22.7,19.77,13.63,10.08
Misilmeri,38.03183,13.44795,IT,19171,2524126,Misilmeri,10.89,9.33,12.83,15.92,18.35,21.43,25.03,26.01,22.72,21.17,14.96,11.94
Milazzo,38.22008,15.24023,IT,31771,2524155,Milazzo,11.74,10.4,13.24,16.45,19.34,22.36,25.65,26.71,23.35,21.29,16.0,12.7
Messina,38.19394,15.55256,IT,219948,2524170,Messina,11.59,10.2,12.93,16.17,18.95,21.95,25.2,26.25,23.01,20.93,15.8,12.51
Mazara del Vallo,37.65535,12.58986,IT,51534,2524205,Mazara del Vallo,12.39,10.73,13.59,16.3,18.69,21.85,25.81,26.66,23.35,21.79,15.84,13.04
Mascalucia,37.57465,15.04964,IT,32179,2524236,Mascalucia,8.74,7.67,11.2,14.44,17.78,21.38,24.19,25.23,21.56,19.11,13.2,9.88
Marsala,37.7992,12.4367,IT,77915,2524245,Marsala,13.17,11.41,14.11,16.68,18.87,21.99,26.0,26.87,23.75,22.35,16.47,13.82
Licata,37.10267,13.93972,IT,36537,2524393,Licata,11.34,10.02,13.5,16.64,20.06,23.4,26.42,27.14,23.76,21.47,15.06,11.59
Lentini,37.28556,14.99737,IT,24102,2524410,Lentini,10.13,9.39,12.97,16.51,20.01,24.02,26.89,27.62,23.7,21.02,14.61,11.08
Iglesias,39.3092,8.5372,IT,22659,2524533,Iglesias,9.61,7.88,11.78,14.56,16.47,20.95,25.99,25.86,21.32,20.97,12.75,9.86
Gioia Tauro,38.4251,15.8975,IT,18769,2524606,Gioia Tauro,12.15,10.74,13.26,16.04,18.58,21.21,24.63,26.04,22.9,20.99,16.02,13.0
Giarre,37.7244,15.18165,IT,24138,2524618,Giarre,9.92,8.57,12.02,15.16,18.29,21.71,24.55,25.64,22.14,19.9,14.21,10.93
Gela,37.07381,14.24038,IT,75001,2524653,Gela,11.39,10.25,13.25,16.35,19.46,22.57,25.39,26.3,23.33,21.26,15.35,12.03
Floridia,37.08343,15.15332,IT,22089,2524734,Floridia,11.49,10.67,13.4,16.17,19.27,22.6,25.71,26.8,23.79,21.41,15.93,12.46
Favara,37.31754,13.66226,IT,32110,2524786,Favara,8.97,7.57,11.39,14.68,18.11,21.54,24.65,25.27,21.69,19.38,12.68,9.2
Enna,37.5655,14.27433,IT,22998,2524819,Enna,5.2,3.82,8.08,11.9,14.89,18.55,21.82,22.22,18.24,16.34,9.47,6.12
Crotone,39.08077,17.12764,IT,64603,2524881,Crotone,10.42,9.48,12.31,15.57,18.96,22.5,25.37,26.65,23.12,19.76,14.94,11.31
Cosenza,39.2989,16.25307,IT,63852,2524907,Cosenza,8.93,8.13,11.35,15.47,18.38,21.26,24.6,26.09,21.63,19.37,13.55,9.89
Comiso,36.94893,14.60731,IT,26298,2524955,Comiso,10.83,9.75,12.75,15.89,18.94,22.14,24.8,25.72,22.76,20.82,14.89,11.71
Catanzaro,38.88247,16.60086,IT,78970,2525059,Catanzaro,9.73,8.58,11.53,15.27,18.34,22.36,25.15,26.21,21.95,19.21,13.74,10.34
Catania,37.49223,15.07041,IT,311584,2525068,Catania,10.87,9.99,13.17,16.61,20.01,23.77,26.78,27.81,23.93,21.17,15.42,11.87
Castrovillari,39.81632,16.20183,IT,20334,2525070,Castrovillari,7.76,6.66,9.96,14.12,16.92,20.74,23.45,25.04,20.68,17.85,12.42,8.59
Castelvetrano,37.68081,12.79194,IT,31680,2525083,Castelvetrano,10.7,9.03,12.3,15.35,17.93,21.34,25.24,25.82,22.18,20.56,14.19,11.31
Casarano,40.01131,18.16237,IT,19359,2525207,Casarano,10.57,9.76,12.14,15.27,19.2,22.46,25.79,26.79,23.28,19.42,15.68,11.71
Carini,38.1324,13.18274,IT,35082,2525350,Carini,10.29,8.74,12.61,15.88,18.79,22.14,25.96,26.58,22.79,21.16,14.22,11.11
Carbonia,39.16465,8.5213,IT,21664,2525362,Carbonia,10.24,8.62,12.33,15.02,17.07,21.42,26.58,26.44,21.92,21.4,13.43,10.5
Canicattì,37.35842,13.84786,IT,32918,2525405,Canicattì,7.5,6.13,10.23,13.74,17.25,20.92,23.94,24.52,20.58,18.25,11.39,7.85
Caltanissetta,37.49025,14.06216,IT,62797,2525448,Caltanissetta,7.2,5.83,9.85,13.69,17.01,20.89,24.1,24.58,20.4,18.21,11.42,7.83
Caltagirone,37.23785,14.51551,IT,38391,2525450,Caltagirone,7.29,6.06,10.11,13.64,17.02,20.53,23.17,23.8,20.34,18.16,11.23,7.8
Cagliari,39.23054,9.11917,IT,149257,2525473,Cagliari,10.2,8.78,12.19,14.99,17.03,21.19,26.13,26.46,22.14,21.05,13.87,11.04
Bronte,37.78863,14.83377,IT,19074,2525498,Bronte,5.62,4.58,8.9,12.76,15.74,19.57,22.63,22.97,19.14,17.14,10.29,6.84
Biancavilla,37.64442,14.86685,IT,23188,2525560,Biancavilla,7.5,6.42,10.48,14.29,17.95,21.79,24.48,25.08,21.12,18.58,11.97,8.63
Belpasso,37.59192,14.97985,IT,16319,2525571,Belpasso,7.5,6.51,10.49,14.05,17.58,21.31,23.83,24.7,20.93,18.44,12.03,8.7
Barcellona Pozzo di Gotto,38.14772,15.21469,IT,34598,2525597,Barcellona Pozzo di Gotto,11.49,10.15,12.99,16.2,19.09,22.11,25.4,26.46,23.1,21.04,15.75,12.45
Bagheria,38.07892,13.51237,IT,53149,2525628,Bagheria,11.29,9.82,13.27,16.56,18.93,21.98,25.57,26.48,23.07,21.58,15.5,12.36
Avola,36.9084,15.13937,IT,28666,2525643,Avola,11.74,10.78,14.26,17.59,20.51,24.25,27.38,28.31,24.55,22.06,15.53,12.22
Augusta,37.24065,15.22121,IT,30723,2525646,Augusta,11.22,10.45,13.46,16.39,19.63,23.3,26.4,27.37,24.0,21.51,15.67,12.15
Assemini,39.29123,8.99879,IT,25257,2525655,Assemini,10.18,8.8,12.31,15.08,17.09,21.32,26.49,26.82,22.17,21.05,13.78,10.86
Alcamo,37.9779,12.96473,IT,44431,2525755,Alcamo,9.4,7.86,11.76,15.25,18.34,21.9,25.87,26.26,22.03,20.3,13.23,9.98
Agrigento,37.31065,13.57661,IT,32514,2525764,Agrigento,9.59,8.16,11.69,14.86,18.09,21.42,24.71,25.33,21.95,19.74,13.24,9.85
Adrano,37.66358,14.83283,IT,34446,2525769,Adrano,7.19,6.15,10.18,14.19,17.47,21.42,24.27,24.77,20.74,18.48,11.88,8.23
Acireale,37.60886,15.16577,IT,49477,2525790,Acireale,10.17,9.29,12.47,15.91,19.31,23.07,26.08,27.11,23.23,20.47,14.72,11.17
Aci Catena,37.60614,15.14165,IT,24663,2525791,Aci Catena,9.22,7.87,11.32,14.46,17.59,21.01,23.85,24.94,21.44,19.2,13.51,10.23
Aci Castello,37.55564,15.14535,IT,17588,2525792,Aci Castello,10.25,9.43,12.98,16.77,20.38,24.4,27.29,28.11,23.95,21.02,14.88,11.33
Zola Predosa,44.48967,11.21831,IT,15965,3163853,Zola Predosa,3.82,2.28,7.11,13.12,15.87,20.95,25.67,25.12,20.73,15.66,9.65,4.9
Vomero,40.84282,14.23075,IT,44791,3163948,Vomero,8.56,7.37,10.4,14.19,16.73,19.9,23.91,24.96,20.9,17.97,13.13,9.54
Voghera,44.99151,9.01175,IT,38464,3163995,Voghera,2.9,2.14,5.62,12.15,14.85,19.7,24.42,23.78,20.13,14.6,8.35,4.2
Vittorio Veneto,45.98026,12.30065,IT,24789,3164028,Vittorio Veneto,3.04,2.94,6.35,12.11,14.46,19.19,23.17,22.44,17.8,14.08,8.14,4.51
Viterbo,42.41937,12.1056,IT,47134,3164039,Viterbo,5.26,4.35,8.35,13.19,14.84,19.65,23.58,24.38,19.6,16.4,10.35,6.55
Vimodrone,45.51461,9.28772,IT,17072,3164080,Vimodrone,2.76,2.01,5.88,12.23,14.67,19.73,24.41,23.05,18.65,14.15,7.93,3.34
Vimercate,45.61545,9.36801,IT,22727,3164083,Vimercate,2.48,1.59,5.53,11.83,14.17,19.17,23.82,22.66,18.04,13.83,7.65,3.07
Lancenigo-Villorba,45.71289,12.25697,IT,15265,3164090,Lancenigo-Villorba,3.26,2.97,6.94,12.86,15.54,20.17,24.19,23.27,18.76,14.83,9.09,4.51
Villaricca,40.92006,14.19339,IT,25074,3164153,Villaricca,9.11,7.92,10.95,14.74,17.28,20.45,24.46,25.51,21.45,18.52,13.68,10.09
Villafranca di Verona,45.35405,10.84462,IT,15895,3164241,Villafranca di Verona,3.64,3.49,7.14,13.0,15.58,20.49,25.03,24.75,19.94,15.2,9.35,4.86
Vignola,44.48383,11.01096,IT,22397,3164342,Vignola,3.71,2.15,6.82,12.96,15.56,20.62,25.22,24.61,20.26,15.45,9.23,4.91
Vigevano,45.31407,8.85437,IT,57970,3164376,Vigevano,2.91,2.46,6.1,12.6,15.35,20.39,24.97,23.6,19.75,14.54,8.26,3.29
Vicenza,45.54672,11.5475,IT,111980,3164419,Vicenza,3.11,3.07,6.84,12.84,15.28,20.06,24.08,23.58,19.01,14.83,8.83,4.0
Viareggio,43.86693,10.2502,IT,62169,3164433,Viareggio,6.77,5.53,9.14,13.48,15.28,19.26,24.06,23.9,20.12,17.18,11.68,8.29
Viadana,44.93553,10.51898,IT,20013,3164440,Viadana,3.21,2.62,7.16,13.2,15.99,20.73,25.12,24.44,20.03,15.39,9.22,4.03
Verona,45.4299,10.98444,IT,258031,3164527,Verona,3.4,3.38,7.06,13.03,15.62,20.52,24.94,24.63,19.84,15.11,9.1,4.35
Vercelli,45.32163,8.41989,IT,45875,3164565,Vercelli,2.56,2.35,5.86,12.29,14.89,20.09,23.85,22.7,19.15,13.98,7.64,3.27
Ventimiglia,43.78956,7.60872,IT,24120,3164582,Ventimiglia,9.04,7.51,10.66,14.99,17.08,21.19,25.03,24.8,21.51,18.54,13.1,10.63
Venice,45.43713,12.33265,IT,51298,3164603,Venice,4.6,4.57,8.22,14.11,17.32,22.03,25.69,24.77,20.63,16.32,11.31,5.52
Venaria Reale,45.12597,7.63136,IT,33531,3164617,Venaria Reale,1.89,1.07,4.58,11.0,13.46,18.84,23.18,21.95,18.47,12.82,6.17,1.9
Velletri,41.68573,12.77753,IT,52911,3164630,Velletri,5.65,4.54,8.73,13.12,15.16,19.07,22.96,23.83,19.2,16.44,10.72,6.98
Vasto,42.1115,14.70649,IT,41409,3164672,Vasto,6.88,5.77,9.28,13.39,16.19,19.75,23.49,24.14,20.31,16.7,12.25,7.64
Varese,45.82058,8.82511,IT,80588,3164699,Varese,2.57,1.69,4.79,10.55,13.19,18.44,22.82,21.48,17.65,12.96,7.06,3.04
Valenzano,41.04376,16.88491,IT,16101,3164919,Valenzano,9.33,8.2,11.44,15.35,19.05,22.06,25.21,26.25,22.4,18.95,14.44,9.95
Valenza,45.01242,8.64379,IT,17305,3164920,Valenza,2.34,1.86,5.48,11.89,14.46,19.37,23.99,23.15,19.83,14.16,7.59,3.22
Valdagno,45.64498,11.29886,IT,22555,3164954,Valdagno,2.3,2.97,5.91,11.98,14.29,19.25,23.07,22.83,18.24,13.73,7.99,4.28
Udine,46.0693,13.23715,IT,100170,3165072,Udine,2.51,2.27,5.29,11.53,14.27,18.69,23.25,22.66,17.12,13.57,7.74,4.0
Triggiano,41.06549,16.92501,IT,26811,3165178,Triggiano,9.88,8.7,11.63,15.27,18.73,21.7,24.95,25.93,22.39,18.93,14.84,10.7
Trieste,45.64953,13.77678,IT,204338,3165185,Trieste,5.31,4.53,7.37,12.71,16.17,20.52,25.0,24.05,19.17,15.52,10.82,7.43
Trezzano sul Naviglio,45.42212,9.06342,IT,20001,3165198,Trezzano sul Naviglio,2.7,2.19,6.0,12.47,15.19,20.24,24.83,23.36,19.23,14.4,8.14,3.19
Treviso,45.66673,12.2416,IT,85760,3165201,Treviso,3.19,2.96,6.93,12.82,15.4,20.05,24.06,23.21,18.69,14.77,8.98,4.43
Treviglio,45.52081,9.59102,IT,24937,3165207,Treviglio,2.55,1.69,5.7,12.04,14.32,19.22,23.76,22.95,18.36,13.96,7.75,3.3
Trentola-Ducenta,40.97517,14.1749,IT,17056,3165240,Trentola-Ducenta,8.61,7.43,10.82,14.82,17.37,20.63,24.53,25.6,21.31,18.26,13.29,9.33
Trento,46.06787,11.12108,IT,120709,3165243,Trento,3.81,3.32,6.08,12.18,14.58,19.73,22.93,22.77,19.04,14.16,8.61,6.76
Trecate,45.43399,8.7364,IT,19430,3165275,Trecate,2.74,2.48,6.0,12.38,15.07,20.15,24.15,22.81,19.13,14.18,7.99,3.04
Trani,41.27733,16.41011,IT,53981,3165322,Trani,9.09,7.95,11.25,15.2,18.62,22.09,25.5,26.26,22.49,18.81,14.48,9.57
Tradate,45.70843,8.90763,IT,17154,3165340,Tradate,2.83,1.91,5.23,11.29,13.95,19.21,23.79,22.16,17.98,13.43,7.65,3.31
Tortona,44.89784,8.86374,IT,22743,3165370,Tortona,2.56,1.87,5.32,11.88,14.55,19.4,24.11,23.62,19.96,14.38,8.0,3.93
Torremaggiore,41.68894,15.29408,IT,16955,3165435,Torremaggiore,6.93,5.83,9.73,14.92,17.69,21.74,24.9,25.57,21.52,17.72,12.54,7.31
Torre del Greco,40.78931,14.36806,IT,85332,3165456,Torre del Greco,9.55,8.27,11.31,15.35,17.78,20.99,25.02,26.21,21.96,18.98,13.99,10.53
Torre Annunziata,40.75337,14.45251,IT,43521,3165475,Torre Annunziata,9.12,7.91,11.17,15.36,17.86,21.25,25.25,26.39,21.88,18.79,13.56,9.83
Turin,45.07049,7.68682,IT,847287,3165524,Turin,1.92,1.3,4.73,11.09,13.47,18.89,23.44,22.24,18.72,12.96,6.1,2.34
Tolentino,43.20918,13.28524,IT,16504,3165595,Tolentino,4.71,3.44,7.8,13.05,15.01,19.28,22.91,23.19,19.6,15.69,10.02,5.45
Tivoli,41.95952,12.8016,IT,22018,3165624,Tivoli,5.44,4.61,9.08,13.81,15.44,19.89,23.95,24.81,19.76,16.55,10.79,6.59
Thiene,45.7088,11.47959,IT,21145,3165698,Thiene,2.32,3.34,6.34,12.37,14.79,19.7,23.44,23.11,18.48,14.01,8.32,4.12
Terzigno,40.804,14.49309,IT,17138,3165737,Terzigno,9.4,8.06,11.15,15.2,17.61,20.85,24.84,26.02,21.76,18.84,13.8,10.41
Terracina,41.29174,13.24359,IT,30980,3165762,Terracina,9.28,8.32,11.35,15.24,17.72,21.0,25.03,25.88,21.9,18.87,14.23,10.57
Terni,42.56335,12.64329,IT,111189,3165771,Terni,5.57,4.93,9.22,14.2,15.62,20.44,24.41,25.34,20.44,16.74,10.73,6.69
Termoli,41.99994,14.99389,IT,31044,3165773,Termoli,8.64,7.58,10.81,14.66,17.66,21.19,24.8,25.45,21.85,18.14,13.96,9.49
Terlizzi,41.12905,16.54536,IT,25811,3165788,Terlizzi,8.18,7.05,10.56,14.7,18.29,21.64,25.0,25.86,21.86,18.32,13.55,8.67
Teramo,42.66123,13.69901,IT,54338,3165803,Teramo,4.64,3.32,7.69,13.25,15.32,19.01,22.44,22.85,19.02,15.62,10.14,5.34
Taranto,40.46438,17.24707,IT,198585,3165926,Taranto,9.93,8.83,11.63,15.36,19.36,23.07,26.51,27.44,23.57,19.35,14.9,10.54
Suzzara,44.99242,10.74407,IT,16571,3166006,Suzzara,3.53,3.02,7.46,13.45,16.19,21.11,25.42,24.81,20.35,15.53,9.58,4.1
Sulmona,42.04945,13.92578,IT,21086,3166034,Sulmona,5.33,4.05,8.38,13.81,15.47,19.66,23.25,24.23,20.07,16.64,9.97,6.18
Spoleto,42.74071,12.73899,IT,19266,3166236,Spoleto,4.6,3.87,8.25,13.26,14.59,19.36,23.29,24.4,19.41,15.78,9.67,5.62
Sora,41.71829,13.61356,IT,23758,3166387,Sora,5.0,4.62,8.42,13.25,15.47,19.33,23.07,24.39,19.51,16.12,10.19,5.75
Sondrio,46.16852,9.87134,IT,19208,3166397,Sondrio,3.0,0.87,6.13,11.82,13.32,18.85,22.1,21.74,17.99,12.43,8.05,6.9
Somma Vesuviana,40.87329,14.43865,IT,32484,3166404,Somma Vesuviana,8.17,6.94,10.3,14.62,17.06,20.53,24.46,25.67,21.01,17.99,12.56,8.91
Soccavo,40.8455,14.19262,IT,45314,3166465,Soccavo,9.26,8.07,11.1,14.89,17.43,20.6,24.61,25.66,21.6,18.67,13.83,10.24
Siena,43.31822,11.33064,IT,53901,3166548,Siena,4.29,3.23,7.62,12.65,13.96,18.77,23.54,23.24,19.37,15.65,9.23,5.09
Sezze,41.50032,13.06176,IT,16071,3166571,Sezze,5.92,4.81,8.97,13.39,15.73,19.33,23.29,24.29,19.6,16.62,11.09,7.19
Seveso,45.6467,9.14296,IT,22733,3166574,Seveso,2.64,1.89,5.47,11.76,14.34,19.56,24.31,22.68,18.26,13.74,7.78,3.14
Settimo Torinese,45.13925,7.77008,IT,47485,3166576,Settimo Torinese,2.28,1.93,5.33,11.74,14.07,19.5,24.22,23.08,19.38,13.59,6.83,3.07
Sestri Levante,44.27317,9.39683,IT,16963,3166595,Sestri Levante,8.16,6.85,9.46,13.9,15.51,19.62,24.47,24.38,20.58,17.75,12.8,10.64
Sesto San Giovanni,45.53329,9.22585,IT,81822,3166598,Sesto San Giovanni,2.66,2.01,5.78,12.15,14.67,19.79,24.46,22.99,18.68,14.08,7.92,3.22
Sesto Fiorentino,43.83193,11.19924,IT,45656,3166601,Sesto Fiorentino,4.81,3.49,8.05,13.35,14.9,19.79,24.75,24.11,20.09,16.06,9.91,5.66
Seriate,45.68532,9.72487,IT,23552,3166706,Seriate,1.88,1.27,5.31,11.81,13.94,18.91,22.88,22.47,17.93,13.7,7.74,3.42
Seregno,45.65002,9.20548,IT,42760,3166711,Seregno,2.98,2.09,5.67,11.9,14.37,19.51,24.11,22.72,18.28,13.93,8.02,3.67
Senigallia,43.71626,13.20882,IT,30882,3166740,Senigallia,6.86,6.13,9.37,13.89,16.75,21.33,24.91,24.88,21.49,17.25,12.67,7.88
Senago,45.57562,9.1262,IT,20620,3166753,Senago,2.94,2.19,5.77,12.06,14.64,19.86,24.61,22.98,18.56,14.04,8.08,3.44
Segrate,45.49185,9.29812,IT,28296,3166808,Segrate,2.81,2.05,5.93,12.29,14.72,19.78,24.46,23.1,18.71,14.2,7.98,3.39
Secondigliano,40.9,14.26667,IT,42827,3166830,Secondigliano,8.9,7.67,10.86,14.85,17.39,20.65,24.67,25.79,21.46,18.42,13.4,9.68
Schio,45.71262,11.35671,IT,33740,3166917,Schio,2.8,3.47,6.41,12.48,14.79,19.75,23.57,23.33,18.74,14.23,8.49,4.78
Scandicci,43.75423,11.18794,IT,44951,3166988,Scandicci,4.91,3.59,8.15,13.45,15.0,19.89,24.85,24.21,20.19,16.16,10.01,5.76
Scandiano,44.5983,10.69558,IT,25896,3166989,Scandiano,3.22,2.03,6.49,12.71,15.33,20.23,24.65,24.05,19.72,15.12,8.77,4.51
Scafati,40.7602,14.53723,IT,48702,3167010,Scafati,9.17,7.95,11.22,15.4,17.91,21.31,25.3,26.44,21.93,18.84,13.61,9.88
Savona,44.30905,8.47715,IT,61345,3167022,Savona,6.73,5.39,7.89,13.41,15.55,19.97,24.27,23.93,20.69,16.6,11.33,9.01
Savigliano,44.64808,7.65677,IT,16800,3167034,Savigliano,1.21,-0.13,3.67,10.31,12.77,17.77,21.88,21.16,18.22,12.57,6.54,2.65
Sava,40.40203,17.55267,IT,15898,3167044,Sava,9.69,8.84,11.5,15.24,19.22,23.01,26.31,27.32,23.03,19.21,14.74,10.43
Sassuolo,44.5432,10.7848,IT,36926,3167053,Sassuolo,2.87,1.81,6.19,12.41,15.12,20.09,24.56,23.87,19.55,14.81,8.54,3.99
Sassari,40.72586,8.55552,IT,91895,3167096,Sassari,9.24,7.39,11.09,13.68,15.1,19.41,24.36,24.46,20.78,19.27,12.79,9.91
Sarzana,44.11178,9.9622,IT,20435,3167104,Sarzana,6.86,5.5,8.67,13.46,15.15,19.21,23.89,24.03,20.0,17.06,11.56,9.03
Saronno,45.62513,9.03517,IT,38099,3167113,Saronno,2.72,2.02,5.49,11.75,14.39,19.66,24.39,22.67,18.34,13.73,7.82,3.19
Sarno,40.80748,14.62151,IT,28837,3167116,Sarno,9.02,7.79,11.15,15.48,17.92,21.38,25.31,26.52,21.87,18.84,13.41,9.77
San Vito dei Normanni,40.65642,17.70814,IT,17617,3167184,San Vito dei Normanni,9.5,8.73,11.56,15.29,19.56,22.68,25.87,26.78,22.82,18.72,14.45,10.33
Santeramo in Colle,40.79236,16.75873,IT,24922,3167327,Santeramo in Colle,6.33,5.3,8.92,13.14,17.21,20.61,23.66,24.87,20.48,16.88,11.63,6.89
Sant'Antonio Abate,40.72152,14.54021,IT,18859,3167393,Sant'Antonio Abate,9.85,8.57,11.61,15.65,18.08,21.29,25.32,26.51,22.26,19.28,14.29,10.83
Sant'Antimo,40.94223,14.23476,IT,33561,3167419,Sant'Antimo,9.41,8.22,11.25,15.04,17.58,20.75,24.76,25.81,21.75,18.82,13.98,10.39
Sant'Anastasia,40.86842,14.40196,IT,20733,3167509,Sant'Anastasia,8.32,7.11,10.37,14.56,17.06,20.45,24.45,25.59,21.08,17.99,12.76,9.03
Santa Maria Capua Vetere,41.08156,14.25342,IT,31743,3167561,Santa Maria Capua Vetere,7.59,6.5,10.29,14.79,17.22,20.62,24.41,25.54,20.85,17.62,12.44,8.06
San Severo,41.68564,15.38148,IT,51919,3167731,San Severo,7.48,6.43,10.31,15.6,18.43,22.54,25.63,26.29,22.21,18.4,13.21,7.93
San Sebastiano,45.65192,10.25681,IT,23228,3167744,San Sebastiano,1.39,0.42,3.89,9.78,12.0,16.93,20.96,21.02,16.9,12.49,7.0,3.63
San Salvo,42.04413,14.73335,IT,17123,3167751,San Salvo,7.83,6.84,10.34,14.33,17.27,20.84,24.6,25.22,21.5,17.64,13.33,8.47
San Remo,43.81725,7.7772,IT,47043,3167777,San Remo,8.73,6.66,10.03,14.78,16.86,20.95,24.71,24.55,21.35,18.38,13.04,10.85
Sannicandro Garganico,41.83844,15.56535,IT,15815,3167940,Sannicandro Garganico,7.64,6.63,10.16,14.9,17.85,21.8,24.91,25.71,21.72,18.26,13.33,8.69
San Miniato,43.67954,10.84975,IT,16900,3167953,San Miniato,4.63,3.63,8.03,13.06,14.73,19.39,24.59,23.81,19.76,15.95,9.9,5.49
San Miniato Basso,43.69332,10.84119,IT,26365,3167954,San Miniato Basso,5.39,4.38,8.78,13.81,15.48,20.14,25.34,24.56,20.51,16.7,10.65,6.24
San Mauro Torinese,45.10359,7.76803,IT,18521,3167978,San Mauro Torinese,2.23,1.88,5.29,11.69,14.01,19.45,24.17,23.03,19.33,13.55,6.78,3.02
San Lazzaro,44.4705,11.40851,IT,22350,3168175,San Lazzaro,3.88,2.52,7.31,13.18,16.03,21.11,25.79,25.17,20.92,15.82,9.99,4.92
San Giuseppe Vesuviano,40.8356,14.50487,IT,26888,3168209,San Giuseppe Vesuviano,9.45,8.1,11.2,15.25,17.66,20.9,24.89,26.08,21.81,18.89,13.85,10.46
San Giuliano Milanese,45.39402,9.29109,IT,31050,3168222,San Giuliano Milanese,2.84,2.17,6.2,12.62,15.13,20.15,24.76,23.48,19.22,14.51,8.16,3.35
San Giovanni Valdarno,43.56757,11.52987,IT,16002,3168231,San Giovanni Valdarno,5.16,3.94,8.35,13.71,15.06,20.05,24.74,24.19,20.28,16.38,10.21,5.89
San Giovanni Rotondo,41.70643,15.7277,IT,27124,3168234,San Giovanni Rotondo,6.1,5.04,8.43,12.7,15.8,19.59,22.85,23.83,19.66,16.59,11.71,7.54
San Giovanni Lupatoto,45.38193,11.04474,IT,20038,3168236,San Giovanni Lupatoto,3.5,3.48,7.16,13.13,15.72,20.62,25.04,24.73,19.94,15.21,9.2,4.45
San Giovanni in Persiceto,44.63838,11.18419,IT,15783,3168239,San Giovanni in Persiceto,3.77,2.51,7.21,13.09,15.97,21.05,25.89,25.41,20.84,15.73,9.8,4.68
San Giovanni a Teduccio,40.83808,14.30606,IT,23839,3168257,San Giovanni a Teduccio,9.45,8.22,11.41,15.4,17.94,21.2,25.22,26.34,22.01,18.97,13.95,10.23
San Giorgio a Cremano,40.83261,14.34162,IT,45463,3168309,San Giorgio a Cremano,8.87,7.65,10.92,15.1,17.61,21.01,25.0,26.14,21.63,18.54,13.31,9.58
San Donato Milanese,45.41047,9.26838,IT,28351,3168414,San Donato Milanese,2.84,2.17,6.2,12.62,15.13,20.15,24.76,23.48,19.22,14.51,8.16,3.35
San Donà di Piave,45.63019,12.5681,IT,41856,3168429,San Donà di Piave,4.5,4.14,7.32,13.03,16.2,20.83,24.91,23.99,19.44,15.59,10.39,5.99
San Bonifacio,45.39595,11.27352,IT,17347,3168514,San Bonifacio,3.36,3.13,7.1,13.1,15.62,20.47,24.68,24.19,19.6,15.07,9.09,4.01
San Benedetto del Tronto,42.9568,13.87676,IT,45873,3168550,San Benedetto del Tronto,7.51,6.44,9.58,14.5,17.29,21.2,24.81,25.13,21.25,17.61,13.12,8.76
Saluzzo,44.64671,7.49309,IT,16537,3168609,Saluzzo,1.22,-0.22,3.61,10.23,12.58,17.61,21.73,20.87,17.85,12.45,6.55,2.64
Salsomaggiore Terme,44.81592,9.98637,IT,15754,3168627,Salsomaggiore Terme,2.77,1.44,5.96,12.34,14.93,19.76,24.2,23.7,19.18,14.6,8.37,4.43
Salerno,40.67545,14.79328,IT,125797,3168673,Salerno,9.49,8.1,11.09,15.31,17.73,20.76,24.48,25.57,21.32,18.58,13.99,10.53
Sacile,45.95412,12.50274,IT,16626,3168730,Sacile,3.6,3.8,7.06,12.94,15.45,20.08,24.23,23.42,18.52,14.78,8.8,4.87
Ruvo di Puglia,41.11758,16.48421,IT,23938,3168770,Ruvo di Puglia,7.74,6.6,10.12,14.25,17.84,21.19,24.55,25.41,21.41,17.87,13.1,8.22
Rutigliano,41.00997,17.00558,IT,17674,3168775,Rutigliano,9.2,8.1,11.2,15.01,18.72,21.7,24.88,25.91,22.09,18.64,14.25,9.89
Rozzano,45.38193,9.1559,IT,39731,3168837,Rozzano,2.78,2.21,6.12,12.57,15.19,20.23,24.8,23.44,19.25,14.47,8.16,3.29
Rovigo,45.06982,11.79022,IT,50279,3168843,Rovigo,3.87,3.65,7.48,13.19,16.31,20.81,25.1,24.72,20.2,15.85,10.21,4.71
Rovereto,45.8904,11.04053,IT,34152,3168854,Rovereto,4.38,3.94,6.58,12.63,15.11,20.26,23.54,23.44,19.51,14.71,9.35,7.46
Rosignano Solvay-Castiglioncello,43.38946,10.43615,IT,19786,3168930,Rosignano Solvay-Castiglioncello,7.9,7.15,10.53,14.56,16.83,21.11,25.51,25.27,21.79,18.55,13.1,9.28
Roseto degli Abruzzi,42.67164,14.01481,IT,16538,3168936,Roseto degli Abruzzi,6.98,5.98,9.38,14.48,17.12,20.9,24.46,24.92,20.92,17.37,12.59,8.01
Romano di Lombardia,45.52081,9.7544,IT,17549,3169056,Romano di Lombardia,2.47,1.68,5.74,12.01,14.27,19.14,23.53,23.02,18.35,13.98,7.81,3.44
Rome,41.89193,12.51133,IT,2318895,3169070,Rome,7.1,6.32,10.28,14.67,16.69,21.08,25.23,25.75,21.05,17.86,12.36,8.27
Rocca di Papa,41.7658,12.70188,IT,15036,3169181,Rocca di Papa,4.25,3.14,7.33,11.72,13.76,17.67,21.56,22.43,17.8,15.04,9.32,5.58
Rivoli,45.07073,7.51465,IT,48629,3169231,Rivoli,1.35,0.33,3.99,10.39,12.89,18.27,22.4,21.22,17.82,12.3,5.51,1.2
Riva del Garda,45.88577,10.84117,IT,17331,3169272,Riva del Garda,5.13,4.69,7.33,13.39,15.86,21.01,24.29,24.19,20.27,15.46,10.1,8.21
Rimini,44.05755,12.56528,IT,148688,3169361,Rimini,5.53,5.11,8.41,13.41,16.36,21.15,24.99,24.6,20.83,16.48,11.69,6.6
Rieti,42.40476,12.85735,IT,39068,3169412,Rieti,4.38,3.47,7.85,12.59,14.1,18.67,22.82,23.93,18.93,15.62,9.54,5.84
Riccione,43.99942,12.65689,IT,32744,3169424,Riccione,6.57,5.92,8.88,13.59,16.7,21.25,25.03,24.7,21.1,17.03,12.39,7.76
Rho,45.53245,9.0402,IT,47086,3169447,Rho,2.7,2.17,5.77,12.14,14.83,19.99,24.68,22.98,18.83,14.1,8.03,3.22
Reggio nell'Emilia,44.69825,10.63125,IT,171944,3169522,Reggio nell'Emilia,2.96,2.04,6.45,12.57,15.3,20.09,24.37,23.77,19.51,14.97,8.7,4.17
Ravenna,44.41344,12.20121,IT,80868,3169561,Ravenna,4.87,4.36,7.95,13.25,16.37,21.37,25.4,24.9,21.09,16.4,11.5,5.88
Rapallo,44.3496,9.22796,IT,26993,3169602,Rapallo,7.68,6.5,9.11,14.06,15.78,19.99,24.52,24.25,20.73,17.57,12.24,10.06
Qualiano,40.91899,14.15352,IT,23752,3169724,Qualiano,9.16,7.97,11.0,14.79,17.33,20.5,24.51,25.56,21.5,18.57,13.73,10.14
Putignano,40.85106,17.1219,IT,23661,3169742,Putignano,7.43,6.45,9.71,13.67,17.63,20.66,23.83,24.87,20.73,17.34,12.59,8.16
Prato,43.8805,11.09699,IT,195089,3169921,Prato,4.55,3.24,7.86,13.19,14.75,19.59,24.61,23.96,19.9,15.85,9.68,5.43
Pozzuoli,40.84394,14.0952,IT,81231,3169984,Pozzuoli,10.11,8.87,11.72,15.35,17.89,21.01,25.08,25.94,22.12,19.32,14.63,11.27
Potenza,40.64175,15.80794,IT,56433,3170027,Potenza,3.97,2.63,7.0,11.57,14.6,18.38,20.96,22.91,18.39,15.18,9.19,4.7
Posillipo,40.81279,14.20001,IT,22856,3170055,Posillipo,8.66,7.47,10.5,14.29,16.83,20.0,24.01,25.06,21.0,18.07,13.23,9.64
Porto Torres,40.83375,8.40531,IT,21653,3170069,Porto Torres,10.82,9.18,12.29,14.55,15.99,19.89,24.67,24.99,21.8,20.43,14.48,11.81
Porto Sant'Elpidio,43.25297,13.7597,IT,22233,3170072,Porto Sant'Elpidio,7.71,6.54,9.37,13.7,16.55,20.84,24.65,24.84,21.21,17.21,12.72,8.83
Porto San Giorgio,43.17784,13.79411,IT,15558,3170073,Porto San Giorgio,7.76,6.59,9.43,13.74,16.6,20.89,24.7,24.89,21.27,17.26,12.77,8.88
Portogruaro,45.78071,12.84052,IT,17468,3170086,Portogruaro,3.95,3.5,7.05,12.95,15.86,20.43,24.63,23.77,18.86,15.14,9.49,5.28
Civitanova Marche,43.30491,13.72068,IT,42251,3170102,Civitanova Marche,7.76,6.59,9.43,13.74,16.6,20.89,24.7,24.89,21.27,17.26,12.77,8.88
Portici,40.81563,14.33716,IT,53801,3170116,Portici,9.25,8.02,11.21,15.2,17.74,21.0,25.02,26.14,21.81,18.77,13.75,10.03
Pordenone,45.95689,12.66051,IT,49878,3170147,Pordenone,2.96,3.13,6.51,12.53,15.16,19.66,23.89,23.07,17.93,14.37,8.21,4.18
Ponticelli,40.8542,14.33038,IT,52284,3170206,Ponticelli,9.3,8.07,11.26,15.26,17.79,21.05,25.07,26.19,21.86,18.82,13.8,10.08
Pontedera,43.66141,10.63067,IT,19518,3170272,Pontedera,5.82,4.85,9.04,13.88,15.64,20.05,25.1,24.57,20.53,16.97,11.06,6.79
Pompei,40.74574,14.49698,IT,23902,3170335,Pompei,9.91,8.62,11.66,15.7,18.13,21.34,25.37,26.56,22.31,19.33,14.34,10.88
Pomigliano d'Arco,40.90975,14.38316,IT,38921,3170341,Pomigliano d'Arco,9.02,7.81,11.07,15.26,17.76,21.15,25.15,26.29,21.78,18.69,13.46,9.73
Pomezia,41.66931,12.50124,IT,22346,3170342,Pomezia,8.1,7.07,10.66,14.54,16.69,20.6,24.7,25.27,21.13,18.39,13.03,9.44
Poggioreale,40.86543,14.28877,IT,23654,3170446,Poggioreale,9.35,8.12,11.31,15.3,17.84,21.1,25.12,26.24,21.91,18.87,13.85,10.13
Poggiomarino,40.80114,14.54066,IT,19451,3170457,Poggiomarino,9.02,7.81,11.07,15.26,17.76,21.15,25.15,26.29,21.78,18.69,13.46,9.73
Poggibonsi,43.47064,11.14804,IT,21692,3170504,Poggibonsi,4.99,3.9,8.32,13.35,14.91,19.77,24.89,24.12,20.16,16.35,10.03,5.78
Pistoia,43.93064,10.92365,IT,73832,3170621,Pistoia,4.6,2.98,7.92,13.41,15.0,19.61,24.41,24.11,19.97,15.95,9.77,5.68
Piscinola,40.89299,14.23394,IT,27534,3170631,Piscinola,8.91,7.72,10.75,14.54,17.08,20.25,24.26,25.31,21.25,18.32,13.48,9.89
Pisa,43.70853,10.4036,IT,109960,3170647,Pisa,6.72,5.65,9.47,13.86,15.72,19.79,24.71,24.43,20.59,17.46,11.83,8.02
Piossasco,44.98802,7.4601,IT,16904,3170659,Piossasco,1.26,0.59,4.19,10.61,13.07,18.33,22.6,21.4,17.96,12.43,5.91,1.51
Piombino,42.92554,10.52585,IT,34041,3170674,Piombino,9.34,8.01,11.0,14.47,16.47,20.39,25.18,25.4,21.84,18.96,13.72,11.03
Pioltello,45.50147,9.33053,IT,34203,3170676,Pioltello,2.76,2.01,5.88,12.23,14.67,19.73,24.41,23.05,18.65,14.15,7.93,3.34
Pinerolo,44.88534,7.33135,IT,30866,3170694,Pinerolo,0.67,-0.08,3.64,9.95,12.46,17.61,21.73,20.51,17.21,11.76,5.67,1.15
Pietrasanta,43.95952,10.22784,IT,18897,3170778,Pietrasanta,7.3,5.9,9.34,13.72,15.4,19.48,24.17,24.19,20.32,17.45,12.01,9.15
Pianura,40.85907,14.17314,IT,57821,3170921,Pianura,7.6,6.4,9.9,14.11,16.61,20.0,23.86,24.99,20.48,17.39,12.2,8.21
Piacenza,45.05242,9.69342,IT,103607,3171058,Piacenza,3.05,2.29,6.6,13.08,15.8,20.63,25.15,24.49,20.16,15.0,8.88,4.15
Pescara,42.4584,14.20283,IT,119554,3171168,Pescara,6.5,5.72,9.37,14.2,16.86,20.63,24.12,24.68,20.76,16.97,12.06,6.99
Pesaro,43.90921,12.9164,IT,77241,3171173,Pesaro,8.01,7.32,10.13,14.46,17.44,21.94,25.12,25.12,21.9,17.81,13.66,9.16
Perugia,43.1122,12.38878,IT,120137,3171180,Perugia,3.39,2.17,6.69,12.0,13.39,17.98,22.07,22.55,18.21,14.48,8.62,4.25
Pavia,45.19205,9.15917,IT,65734,3171366,Pavia,3.1,2.46,6.26,12.79,15.51,20.38,25.03,24.04,20.15,14.87,8.67,3.96
Parma,44.79935,10.32618,IT,198292,3171457,Parma,2.88,2.03,6.6,12.71,15.47,20.23,24.61,23.95,19.55,15.01,8.69,4.13
Parabiago,45.56034,8.94545,IT,26364,3171484,Parabiago,3.06,2.38,5.79,11.98,14.65,19.94,24.61,22.85,18.63,13.98,8.1,3.48
Palo del Colle,41.05562,16.70321,IT,20692,3171562,Palo del Colle,8.79,7.61,10.84,14.77,18.31,21.48,24.82,25.7,21.93,18.4,13.97,9.43
Palazzolo sull'Oglio,45.59665,9.88688,IT,17973,3171586,Palazzolo sull'Oglio,2.26,1.55,5.49,11.69,13.93,18.82,22.92,22.72,18.14,13.87,7.92,3.62
Palagiano,40.57762,17.03812,IT,15388,3171664,Palagiano,9.0,8.07,11.27,15.58,19.71,23.86,27.07,28.2,23.58,19.13,14.18,9.51
Pagani,40.74199,14.61448,IT,32835,3171703,Pagani,9.9,8.56,11.65,15.7,18.11,21.35,25.34,26.52,22.26,19.34,14.3,10.91
Padova,45.40797,11.88586,IT,203725,3171728,Padova,3.4,3.09,7.14,13.01,15.79,20.36,24.43,23.73,19.39,15.26,9.48,4.29
Paderno Dugnano,45.56899,9.16483,IT,46235,3171737,Paderno Dugnano,2.91,2.09,5.82,12.09,14.57,19.74,24.44,22.97,18.5,14.11,8.09,3.49
Ottaviano,40.85193,14.47826,IT,23396,3171778,Ottaviano,7.97,6.74,10.1,14.42,16.86,20.33,24.26,25.47,20.81,17.79,12.36,8.71
Ostuni,40.72913,17.57675,IT,24157,3171786,Ostuni,8.65,7.88,10.8,14.54,18.84,22.07,25.29,26.21,22.13,18.12,13.66,9.48
Osimo,43.48539,13.48222,IT,16610,3171848,Osimo,4.83,3.88,7.57,12.39,14.79,19.18,23.09,23.27,19.73,15.41,10.39,5.67
Orta Nova,41.32879,15.70994,IT,16677,3171900,Orta Nova,7.46,6.36,10.29,15.25,18.3,22.33,25.56,26.58,22.06,18.33,13.04,7.67
Orbassano,45.00547,7.53813,IT,21813,3171986,Orbassano,1.51,0.84,4.44,10.86,13.32,18.58,22.85,21.65,18.21,12.67,6.16,1.76
Olbia,40.92337,9.49802,IT,60345,3172087,Olbia,10.27,8.56,12.04,14.62,16.62,20.82,25.44,25.51,22.13,20.35,14.14,10.94
Oderzo,45.78114,12.49442,IT,15764,3172116,Oderzo,3.37,3.41,6.86,12.82,15.51,20.16,24.2,23.27,18.57,14.67,8.85,4.57
Nuoro,40.31991,9.32568,IT,35948,3172154,Nuoro,6.17,4.38,8.74,12.25,13.89,19.26,23.73,24.01,19.13,18.06,9.95,7.04
Novi Ligure,44.76246,8.787,IT,25957,3172170,Novi Ligure,2.25,1.83,5.12,11.8,14.28,19.12,23.96,23.44,19.8,14.1,7.73,3.71
Novate Milanese,45.5305,9.13954,IT,19758,3172184,Novate Milanese,2.71,2.13,5.8,12.18,14.8,19.94,24.63,23.03,18.81,14.14,8.02,3.27
Novara,45.44694,8.62118,IT,101916,3172189,Novara,2.48,2.25,5.77,12.1,14.76,19.82,23.69,22.4,18.85,13.89,7.68,2.85
Nova Milanese,45.58882,9.19792,IT,22310,3172191,Nova Milanese,2.81,1.99,5.72,11.99,14.47,19.64,24.34,22.87,18.4,14.01,7.99,3.39
Nola,40.92606,14.52816,IT,24101,3172227,Nola,8.97,7.75,11.02,15.2,17.71,21.11,25.1,26.24,21.73,18.64,13.41,9.68
Noicattaro,41.03449,16.98963,IT,21988,3172228,Noicattaro,9.4,8.3,11.4,15.21,18.92,21.9,25.08,26.11,22.29,18.84,14.45,10.09
Noci,40.79356,17.12681,IT,15383,3172240,Noci,7.29,6.34,9.73,13.7,17.99,21.27,24.44,25.43,21.12,17.52,12.5,8.13
Nocera Superiore,40.74248,14.67447,IT,23452,3172243,Nocera Superiore,10.12,8.62,11.57,15.66,17.98,21.13,25.05,26.05,21.97,19.31,14.46,11.33
Nocera Inferiore,40.7454,14.64542,IT,45608,3172244,Nocera Inferiore,9.75,8.4,11.5,15.55,17.96,21.2,25.19,26.38,22.11,19.19,14.15,10.76
Nichelino,45.00031,7.65305,IT,47760,3172269,Nichelino,2.06,1.59,4.97,11.25,13.58,19.02,23.63,22.55,19.09,13.09,6.57,2.74
Nettuno,41.45794,12.66393,IT,49873,3172287,Nettuno,9.16,8.03,11.28,15.07,17.44,20.94,25.09,25.71,21.7,18.96,13.98,10.52
Nerviano,45.55343,8.9792,IT,17030,3172297,Nerviano,2.97,2.27,5.74,12.0,14.64,19.91,24.64,22.91,18.59,13.98,8.08,3.43
Nardò,40.17953,18.03174,IT,29668,3172379,Nardò,10.5,9.71,12.26,15.82,19.73,23.17,26.42,27.48,23.49,19.51,15.63,11.47
Naples,40.85216,14.26811,IT,909048,3172394,Naples,9.35,8.12,11.31,15.3,17.84,21.1,25.12,26.24,21.91,18.87,13.85,10.13
Mugnano di Napoli,40.90936,14.20984,IT,34231,3172472,Mugnano di Napoli,9.01,7.82,10.85,14.64,17.18,20.35,24.36,25.41,21.35,18.42,13.58,9.99
Muggiò,45.58878,9.22784,IT,23193,3172479,Muggiò,2.81,1.99,5.72,11.99,14.47,19.64,24.34,22.87,18.4,14.01,7.99,3.39
Monza,45.58005,9.27246,IT,124398,3172629,Monza,2.81,1.91,5.77,12.04,14.44,19.52,24.22,22.87,18.33,14.07,7.94,3.34
Montichiari,45.41317,10.39799,IT,15030,3172681,Montichiari,3.38,3.1,6.88,12.71,15.21,20.19,24.81,24.5,19.66,14.99,9.2,4.8
Montevarchi,43.5252,11.57238,IT,18682,3172718,Montevarchi,5.23,4.24,8.63,13.78,15.33,19.98,24.7,24.65,20.49,16.59,10.48,5.82
Montesilvano Marina,42.5114,14.14507,IT,45991,3172729,Montesilvano Marina,6.75,5.91,9.42,14.37,17.07,20.74,24.19,24.72,20.88,17.26,12.42,7.53
Monterotondo,42.05159,12.61969,IT,37225,3172768,Monterotondo,5.41,4.97,9.33,14.2,15.98,20.83,25.14,25.79,20.45,16.76,10.95,6.47
Montemurlo,43.92686,11.03718,IT,17502,3172828,Montemurlo,4.62,2.96,7.84,13.3,14.87,19.59,24.37,24.02,19.93,15.89,9.75,5.7
Montecchio Maggiore-Alte Ceccato,45.50369,11.412,IT,20815,3172979,Montecchio Maggiore-Alte Ceccato,3.17,3.15,6.83,12.85,15.27,20.09,24.15,23.72,19.11,14.82,8.88,4.13
Montecatini-Terme,43.88153,10.7723,IT,17954,3172996,Montecatini-Terme,4.88,3.69,8.22,13.52,15.13,19.76,24.76,24.2,20.14,16.2,10.1,5.89
Montebelluna,45.77504,12.04904,IT,26670,3173029,Montebelluna,2.65,2.42,6.21,11.99,14.27,19.03,22.88,22.24,17.81,13.99,8.19,4.28
Monselice,45.239,11.74984,IT,18682,3173124,Monselice,3.62,3.3,7.39,13.18,16.05,20.62,24.88,24.4,19.91,15.61,9.79,4.42
Monopoli,40.94918,17.29717,IT,37738,3173131,Monopoli,10.76,9.8,12.58,15.93,19.78,22.86,26.04,26.93,23.36,19.54,15.49,11.7
Monfalcone,45.80463,13.53292,IT,26706,3173153,Monfalcone,4.96,4.46,7.05,12.44,15.93,20.28,24.69,24.03,18.91,15.38,10.55,7.29
Mondragone,41.11399,13.89157,IT,28683,3173160,Mondragone,10.55,9.32,12.15,15.66,18.15,21.24,25.02,25.83,22.39,19.7,15.06,11.79
Mondovì,44.39603,7.81764,IT,21880,3173162,Mondovì,1.87,-0.3,3.13,10.27,13.35,18.31,21.95,21.45,18.51,12.82,6.45,2.89
Moncalieri,44.9994,7.68236,IT,56134,3173180,Moncalieri,2.01,1.54,4.92,11.2,13.53,18.97,23.58,22.5,19.03,13.05,6.52,2.69
Molfetta,41.20036,16.59905,IT,59557,3173287,Molfetta,9.15,8.1,11.39,15.25,18.9,22.23,25.73,26.46,22.61,18.95,14.51,9.71
Mola di Bari,41.05997,17.09001,IT,24682,3173302,Mola di Bari,10.27,9.1,11.96,15.49,18.93,21.85,25.09,26.1,22.62,19.19,15.18,11.15
Mogliano Veneto,45.55594,12.24294,IT,21991,3173314,Mogliano Veneto,3.78,3.4,7.25,13.07,15.84,20.48,24.49,23.67,19.24,15.25,9.66,5.06
Modugno,41.08433,16.78342,IT,36384,3173326,Modugno,9.6,8.41,11.48,15.25,18.73,21.79,25.08,26.01,22.37,18.89,14.66,10.34
Modena,44.64783,10.92539,IT,184732,3173331,Modena,3.43,2.31,6.78,12.92,15.67,20.72,25.27,24.6,20.2,15.33,9.15,4.41
Mirano,45.49458,12.10775,IT,15139,3173369,Mirano,3.95,3.54,7.34,13.08,15.96,20.54,24.57,23.84,19.48,15.44,9.92,5.12
Mirandola,44.88515,11.06902,IT,17380,3173370,Mirandola,3.62,3.03,7.48,13.29,16.27,21.18,25.53,25.11,20.74,15.73,9.91,4.23
Mira Taglio,45.4346,12.12942,IT,32881,3173385,Mira Taglio,4.23,3.85,7.51,13.15,16.29,20.75,24.8,24.08,19.82,15.76,10.4,5.4
Minturno,41.26294,13.74583,IT,16236,3173391,Minturno,7.64,6.65,9.99,13.9,16.37,19.54,23.41,24.33,20.37,17.39,12.61,8.86
Milan,45.46427,9.18951,IT,1371498,3173435,Milan,2.66,2.01,5.78,12.15,14.67,19.79,24.46,22.99,18.68,14.08,7.92,3.22
Miano,40.88816,14.25339,IT,23896,3173473,Miano,8.7,7.47,10.66,14.66,17.19,20.45,24.47,25.59,21.26,18.22,13.2,9.48
Mestre,45.49167,12.24538,IT,147662,3173529,Mestre,4.09,3.63,7.3,13.02,15.96,20.57,24.59,23.83,19.46,15.44,10.04,5.36
Mesagne,40.55851,17.80774,IT,26497,3173537,Mesagne,9.4,8.7,11.68,15.6,20.02,23.23,26.37,27.27,23.1,18.82,14.44,10.13
Merano,46.66817,11.15953,IT,41051,3173577,Merano,2.6,1.34,5.51,11.64,13.39,18.44,22.62,21.82,17.92,12.92,6.85,3.63
Mentana,42.03539,12.64413,IT,17047,3173582,Mentana,6.07,5.3,9.63,14.24,16.18,20.57,24.78,25.44,20.42,17.12,11.46,7.17
Melzo,45.4981,9.42043,IT,18031,3173599,Melzo,2.81,1.97,5.92,12.26,14.62,19.63,24.29,23.08,18.62,14.17,7.94,3.41
Melito di Napoli,40.91948,14.23104,IT,36933,3173614,Melito di Napoli,9.16,7.97,11.0,14.79,17.33,20.5,24.51,25.56,21.5,18.57,13.73,10.14
Melegnano,45.35781,9.3236,IT,16707,3173631,Melegnano,2.84,2.17,6.2,12.62,15.13,20.15,24.76,23.48,19.22,14.51,8.16,3.35
Meda,45.66121,9.15337,IT,22665,3173671,Meda,3.03,2.14,5.72,11.95,14.42,19.56,24.16,22.77,18.33,13.98,8.07,3.72
Matera,40.66599,16.60463,IT,60403,3173721,Matera,6.35,5.46,9.11,13.74,17.85,21.8,24.72,26.03,21.4,17.39,11.91,6.86
Massarosa,43.86638,10.34458,IT,22435,3173754,Massarosa,6.72,5.48,9.09,13.43,15.23,19.21,24.0,23.85,20.07,17.13,11.63,8.24
Massafra,40.58618,17.11635,IT,30875,3173762,Massafra,8.83,7.88,11.05,15.28,19.5,23.56,26.8,27.79,23.28,18.85,13.98,9.45
Massa,44.03541,10.13927,IT,64783,3173775,Massa,6.71,5.34,8.52,13.31,15.0,19.06,23.74,23.87,19.85,16.91,11.41,8.88
Martina Franca,40.70355,17.33814,IT,37685,3173841,Martina Franca,7.34,6.43,9.67,13.47,17.88,21.31,24.51,25.42,21.17,17.44,12.46,8.3
Marino,41.76984,12.65917,IT,44142,3173914,Marino,5.48,4.5,8.68,13.09,15.05,19.17,23.21,23.91,19.2,16.3,10.62,6.73
Marina di Massa,44.0038,10.10674,IT,19092,3173931,Marina di Massa,7.01,5.64,8.82,13.61,15.3,19.36,24.04,24.17,20.15,17.21,11.71,9.18
Marina di Carrara,44.03837,10.04142,IT,25000,3173935,Marina di Carrara,7.27,5.94,8.95,13.52,15.32,19.29,23.99,24.1,20.13,17.27,11.87,9.59
Marigliano,40.9248,14.45612,IT,29901,3173945,Marigliano,9.02,7.81,11.07,15.26,17.76,21.15,25.15,26.29,21.78,18.69,13.46,9.73
Mariano Comense,45.69651,9.1818,IT,22643,3173949,Mariano Comense,2.78,1.89,5.47,11.7,14.17,19.31,23.91,22.52,18.08,13.73,7.82,3.47
Marcianise,41.03064,14.29868,IT,40239,3173995,Marcianise,8.4,7.2,10.7,14.91,17.41,20.8,24.66,25.79,21.28,18.19,13.0,9.01
Marano di Napoli,40.8971,14.18824,IT,49920,3174021,Marano di Napoli,7.5,6.3,9.8,14.01,16.51,19.9,23.76,24.89,20.38,17.29,12.1,8.11
Mantova,45.16031,10.79784,IT,39260,3174051,Mantova,3.39,2.93,7.18,13.11,15.65,20.58,24.96,24.56,19.9,15.19,9.23,4.18
Manfredonia,41.63065,15.91876,IT,56932,3174092,Manfredonia,9.74,8.69,11.95,16.35,19.47,23.32,26.45,27.08,23.18,19.76,15.24,10.52
Manduria,40.39899,17.63726,IT,27411,3174096,Manduria,9.84,8.99,11.65,15.4,19.37,23.16,26.46,27.47,23.18,19.36,14.89,10.58
Malnate,45.79377,8.88104,IT,15466,3174141,Malnate,2.84,1.9,4.99,10.86,13.42,18.61,23.0,21.69,17.77,13.24,7.37,3.36
Magenta,45.46456,8.88453,IT,22566,3174295,Magenta,2.87,2.43,5.93,12.25,14.95,20.14,24.69,23.02,18.95,14.16,8.14,3.31
Maddaloni,41.03578,14.3823,IT,34546,3174358,Maddaloni,8.13,6.96,10.53,14.98,17.4,20.91,24.77,25.98,21.2,18.11,12.66,8.74
Macerata,43.29789,13.45293,IT,30842,3174380,Macerata,4.33,3.16,7.26,12.35,14.52,18.77,22.45,22.69,19.0,15.08,9.78,5.04
Lugo,44.42137,11.91094,IT,21273,3174494,Lugo,4.26,3.47,7.71,13.23,16.15,21.28,25.51,24.86,20.99,16.06,10.71,5.15
Lucera,41.5055,15.3391,IT,32222,3174526,Lucera,6.55,5.54,9.45,14.63,17.48,21.59,24.86,25.88,21.36,17.61,12.17,6.93
Lucca,43.84369,10.50447,IT,81748,3174530,Lucca,5.79,4.4,8.61,13.47,15.16,19.45,24.16,23.99,19.95,16.69,10.76,7.01
Lodi,45.30989,9.50085,IT,40767,3174638,Lodi,3.13,2.41,6.45,12.86,15.33,20.28,24.86,23.91,19.64,14.77,8.46,3.69
Livorno,43.54427,10.32615,IT,157017,3174659,Livorno,7.94,6.81,10.11,14.13,16.04,20.04,25.13,24.84,21.07,18.1,12.78,9.41
Lissone,45.61236,9.23985,IT,37353,3174679,Lissone,2.71,1.89,5.62,11.89,14.37,19.54,24.24,22.77,18.3,13.91,7.89,3.29
Limbiate,45.59951,9.12509,IT,32062,3174719,Limbiate,2.84,2.09,5.67,11.96,14.54,19.76,24.51,22.88,18.46,13.94,7.98,3.34
Lido di Ostia,41.73212,12.27654,IT,85301,3174741,Lido di Ostia,9.02,8.01,11.25,14.88,17.12,20.99,25.02,25.54,21.72,19.1,13.87,10.38
Lido,45.4105,12.36649,IT,15719,3174748,Lido,4.46,4.05,7.38,13.01,16.16,20.75,24.78,23.99,19.62,15.65,10.51,5.91
Legnano,45.59788,8.91506,IT,57589,3174921,Legnano,2.91,2.23,5.64,11.83,14.51,19.79,24.46,22.7,18.48,13.83,7.95,3.33
Legnago,45.19365,11.30227,IT,21646,3174922,Legnago,3.45,3.03,7.19,13.04,15.73,20.45,24.77,24.44,19.85,15.23,9.39,4.17
Lecco,45.85589,9.39704,IT,46580,3174945,Lecco,3.51,2.79,6.06,12.25,14.54,19.56,23.79,22.92,18.74,14.26,8.33,4.41
Lecce,40.35481,18.17244,IT,80695,3174953,Lecce,9.86,9.26,11.99,15.72,19.98,23.11,26.31,27.3,23.24,18.93,14.94,10.79
Latina,41.46614,12.9043,IT,76305,3175058,Latina,7.82,6.91,10.59,14.83,17.26,20.87,24.98,25.78,21.33,18.2,13.04,9.07
La Spezia,44.103,9.82375,IT,93288,3175081,La Spezia,9.06,7.54,10.2,14.32,16.14,20.35,24.89,24.92,21.15,18.32,13.5,11.53
L'Aquila,42.35055,13.39954,IT,33691,3175121,L'Aquila,3.23,1.47,5.91,11.36,13.04,17.26,21.27,22.33,17.73,14.93,8.07,5.37
Lanciano,42.22718,14.39024,IT,34791,3175173,Lanciano,4.97,4.05,8.24,13.08,15.52,19.17,22.74,23.34,19.28,15.69,10.44,5.32
Lainate,45.57176,9.02681,IT,25011,3175238,Lainate,2.96,2.26,5.74,12.0,14.64,19.91,24.64,22.91,18.59,13.98,8.07,3.42
Ladispoli,41.95068,12.075,IT,34204,3175298,Ladispoli,8.83,7.96,11.12,15.01,17.23,21.26,25.2,25.74,21.72,19.09,13.8,10.28
Ivrea,45.46723,7.87617,IT,23599,3175384,Ivrea,2.96,1.65,5.01,10.99,13.76,19.14,22.81,22.1,18.54,13.06,6.67,3.55
Isernia,41.59603,14.23399,IT,16945,3175445,Isernia,4.49,3.7,7.68,12.51,14.64,18.5,21.93,23.18,18.53,15.4,9.58,5.18
Ischia Porto,40.73913,13.951,IT,18192,3175453,Ischia Porto,10.45,9.22,12.05,15.56,18.05,21.14,24.92,25.73,22.29,19.6,14.96,11.69
Ischia,40.73793,13.94862,IT,18564,3175458,Ischia,10.45,9.22,12.05,15.56,18.05,21.14,24.92,25.73,22.29,19.6,14.96,11.69
Pallanza-Intra-Suna,45.93778,8.57088,IT,28911,3175500,Pallanza-Intra-Suna,3.33,2.72,5.74,11.45,14.2,19.53,23.84,22.46,18.68,13.79,7.88,3.73
Imperia,43.88917,8.03933,IT,42328,3175532,Imperia,7.38,5.87,8.56,13.45,15.54,19.58,23.87,23.74,20.44,17.09,11.91,9.51
Imola,44.35916,11.7132,IT,69953,3175537,Imola,4.05,2.89,7.53,13.21,15.98,21.06,25.47,24.83,20.91,15.88,10.29,5.13
Jesi,43.52142,13.24368,IT,36985,3175628,Jesi,5.62,4.74,8.62,13.57,15.93,20.29,23.97,24.19,20.81,16.46,11.37,6.42
Guidonia,41.99232,12.71876,IT,20943,3175678,Guidonia,5.92,5.3,9.7,14.49,16.25,20.88,25.09,25.78,20.6,17.12,11.44,7.0
Grumo Nevano,40.93591,14.25983,IT,17879,3175743,Grumo Nevano,9.1,7.87,11.06,15.05,17.59,20.85,24.87,25.99,21.66,18.62,13.6,9.88
Grugliasco,45.06516,7.57954,IT,36700,3175755,Grugliasco,1.69,0.87,4.38,10.8,13.26,18.64,22.98,21.75,18.27,12.62,5.97,1.7
Grottaglie,40.53694,17.43723,IT,31320,3175773,Grottaglie,9.42,8.45,11.24,14.94,19.02,22.61,25.98,26.94,22.93,18.89,14.41,10.16
Grottaferrata,41.78664,12.67144,IT,18144,3175775,Grottaferrata,5.53,4.55,8.73,13.14,15.1,19.22,23.26,23.96,19.25,16.35,10.67,6.78
Grosseto,42.76296,11.10941,IT,60922,3175786,Grosseto,7.67,6.45,10.13,14.34,16.28,20.6,25.33,25.76,21.48,18.32,12.54,9.01
Gravina in Puglia,40.81748,16.41915,IT,42210,3175860,Gravina in Puglia,6.34,5.3,9.14,13.69,17.66,21.59,24.41,25.79,21.24,17.36,11.84,6.71
Gragnano,40.68907,14.52036,IT,29082,3175952,Gragnano,9.15,7.87,10.91,14.95,17.38,20.59,24.62,25.81,21.56,18.58,13.59,10.13
Gorizia,45.94088,13.62167,IT,34428,3175986,Gorizia,3.55,2.78,6.08,12.13,15.18,19.6,24.29,23.65,17.99,14.38,9.09,5.88
Gorgonzola,45.53069,9.40531,IT,18979,3175990,Gorgonzola,2.66,1.82,5.77,12.11,14.47,19.48,24.14,22.93,18.48,14.02,7.79,3.26
Giussano,45.70004,9.2089,IT,25916,3176041,Giussano,2.68,1.79,5.37,11.6,14.07,19.21,23.81,22.42,17.98,13.63,7.72,3.37
Giulianova,42.75381,13.9665,IT,20490,3176053,Giulianova,7.51,6.44,9.58,14.5,17.29,21.2,24.81,25.13,21.25,17.61,13.12,8.76
Giugliano in Campania,40.92849,14.20197,IT,80269,3176059,Giugliano in Campania,9.16,7.97,11.0,14.79,17.33,20.5,24.51,25.56,21.5,18.57,13.73,10.14
Giovinazzo,41.185,16.67054,IT,19186,3176072,Giovinazzo,9.25,8.2,11.49,15.35,19.0,22.33,25.83,26.56,22.71,19.05,14.61,9.81
Gioia del Colle,40.79968,16.92298,IT,24184,3176090,Gioia del Colle,7.31,6.32,9.88,14.09,18.19,21.59,24.68,25.81,21.42,17.73,12.6,7.93
Ginosa,40.5769,16.75655,IT,16151,3176097,Ginosa,7.24,6.32,9.69,14.1,18.15,22.21,25.35,26.63,22.0,17.84,12.57,7.66
Ghedi,45.40204,10.27681,IT,16351,3176177,Ghedi,3.4,3.09,6.95,12.86,15.32,20.3,24.89,24.55,19.76,15.08,9.17,4.7
Genzano di Roma,41.70706,12.68904,IT,20582,3176203,Genzano di Roma,5.09,3.98,8.18,12.58,14.61,18.52,22.42,23.28,18.65,15.89,10.17,6.43
Genoa,44.40478,8.94439,IT,580097,3176219,Genoa,5.99,4.65,7.85,13.72,15.49,20.01,24.19,23.79,20.46,16.78,10.83,8.32
Garbagnate Milanese,45.57438,9.07537,IT,25974,3176322,Garbagnate Milanese,2.84,2.09,5.67,11.96,14.54,19.76,24.51,22.88,18.46,13.94,7.98,3.34
Gallipoli,40.05594,17.99088,IT,19176,3176366,Gallipoli,11.07,10.18,12.54,15.7,19.44,22.68,26.01,27.0,23.58,19.81,16.14,12.11
Galliate,45.47942,8.69815,IT,15699,3176379,Galliate,2.79,2.44,5.85,12.05,14.76,19.93,24.16,22.62,18.79,13.94,7.91,3.24
Gallarate,45.66019,8.79164,IT,50439,3176391,Gallarate,3.21,2.31,5.65,11.58,14.24,19.5,24.02,22.41,18.37,13.82,8.02,3.72
Galatina,40.17416,18.17032,IT,19569,3176407,Galatina,10.08,9.4,12.02,15.57,19.63,22.88,26.15,27.18,23.24,19.16,15.22,11.12
Gaeta,41.21408,13.57082,IT,19936,3176438,Gaeta,8.5,7.45,11.04,14.9,17.34,20.6,24.31,25.41,21.38,18.47,13.48,9.71
Fuorigrotta,40.83333,14.2,IT,76521,3176477,Fuorigrotta,9.36,8.17,11.2,14.99,17.53,20.7,24.71,25.76,21.7,18.77,13.93,10.34
Frosinone,41.63976,13.34109,IT,44505,3176515,Frosinone,5.44,5.02,9.07,14.14,16.32,20.01,23.86,25.13,19.93,16.47,10.83,6.31
Frattaminore,40.9558,14.27201,IT,15487,3176560,Frattaminore,8.35,7.16,10.65,14.87,17.37,20.75,24.61,25.75,21.23,18.14,12.95,8.96
Frattamaggiore,40.9414,14.27588,IT,29822,3176561,Frattamaggiore,9.15,7.92,11.11,15.1,17.64,20.9,24.92,26.04,21.71,18.67,13.65,9.93
Frascati,41.8091,12.67942,IT,20036,3176589,Frascati,5.68,4.7,8.88,13.29,15.25,19.37,23.41,24.11,19.4,16.5,10.82,6.93
Francavilla Fontana,40.53123,17.58522,IT,33415,3176603,Francavilla Fontana,9.2,8.39,11.29,15.14,19.37,22.97,26.23,27.23,22.84,18.86,14.23,9.91
Francavilla al Mare,42.42158,14.28217,IT,21095,3176605,Francavilla al Mare,7.05,6.12,9.6,14.25,17.03,20.81,24.43,24.96,21.0,17.28,12.47,7.66
Fossano,44.55077,7.71922,IT,18773,3176639,Fossano,0.95,-0.39,3.42,10.06,12.52,17.52,21.63,20.91,17.97,12.32,6.29,2.4
Fornacelle,43.92377,11.03525,IT,17278,3176722,Fornacelle,4.6,3.28,7.91,13.24,14.8,19.63,24.66,24.01,19.95,15.9,9.73,5.47
Formigine,44.57268,10.84737,IT,34328,3176733,Formigine,3.13,2.06,6.44,12.66,15.37,20.34,24.81,24.13,19.8,15.06,8.79,4.24
Formia,41.25632,13.60888,IT,28521,3176738,Formia,8.5,7.45,11.04,14.9,17.34,20.6,24.31,25.41,21.38,18.47,13.48,9.71
Forlì,44.22177,12.04144,IT,116696,3176746,Forlì,4.27,3.48,7.94,13.41,15.99,21.13,25.31,24.58,20.71,15.95,10.54,5.26
Forio,40.73757,13.86003,IT,15969,3176748,Forio,10.6,9.37,12.2,15.71,18.19,21.3,25.07,25.88,22.44,19.75,15.11,11.84
Fondi,41.35787,13.42718,IT,39762,3176843,Fondi,8.78,7.64,11.03,14.96,17.37,20.7,24.64,25.66,21.51,18.64,13.62,10.11
Follonica,42.92779,10.76451,IT,21163,3176849,Follonica,8.39,7.15,10.46,14.45,16.53,20.7,25.49,25.72,21.79,18.68,13.14,9.74
Foligno,42.95488,12.70268,IT,56918,3176854,Foligno,4.66,3.64,8.16,13.47,14.71,19.38,23.37,24.0,19.72,15.83,9.85,5.66
Foggia,41.45845,15.55188,IT,137032,3176885,Foggia,7.52,6.66,10.36,15.84,18.92,23.27,26.44,27.18,22.58,18.73,13.33,7.88
Fiumicino,41.77093,12.23662,IT,34556,3176923,Fiumicino,9.07,8.06,11.29,14.93,17.18,21.04,25.07,25.59,21.77,19.15,13.93,10.43
Florence,43.77925,11.24626,IT,367150,3176959,Florence,4.91,3.59,8.15,13.45,15.0,19.89,24.85,24.21,20.19,16.16,10.01,5.76
Fiorano,44.53889,10.81166,IT,16278,3176970,Fiorano,2.87,1.81,6.19,12.41,15.12,20.09,24.56,23.87,19.55,14.81,8.54,3.99
Fidenza,44.86694,10.06039,IT,21952,3177029,Fidenza,2.71,1.82,6.4,12.56,15.21,20.0,24.49,23.89,19.44,14.75,8.45,3.91
Ferrara,44.83804,11.62057,IT,132009,3177090,Ferrara,3.91,3.26,7.5,13.22,16.28,21.22,25.77,25.33,20.98,16.03,10.39,4.71
Fermo,43.16296,13.72274,IT,18109,3177099,Fermo,5.49,4.21,7.83,12.59,15.02,19.13,22.77,23.03,19.19,15.68,10.72,6.39
Fasano,40.83625,17.36007,IT,22593,3177171,Fasano,9.63,8.78,11.58,15.13,19.17,22.19,25.48,26.44,22.6,18.82,14.57,10.47
Fano,43.84052,13.01665,IT,60978,3177219,Fano,6.78,5.96,9.03,13.56,16.47,20.92,24.56,24.49,21.1,17.08,12.46,7.85
Falconara Marittima,43.62558,13.39954,IT,25948,3177250,Falconara Marittima,7.31,6.33,9.26,13.62,16.54,20.98,24.7,24.67,21.37,17.2,12.66,8.46
Faenza,44.29007,11.87948,IT,41714,3177300,Faenza,4.15,3.4,7.77,13.29,16.04,21.19,25.38,24.7,20.87,15.88,10.5,5.14
Fabriano,43.33941,12.90327,IT,23230,3177315,Fabriano,4.41,3.04,7.69,13.01,14.71,19.07,22.73,23.08,19.51,15.54,9.77,5.23
Este,45.22338,11.66379,IT,16963,3177337,Este,3.62,3.3,7.39,13.18,16.05,20.62,24.88,24.4,19.91,15.61,9.79,4.42
Ercolano,40.80783,14.35012,IT,53576,3177363,Ercolano,9.61,8.32,11.36,15.4,17.83,21.04,25.07,26.26,22.01,19.03,14.04,10.58
Erba,45.8088,9.22609,IT,16431,3177372,Erba,2.61,1.67,5.41,11.65,14.03,19.09,23.63,22.41,17.93,13.69,7.7,3.39
Empoli,43.71795,10.94758,IT,34394,3177400,Empoli,5.19,4.16,8.62,13.72,15.35,20.13,25.38,24.51,20.46,16.57,10.43,5.99
Eboli,40.61747,15.05693,IT,26183,3177438,Eboli,8.1,6.83,10.5,15.09,17.54,20.72,24.14,25.58,20.63,17.98,12.73,8.89
Domodossola,46.1165,8.29313,IT,17778,3177532,Domodossola,2.4,0.24,4.43,9.26,12.33,17.97,21.43,20.8,17.93,13.27,6.25,2.85
Desio,45.61831,9.20249,IT,41960,3177608,Desio,2.66,1.84,5.57,11.84,14.32,19.49,24.19,22.71,18.25,13.86,7.83,3.24
Desenzano del Garda,45.47127,10.53559,IT,22665,3177610,Desenzano del Garda,3.83,3.5,6.76,12.51,15.06,20.01,24.45,24.32,19.71,15.06,9.67,5.96
Dalmine,45.64933,9.60617,IT,22881,3177650,Dalmine,2.01,1.28,5.21,11.59,13.85,18.77,23.2,22.49,17.78,13.56,7.35,2.83
Cusano,45.55187,9.18373,IT,18904,3177664,Cusano,2.96,2.14,5.87,12.14,14.62,19.79,24.49,23.01,18.55,14.16,8.13,3.54
Cuneo,44.39071,7.54828,IT,55980,3177700,Cuneo,1.17,-0.86,2.79,9.35,12.42,17.48,21.05,20.53,17.6,12.15,5.74,1.94
Cremona,45.13325,10.02129,IT,71223,3177838,Cremona,2.95,2.28,6.79,13.15,15.69,20.56,25.25,24.66,20.09,15.0,8.74,3.7
Crema,45.36264,9.68176,IT,31481,3177841,Crema,3.17,2.37,6.57,12.87,15.2,20.13,24.69,23.91,19.42,14.79,8.36,3.66
Corsico,45.43099,9.11093,IT,33669,3178004,Corsico,2.7,2.19,6.0,12.47,15.19,20.24,24.83,23.36,19.23,14.4,8.14,3.19
Correggio,44.76737,10.78345,IT,15571,3178019,Correggio,3.33,2.66,7.13,13.09,15.98,20.91,25.27,24.57,20.19,15.41,9.34,3.98
Cornaredo,45.50128,9.02681,IT,20098,3178074,Cornaredo,2.76,2.23,5.83,12.19,14.88,20.04,24.72,23.03,18.88,14.16,8.09,3.29
Cormano,45.54917,9.15964,IT,20031,3178087,Cormano,2.56,1.91,5.68,12.05,14.57,19.69,24.36,22.89,18.58,13.98,7.82,3.12
Cordenons,45.9836,12.70038,IT,15962,3178112,Cordenons,2.91,3.08,6.46,12.48,15.11,19.61,23.85,23.02,17.88,14.32,8.16,4.13
Corato,41.15171,16.41143,IT,46505,3178131,Corato,7.76,6.65,10.11,14.18,17.67,21.13,24.56,25.29,21.36,17.75,13.18,8.16
Copertino,40.26821,18.0543,IT,23489,3178141,Copertino,9.97,9.33,12.11,15.9,20.0,23.36,26.53,27.57,23.34,19.19,15.12,10.82
Conversano,40.96836,17.11329,IT,22661,3178147,Conversano,8.85,7.78,10.73,14.44,18.14,21.1,24.32,25.36,21.57,18.12,13.85,9.64
Conegliano,45.88805,12.30201,IT,30765,3178197,Conegliano,3.49,3.39,6.8,12.56,14.91,19.64,23.61,22.89,18.25,14.53,8.59,4.96
Como,45.80819,9.0832,IT,84808,3178229,Como,3.18,2.28,5.72,11.95,14.54,19.75,24.39,22.84,18.41,13.96,8.13,3.73
Cologno Monzese,45.53004,9.27795,IT,45786,3178283,Cologno Monzese,2.71,1.95,5.83,12.19,14.62,19.68,24.36,23.0,18.61,14.1,7.88,3.29
Collegno,45.07873,7.56735,IT,46524,3178388,Collegno,1.59,0.77,4.28,10.7,13.16,18.54,22.88,21.65,18.17,12.52,5.87,1.6
Colleferro,41.72722,13.00481,IT,20736,3178398,Colleferro,6.5,5.37,9.44,13.82,16.02,19.78,23.68,24.62,20.01,17.15,11.61,7.8
Colle di Val d'Elsa,43.42107,11.12739,IT,16625,3178402,Colle di Val d'Elsa,5.0,4.02,8.37,13.41,14.9,19.7,24.73,24.03,20.17,16.44,10.08,5.83
Civitavecchia,42.09325,11.79674,IT,47543,3178587,Civitavecchia,9.83,8.76,11.64,15.05,17.27,21.03,24.76,25.4,21.94,19.65,14.51,11.37
Città di Castello,43.46556,12.2375,IT,22497,3178619,Città di Castello,4.53,3.15,7.77,13.13,14.63,19.13,23.46,23.86,19.35,15.62,9.77,5.29
Cisterna di Latina,41.5908,12.82808,IT,27362,3178631,Cisterna di Latina,7.66,6.58,10.42,14.65,16.88,20.61,24.58,25.43,20.92,18.07,12.72,8.93
Ciriè,45.23486,7.60125,IT,17439,3178650,Ciriè,1.77,0.32,3.85,10.23,12.7,18.14,22.14,21.16,17.78,12.3,5.4,1.54
Cinisello Balsamo,45.55823,9.21495,IT,75943,3178671,Cinisello Balsamo,2.96,2.14,5.87,12.14,14.62,19.79,24.49,23.01,18.55,14.16,8.13,3.54
Ciampino,41.80064,12.60158,IT,38277,3178738,Ciampino,7.14,6.21,10.2,14.52,16.53,20.7,24.8,25.39,20.8,17.86,12.25,8.44
Chivasso,45.19093,7.88981,IT,23017,3178745,Chivasso,2.84,2.22,5.57,11.86,14.29,19.74,24.21,23.18,19.48,13.8,7.12,3.79
Chioggia,45.21857,12.27774,IT,41897,3178784,Chioggia,5.28,4.95,7.76,12.97,16.59,21.06,25.18,24.69,20.44,16.41,11.55,6.59
Chieti,42.34827,14.16494,IT,44444,3178796,Chieti,5.05,3.91,8.02,12.77,15.21,18.97,22.56,23.25,19.15,15.62,10.3,5.43
Chieri,45.01054,7.82133,IT,36749,3178818,Chieri,1.85,1.64,5.01,11.36,13.68,19.16,23.93,22.92,19.31,13.18,6.68,2.84
Chiavari,44.31771,9.32241,IT,26572,3178832,Chiavari,8.16,6.85,9.46,13.9,15.51,19.62,24.47,24.38,20.58,17.75,12.8,10.64
Chiari,45.53763,9.92699,IT,15541,3178850,Chiari,2.35,1.58,5.59,11.8,14.09,18.96,23.32,22.9,18.25,13.85,7.78,3.43
Cesenatico,44.19987,12.3991,IT,18925,3178956,Cesenatico,4.83,4.43,8.23,13.49,16.31,21.42,25.46,25.0,21.01,16.27,11.34,5.7
Cesena,44.1391,12.24315,IT,97137,3178957,Cesena,4.38,3.69,7.88,13.23,15.77,20.76,24.86,24.23,20.24,15.85,10.58,5.41
Cesano Maderno,45.62915,9.15189,IT,36986,3178972,Cesano Maderno,2.66,1.84,5.57,11.84,14.32,19.49,24.19,22.71,18.25,13.86,7.83,3.24
Cervia,44.26204,12.34812,IT,28700,3178998,Cervia,4.87,4.47,8.2,13.5,16.43,21.58,25.63,25.16,21.23,16.41,11.49,5.77
Cerveteri,41.9908,12.09082,IT,15883,3178999,Cerveteri,8.68,7.81,10.97,14.86,17.08,21.12,25.06,25.59,21.57,18.94,13.64,10.13
Cernusco sul Naviglio,45.52526,9.33297,IT,29078,3179066,Cernusco sul Naviglio,2.71,1.95,5.83,12.19,14.62,19.68,24.36,23.0,18.61,14.1,7.88,3.29
Cerignola,41.26523,15.89559,IT,54056,3179075,Cerignola,7.39,6.4,10.14,15.05,18.18,22.26,25.42,26.37,21.83,18.11,12.95,7.68
Cercola,40.86043,14.35733,IT,17821,3179109,Cercola,8.82,7.61,10.87,15.06,17.56,20.95,24.95,26.09,21.58,18.49,13.26,9.53
Cento,44.73099,11.28716,IT,18191,3179162,Cento,3.95,2.91,7.45,13.2,16.12,21.09,25.81,25.52,21.0,15.96,10.13,4.87
Ceglie Messapica,40.6462,17.51661,IT,16536,3179218,Ceglie Messapica,7.83,7.02,10.18,14.11,18.63,22.21,25.39,26.28,21.9,17.75,12.92,8.59
Cecina,43.30621,10.51729,IT,22018,3179235,Cecina,9.64,8.43,11.21,14.52,16.74,20.71,25.16,25.27,22.05,19.28,14.15,11.46
Cava Dè Tirreni,40.69954,14.70773,IT,53130,3179337,Cava Dè Tirreni,9.22,7.72,10.67,14.76,17.08,20.23,24.15,25.15,21.07,18.41,13.56,10.43
Cattolica,43.96182,12.73631,IT,16189,3179347,Cattolica,6.57,5.92,8.88,13.59,16.7,21.25,25.03,24.7,21.1,17.03,12.39,7.76
Castiglione delle Stiviere,45.3902,10.48619,IT,18530,3179415,Castiglione delle Stiviere,3.53,3.24,6.98,12.79,15.29,20.28,24.86,24.54,19.75,15.07,9.32,4.95
Castel Volturno,41.03288,13.94354,IT,21881,3179443,Castel Volturno,8.77,7.75,11.12,15.09,17.69,20.95,24.99,25.68,21.58,18.43,13.68,9.68
Castel Maggiore,44.57707,11.36071,IT,16068,3179560,Castel Maggiore,3.91,2.68,7.38,13.15,16.11,21.18,25.98,25.44,21.01,15.93,10.12,4.78
Castellammare di Stabia,40.70211,14.48685,IT,66164,3179661,Castellammare di Stabia,9.85,8.57,11.61,15.65,18.08,21.29,25.32,26.51,22.26,19.28,14.29,10.83
Castelfranco Veneto,45.67146,11.92755,IT,25545,3179684,Castelfranco Veneto,2.67,2.88,6.63,12.5,14.82,19.58,23.47,22.83,18.29,14.32,8.56,4.07
Castelfranco Emilia,44.59445,11.04979,IT,17315,3179686,Castelfranco Emilia,3.48,2.3,6.86,12.91,15.7,20.79,25.43,24.8,20.34,15.38,9.29,4.39
Cassino,41.48581,13.82835,IT,21074,3179781,Cassino,7.02,6.19,10.16,14.61,16.94,20.49,24.23,25.44,20.85,17.49,12.2,7.86
Cassano d'Adda,45.52637,9.51528,IT,17267,3179795,Cassano d'Adda,2.64,1.76,5.76,12.09,14.41,19.36,23.97,22.93,18.42,14.01,7.77,3.3
Casoria,40.90751,14.293,IT,73918,3179806,Casoria,9.0,7.77,10.96,14.96,17.49,20.75,24.77,25.89,21.56,18.52,13.5,9.78
Caserta,41.07262,14.33231,IT,72844,3179866,Caserta,7.34,6.25,10.04,14.53,16.97,20.37,24.16,25.29,20.6,17.37,12.19,7.81
Cascina,43.67557,10.55494,IT,40512,3179977,Cascina,5.86,4.9,9.09,13.93,15.69,20.1,25.15,24.61,20.59,17.02,11.11,6.84
Casamassima,40.95653,16.92075,IT,18380,3180133,Casamassima,8.43,7.3,10.54,14.45,18.15,21.16,24.31,25.35,21.5,18.05,13.54,9.05
Casalnuovo di Napoli,40.90969,14.34205,IT,45796,3180172,Casalnuovo di Napoli,9.2,7.97,11.16,15.16,17.69,20.95,24.97,26.09,21.76,18.72,13.7,9.98
Casale Monferrato,45.13338,8.4525,IT,33213,3180208,Casale Monferrato,2.38,2.03,5.79,12.29,14.92,19.87,24.18,23.23,19.81,14.36,7.76,3.0
Casalecchio di Reno,44.47563,11.27495,IT,33789,3180224,Casalecchio di Reno,3.85,2.47,7.25,13.2,16.01,21.11,25.82,25.24,20.9,15.76,9.85,4.93
Casal di Principe,41.00996,14.13013,IT,20589,3180240,Casal di Principe,9.16,8.01,11.21,15.07,17.65,20.83,24.82,25.73,21.66,18.64,13.87,10.06
Carugate,45.54983,9.34044,IT,15368,3180389,Carugate,2.61,1.85,5.73,12.09,14.52,19.58,24.26,22.9,18.51,14.0,7.78,3.19
Carrara,44.07926,10.09789,IT,58666,3180423,Carrara,6.41,5.04,8.22,13.01,14.7,18.76,23.44,23.57,19.55,16.61,11.11,8.58
Carpi Centro,44.78237,10.8777,IT,71148,3180445,Carpi Centro,3.49,2.75,7.25,13.15,16.07,21.03,25.4,24.75,20.38,15.56,9.52,4.09
Carmagnola,44.84963,7.72032,IT,23012,3180496,Carmagnola,1.83,1.42,4.87,11.22,13.48,18.77,23.31,22.47,19.2,13.11,6.98,2.93
Cardito,40.9459,14.29952,IT,22239,3180541,Cardito,9.25,8.02,11.21,15.2,17.74,21.0,25.02,26.14,21.81,18.77,13.75,10.03
Carate Brianza,45.67574,9.23723,IT,15404,3180581,Carate Brianza,2.83,1.94,5.52,11.75,14.22,19.36,23.96,22.57,18.13,13.78,7.87,3.52
Capua,41.10519,14.21269,IT,15438,3180601,Capua,7.96,6.89,10.56,14.89,17.38,20.76,24.66,25.62,21.1,17.9,12.8,8.57
Capannori,43.84171,10.57271,IT,41116,3180733,Capannori,5.62,4.28,8.62,13.63,15.31,19.71,24.48,24.18,20.15,16.64,10.65,6.73
Cantù,45.74096,9.13084,IT,39917,3180758,Cantù,2.65,1.9,4.98,11.06,13.55,18.67,23.03,21.85,17.71,13.21,7.31,3.3
Canosa di Puglia,41.21954,16.06768,IT,29847,3180792,Canosa di Puglia,7.84,6.7,10.53,14.93,18.29,21.98,25.22,26.03,21.88,18.18,13.31,7.95
Campobasso,41.55947,14.66737,IT,49230,3180991,Campobasso,4.0,3.03,7.06,12.07,14.12,17.9,21.28,22.56,18.16,14.84,8.92,4.98
Campi Bisenzio,43.8245,11.13027,IT,32871,3181018,Campi Bisenzio,4.97,3.64,8.2,13.5,15.05,19.94,24.9,24.26,20.24,16.21,10.06,5.81
Camaiore,43.94265,10.29754,IT,26746,3181125,Camaiore,6.57,5.33,8.94,13.28,15.08,19.06,23.86,23.7,19.92,16.98,11.48,8.09
Caivano,40.95753,14.30591,IT,34604,3181258,Caivano,8.45,7.26,10.75,14.97,17.47,20.85,24.71,25.85,21.33,18.24,13.05,9.06
Busto Arsizio,45.61128,8.84914,IT,83405,3181355,Busto Arsizio,2.8,2.21,5.57,11.66,14.33,19.62,24.12,22.47,18.37,13.7,7.85,3.29
Bussolengo,45.46903,10.85371,IT,15170,3181359,Bussolengo,3.73,3.75,6.88,12.84,15.32,20.29,24.59,24.48,19.74,15.06,9.37,5.65
Brusciano,40.92237,14.42386,IT,15238,3181471,Brusciano,9.02,7.81,11.07,15.26,17.76,21.15,25.15,26.29,21.78,18.69,13.46,9.73
Brugherio,45.55301,9.29907,IT,33061,3181495,Brugherio,2.96,2.06,5.92,12.19,14.59,19.67,24.37,23.03,18.48,14.22,8.09,3.49
Brindisi,40.63215,17.93607,IT,87141,3181528,Brindisi,9.85,9.18,12.08,15.91,20.35,23.37,26.52,27.4,23.4,19.08,14.84,10.5
Bresso,45.53792,9.18921,IT,25712,3181548,Bresso,2.61,1.96,5.73,12.1,14.62,19.74,24.41,22.94,18.63,14.04,7.87,3.17
Bressanone,46.71503,11.65598,IT,15868,3181550,Bressanone,-0.35,-1.03,3.95,9.81,11.63,16.52,21.56,20.78,16.15,11.99,4.14,1.64
Brescia,45.53558,10.21472,IT,200423,3181554,Brescia,2.94,2.41,6.05,11.93,14.33,19.22,23.59,23.53,18.87,14.32,8.64,4.58
Bra,44.69776,7.85128,IT,24072,3181631,Bra,1.42,1.08,4.62,11.32,13.8,18.95,23.34,22.9,19.72,13.18,7.05,2.89
Bovisio-Masciago,45.61019,9.15301,IT,16542,3181641,Bovisio-Masciago,2.76,1.94,5.67,11.94,14.42,19.59,24.29,22.81,18.35,13.96,7.93,3.34
Boscoreale,40.77274,14.48118,IT,26861,3181683,Boscoreale,8.92,7.7,10.97,15.16,17.66,21.05,25.05,26.19,21.68,18.59,13.36,9.63
Borgomanero,45.69873,8.4623,IT,20430,3181790,Borgomanero,2.51,1.21,4.64,10.45,13.05,18.45,22.38,21.08,17.41,12.74,6.79,2.82
Bolzano,46.49067,11.33982,IT,107436,3181913,Bolzano,4.7,3.55,7.15,13.14,14.68,19.51,23.6,22.92,19.21,14.32,8.46,5.38
Bologna,44.49381,11.33875,IT,394843,3181928,Bologna,3.85,2.47,7.25,13.2,16.01,21.11,25.82,25.24,20.9,15.76,9.85,4.93
Bollate,45.54647,9.12054,IT,35235,3181931,Bollate,2.61,2.03,5.7,12.08,14.7,19.84,24.53,22.93,18.71,14.04,7.92,3.17
Bitonto,41.11006,16.69086,IT,51661,3181995,Bitonto,9.04,7.86,11.09,15.02,18.56,21.73,25.07,25.95,22.18,18.65,14.22,9.68
Bisceglie,41.24264,16.50104,IT,55385,3182007,Bisceglie,9.22,8.17,11.51,15.44,19.05,22.42,25.92,26.65,22.76,19.1,14.63,9.74
Biella,45.56304,8.05796,IT,43030,3182043,Biella,1.71,-0.27,3.43,9.3,11.99,17.47,20.8,19.99,16.66,11.57,5.03,1.91
Bergamo,45.69601,9.66721,IT,121200,3182164,Bergamo,1.78,1.17,5.21,11.71,13.84,18.8,22.78,22.37,17.83,13.6,7.64,3.32
Benevento,41.1307,14.77816,IT,58418,3182179,Benevento,7.46,6.41,10.12,15.22,17.4,21.22,25.11,26.3,21.08,17.66,11.94,7.99
Belluno,46.14262,12.2156,IT,25064,3182210,Belluno,1.44,1.16,4.7,10.38,12.6,17.33,21.07,20.53,16.21,12.63,6.38,3.37
Battipaglia,40.60861,14.98209,IT,47104,3182272,Battipaglia,8.72,7.41,10.72,15.11,17.6,20.73,24.34,25.61,20.92,18.2,13.29,9.62
Bastia umbra,43.06425,12.54612,IT,17831,3182289,Bastia umbra,5.05,4.03,8.49,13.82,15.14,19.79,23.89,24.42,20.04,16.2,10.38,5.88
Bassano del Grappa,45.76656,11.72739,IT,38224,3182297,Bassano del Grappa,2.32,3.02,6.3,12.3,14.69,19.52,23.22,22.72,18.23,14.0,8.25,3.89
Barra,40.84255,14.31849,IT,36642,3182336,Barra,9.35,8.12,11.31,15.3,17.84,21.1,25.12,26.24,21.91,18.87,13.85,10.13
Barletta,41.31429,16.28165,IT,93279,3182340,Barletta,9.04,7.9,11.2,15.15,18.57,22.04,25.45,26.21,22.44,18.76,14.43,9.52
Bari,41.12066,16.86982,IT,316491,3182351,Bari,10.18,9.0,11.93,15.57,19.03,22.0,25.25,26.23,22.69,19.23,15.14,11.0
Bareggio,45.47927,8.99789,IT,16546,3182361,Bareggio,2.81,2.29,5.87,12.24,14.93,20.09,24.78,23.08,18.93,14.2,8.14,3.34
Bagnoli,40.81322,14.16807,IT,23333,3182518,Bagnoli,9.45,8.22,11.41,15.4,17.94,21.2,25.22,26.34,22.01,18.97,13.95,10.23
Bacoli,40.79672,14.07349,IT,25590,3182599,Bacoli,10.26,9.02,11.87,15.5,18.04,21.16,25.23,26.09,22.27,19.47,14.78,11.42
Avezzano,42.02896,13.42641,IT,37808,3182636,Avezzano,3.28,2.06,6.49,11.86,13.42,17.48,21.19,22.43,17.85,14.94,8.04,4.96
Aversa,40.97259,14.20745,IT,52974,3182640,Aversa,8.61,7.43,10.82,14.82,17.37,20.63,24.53,25.6,21.31,18.26,13.29,9.33
Avellino,40.91494,14.79103,IT,48104,3182650,Avellino,7.74,6.29,9.59,13.8,16.18,19.5,23.36,24.59,20.1,17.3,12.06,8.75
Asti,44.90162,8.20751,IT,74348,3182714,Asti,2.23,2.33,5.85,12.46,15.03,20.12,24.32,23.61,20.09,14.16,7.76,3.32
Ascoli Piceno,42.85351,13.57395,IT,41741,3182749,Ascoli Piceno,5.99,4.71,8.22,13.03,15.55,19.48,23.09,23.36,19.57,16.18,11.31,6.96
Arzignano,45.52027,11.33446,IT,21247,3182757,Arzignano,3.07,2.99,6.62,12.64,15.02,19.89,23.99,23.62,19.02,14.63,8.73,4.11
Arzano,40.90959,14.26519,IT,34933,3182765,Arzano,8.95,7.72,10.91,14.9,17.44,20.7,24.72,25.84,21.51,18.47,13.45,9.73
Ariccia,41.72063,12.6723,IT,17487,3182851,Ariccia,5.25,4.14,8.33,12.72,14.76,18.67,22.56,23.43,18.8,16.04,10.32,6.58
Arezzo,43.46276,11.88068,IT,100734,3182884,Arezzo,4.48,3.44,7.85,13.0,14.59,19.23,23.86,23.91,19.71,15.82,9.78,5.11
Arese,45.55048,9.07741,IT,19138,3182886,Arese,2.94,2.19,5.77,12.06,14.64,19.86,24.61,22.98,18.56,14.04,8.08,3.44
Ardea,41.60742,12.54158,IT,17078,3182897,Ardea,9.11,8.13,11.9,15.84,17.85,21.84,25.6,26.05,22.12,19.48,13.92,10.33
Arcore,45.62675,9.32454,IT,16690,3182904,Arcore,2.66,1.76,5.62,11.89,14.29,19.37,24.07,22.73,18.18,13.92,7.79,3.19
Aprilia,41.59452,12.65419,IT,74977,3182957,Aprilia,8.05,7.03,10.65,14.69,16.91,20.63,24.71,25.43,21.09,18.27,13.05,9.33
Aosta,45.73764,7.31722,IT,35261,3182997,Aosta,0.62,-1.87,3.2,9.31,10.15,15.77,21.82,21.42,17.86,12.64,4.51,3.7
Anzio,41.45263,12.62157,IT,45403,3183005,Anzio,9.06,8.08,11.85,15.79,17.8,21.79,25.55,26.0,22.07,19.43,13.88,10.28
Angri,40.73815,14.5707,IT,31632,3183063,Angri,9.95,8.6,11.7,15.75,18.16,21.4,25.39,26.58,22.31,19.39,14.35,10.96
Andria,41.23117,16.29797,IT,99784,3183072,Andria,8.12,6.98,10.59,14.73,18.17,21.67,25.01,25.77,21.8,18.24,13.56,8.43
Ancona,43.5942,13.50337,IT,89994,3183089,Ancona,7.61,6.57,9.38,13.65,16.63,21.05,24.8,24.78,21.45,17.33,12.87,8.83
Altamura,40.82664,16.54952,IT,70539,3183178,Altamura,5.78,4.7,8.6,12.99,16.85,20.52,23.44,24.72,20.34,16.75,11.32,6.27
Alpignano,45.09346,7.52392,IT,16598,3183187,Alpignano,1.6,0.59,4.24,10.64,13.15,18.51,22.65,21.47,18.07,12.55,5.76,1.45
Alghero,40.55969,8.31953,IT,34261,3183284,Alghero,10.65,9.1,12.3,14.95,16.4,20.75,25.72,25.81,22.29,20.69,14.3,11.41
Alessandria,44.90924,8.61007,IT,92104,3183299,Alessandria,2.49,2.17,5.56,12.08,14.63,19.55,24.36,23.6,20.22,14.4,7.84,3.58
Albignasego,45.34705,11.86781,IT,16477,3183319,Albignasego,3.74,3.41,7.42,13.21,16.14,20.64,24.82,24.18,19.81,15.64,9.91,4.6
Albenga,44.04997,8.21829,IT,17103,3183343,Albenga,7.38,5.87,8.56,13.45,15.54,19.58,23.87,23.74,20.44,17.09,11.91,9.51
Albano Laziale,41.72748,12.659,IT,26684,3183356,Albano Laziale,5.8,4.73,8.76,13.02,15.09,19.03,23.02,23.76,19.22,16.46,10.84,7.13
Alba,44.6999,8.0347,IT,24923,3183364,Alba,2.26,2.41,5.8,12.45,14.98,20.08,24.46,23.91,20.46,14.08,7.95,3.59
Agropoli,40.34923,14.99067,IT,17335,3183412,Agropoli,10.39,8.85,11.97,15.97,18.54,21.37,25.01,26.0,21.97,19.45,14.67,11.23
Afragola,40.92298,14.30935,IT,64470,3183455,Afragola,9.2,7.97,11.16,15.16,17.69,20.95,24.97,26.09,21.76,18.72,13.7,9.98
Adelfia,41.0033,16.87208,IT,16756,3183472,Adelfia,8.93,7.8,11.04,14.95,18.65,21.66,24.81,25.85,22.0,18.55,14.04,9.55
Acqui Terme,44.67552,8.46934,IT,17828,3183490,Acqui Terme,2.7,2.52,5.49,12.16,14.55,19.34,23.87,23.1,19.78,14.31,8.14,4.22
Acquaviva delle Fonti,40.89704,16.8433,IT,20536,3183494,Acquaviva delle Fonti,7.49,6.43,9.99,14.3,18.15,21.31,24.35,25.51,21.3,17.82,12.75,8.1
Acilia-Castel Fusano-Ostia Antica,41.76337,12.33078,IT,129362,3183539,Acilia-Castel Fusano-Ostia Antica,9.02,8.01,11.25,14.88,17.12,20.99,25.02,25.54,21.72,19.1,13.87,10.38
Acerra,40.94477,14.3714,IT,59910,3183541,Acerra,9.02,7.81,11.07,15.26,17.76,21.15,25.15,26.29,21.78,18.69,13.46,9.73
Abbiategrasso,45.39821,8.91678,IT,32784,3183573,Abbiategrasso,2.87,2.41,6.04,12.49,15.23,20.34,24.79,23.3,19.32,14.33,8.19,3.13
Abano Terme,45.35753,11.78725,IT,18224,3183587,Abano Terme,3.35,2.99,7.11,13.0,15.67,20.3,24.38,23.69,19.31,15.18,9.3,4.13
Spinea-Orgnano,45.49107,12.155,IT,23710,3219114,Spinea-Orgnano,4.09,3.63,7.3,13.02,15.96,20.57,24.59,23.83,19.46,15.44,10.04,5.36
Verbania,45.92136,8.55183,IT,31070,6457398,Verbania,3.38,2.77,5.79,11.49,14.25,19.58,23.89,22.51,18.73,13.84,7.94,3.78
Lumezzane,45.64789,10.26487,IT,23712,6534216,Lumezzane,1.85,0.87,4.34,10.23,12.45,17.38,21.41,21.47,17.35,12.94,7.44,4.08
Guidonia Montecelio,41.99362,12.72238,IT,67516,6534228,Guidonia Montecelio,5.92,5.3,9.7,14.49,16.25,20.88,25.09,25.78,20.6,17.12,11.44,7.0
Lamezia Terme,38.96255,16.30938,IT,70501,6534232,Lamezia Terme,10.45,9.11,11.69,15.18,17.93,20.77,23.9,25.22,21.71,19.85,14.48,11.55
Caronno Pertusella,45.59777,9.04634,IT,16377,6534234,Caronno Pertusella,2.87,2.17,5.64,11.9,14.54,19.81,24.54,22.81,18.49,13.88,7.98,3.33
Cassano Magnago,45.67206,8.82691,IT,21208,6534235,Cassano Magnago,3.11,2.21,5.55,11.48,14.14,19.4,23.92,22.31,18.27,13.72,7.92,3.62
San Felice A Cancello,41.01702,14.48736,IT,16571,6534252,San Felice A Cancello,7.93,6.76,10.33,14.78,17.2,20.71,24.57,25.78,21.0,17.91,12.46,8.54
San Nicola la Strada,41.05237,14.33334,IT,21147,6534253,San Nicola la Strada,7.49,6.4,10.19,14.69,17.12,20.52,24.31,25.44,20.75,17.52,12.34,7.96
Quarto,40.87822,14.14352,IT,37683,6534256,Quarto,9.96,8.72,11.57,15.2,17.74,20.86,24.93,25.79,21.97,19.17,14.48,11.12
Orta di Atella,40.96441,14.26854,IT,24750,6534264,Orta di Atella,8.4,7.2,10.7,14.91,17.41,20.8,24.66,25.79,21.28,18.19,13.0,9.01
Casavatore,40.89921,14.27663,IT,18663,6534267,Casavatore,8.9,7.67,10.86,14.85,17.39,20.65,24.67,25.79,21.46,18.42,13.4,9.68
Volla,40.87363,14.34085,IT,22911,6534268,Volla,9.3,8.07,11.26,15.26,17.79,21.05,25.07,26.19,21.86,18.82,13.8,10.08
Gravina di Catania,37.56085,15.06292,IT,26524,6534275,Gravina di Catania,9.19,8.12,11.66,14.89,18.24,21.82,24.64,25.68,22.01,19.56,13.66,10.32
Cesano Boscone,45.44207,9.09445,IT,23368,6534280,Cesano Boscone,2.7,2.19,6.0,12.47,15.19,20.24,24.83,23.36,19.23,14.4,8.14,3.19
Tor Lupara,41.99771,12.61814,IT,20843,6534284,Tor Lupara,5.72,5.23,9.57,14.36,16.24,21.01,25.31,25.83,20.64,17.01,11.28,6.77
Torvaianica,41.62112,12.46197,IT,17235,6620312,Torvaianica,9.16,8.18,11.95,15.89,17.9,21.89,25.65,26.1,22.17,19.53,13.98,10.38
Casal Palocco,41.74845,12.34726,IT,32706,6698333,Casal Palocco,9.02,8.01,11.25,14.88,17.12,20.99,25.02,25.54,21.72,19.1,13.87,10.38
Bellaria-Igea Marina,44.14255,12.47154,IT,17635,8224092,Bellaria-Igea Marina,5.63,5.21,8.51,13.51,16.46,21.25,25.09,24.7,20.93,16.58,11.79,6.7
Villanova,41.96357,12.75633,IT,15117,8378910,Villanova,6.12,5.5,9.9,14.69,16.45,21.08,25.29,25.98,20.8,17.32,11.64,7.2
Marina di Ardea-Tor San Lorenzo,41.55439,12.54115,IT,20216,8394392,Marina di Ardea-Tor San Lorenzo,9.16,8.18,11.95,15.89,17.9,21.89,25.65,26.1,22.17,19.53,13.98,10.38
San Paolo,41.12476,16.79258,IT,29800,8948703,San Paolo,9.85,8.66,11.73,15.49,18.97,22.04,25.33,26.26,22.62,19.14,14.91,10.58
Monterusciello,40.86874,14.08276,IT,29125,8948704,Monterusciello,9.61,8.37,11.22,14.85,17.39,20.51,24.58,25.44,21.62,18.82,14.13,10.77
Romano Banco,45.42309,9.10707,IT,26163,8948705,Romano Banco,2.75,2.24,6.04,12.52,15.23,20.29,24.88,23.42,19.28,14.44,8.18,3.24
Casa Santa,38.02514,12.5484,IT,23880,8948706,Casa Santa,13.17,11.41,14.11,16.68,18.87,21.99,26.0,26.87,23.75,22.35,16.47,13.82
Arpino,40.88882,14.32015,IT,19988,8948708,Arpino,9.3,8.07,11.26,15.26,17.79,21.05,25.07,26.19,21.86,18.82,13.8,10.08
Paolo VI,40.52218,17.27401,IT,17330,8948709,Paolo VI,9.96,8.92,11.66,15.33,19.37,23.01,26.43,27.33,23.48,19.35,14.93,10.65
Corigliano Scalo,39.62713,16.51368,IT,15136,9003711,Corigliano Scalo,9.56,8.54,11.42,15.39,18.38,22.7,25.64,27.03,22.58,19.38,14.22,10.32
Stella,40.86027,14.25223,IT,30483,10294260,Stella,9.05,7.82,11.01,15.0,17.54,20.8,24.82,25.94,21.61,18.57,13.55,9.83
San Carlo All'Arena,40.86511,14.26291,IT,69094,10295350,San Carlo All'Arena,9.1,7.87,11.06,15.05,17.59,20.85,24.87,25.99,21.66,18.62,13.6,9.88
Chiaia,40.83255,14.22677,IT,38356,12070058,Chiaia,9.35,8.12,11.31,15.3,17.84,21.1,25.12,26.24,21.91,18.87,13.85,10.13
Chiaiano,40.88101,14.20759,IT,23396,12070059,Chiaiano,7.15,5.96,9.45,13.67,16.17,19.55,23.41,24.55,20.03,16.94,11.75,7.76
Vicaria,40.86151,14.27328,IT,15062,12070060,Vicaria,9.3,8.07,11.26,15.26,17.79,21.05,25.07,26.19,21.86,18.82,13.8,10.08
San Ferdinando,40.83342,14.24751,IT,18404,12070061,San Ferdinando,9.96,8.72,11.57,15.2,17.74,20.86,24.93,25.79,21.97,19.17,14.48,11.12
Pendino,40.84708,14.26321,IT,16848,12070063,Pendino,9.3,8.07,11.26,15.26,17.79,21.05,25.07,26.19,21.86,18.82,13.8,10.08
Arenella,40.85734,14.2228,IT,67634,12070064,Arenella,7.1,5.9,9.4,13.61,16.11,19.5,23.36,24.49,19.98,16.89,11.7,7.71
Avvocata,40.85432,14.24325,IT,33001,12070065,Avvocata,9.11,7.92,10.95,14.74,17.28,20.45,24.46,25.51,21.45,18.52,13.68,10.09
Montecalvario,40.84436,14.24555,IT,23050,12070066,Montecalvario,9.31,8.12,11.15,14.94,17.48,20.65,24.66,25.71,21.65,18.72,13.88,10.29
Scampia,40.90347,14.23736,IT,39060,12070067,Scampia,9.11,7.92,10.95,14.74,17.28,20.45,24.46,25.51,21.45,18.52,13.68,10.09
San Pietro a Patierno,40.88566,14.29008,IT,17324,12070069,San Pietro a Patierno,9.0,7.77,10.96,14.96,17.49,20.75,24.77,25.89,21.56,18.52,13.5,9.78
San Lorenzo,40.85686,14.26481,IT,48078,12070070,San Lorenzo,9.3,8.07,11.26,15.26,17.79,21.05,25.07,26.19,21.86,18.82,13.8,10.08
Monte Rosello,40.73542,8.56771,IT,45000,12188754,Monte Rosello,8.82,6.79,10.79,13.5,14.93,19.35,24.24,24.31,20.49,19.0,12.3,9.42
Arcella,45.42178,11.88755,IT,44000,12188755,Arcella,3.45,3.14,7.2,13.06,15.85,20.4,24.48,23.78,19.45,15.31,9.53,4.34
Casal de' Pazzi,41.92884,12.56582,IT,27206,12188855,Casal de' Pazzi,7.0,6.23,10.42,14.93,16.92,21.35,25.57,26.12,21.19,17.88,12.34,8.08
Giardinetti-Tor Vergata,41.85305,12.61853,IT,20680,12188858,Giardinetti-Tor Vergata,6.8,6.03,10.22,14.73,16.72,21.15,25.37,25.92,20.99,17.68,12.14,7.88
Casal Bertone,41.89821,12.53413,IT,16273,12188859,Casal Bertone,7.25,6.47,10.43,14.82,16.84,21.23,25.38,25.9,21.2,18.01,12.52,8.42
