name,latitude,longitude,country,population,id,city,jan,feb,mar,apr,may,jun,jul,aug,sep,oct,nov,dec
Żabbar,35.87611,14.535,MT,15648,2562266,Żabbar,13.62,14.56,14.65,16.07,18.7,22.05,24.93,25.86,25.04,23.25,18.42,13.83
Sliema,35.9125,14.50194,MT,22591,2562501,Sliema,13.72,14.66,14.75,16.17,18.8,22.15,25.03,25.96,25.14,23.35,18.52,13.93
San Pawl il-Baħar,35.95064,14.41561,MT,32042,2562541,San Pawl il-Baħar,13.82,14.76,14.85,16.27,18.9,22.25,25.13,26.06,25.24,23.45,18.62,14.03
Qormi,35.87601,14.472,MT,16801,2562629,Qormi,13.72,14.66,14.75,16.17,18.8,22.15,25.03,25.96,25.14,23.35,18.52,13.93
Mosta,35.90917,14.42556,MT,23482,2562704,Mosta,13.58,14.57,14.63,15.95,18.53,21.9,24.74,25.63,24.9,23.12,18.41,13.79
Birkirkara,35.89722,14.46111,MT,24356,2563191,Birkirkara,13.67,14.61,14.7,16.12,18.75,22.1,24.98,25.91,25.09,23.3,18.47,13.88
