name,latitude,longitude,country,population,id,city,jan,feb,mar,apr,may,jun,jul,aug,sep,oct,nov,dec
Żyrardów,52.0488,20.44599,PL,41179,752967,Żyrardów,2.17,5.07,6.89,8.82,13.91,16.97,17.29,18.22,11.85,9.68,5.03,0.06
Żoliborz,52.26896,20.98644,PL,50934,753142,Żoliborz,1.93,4.84,6.5,8.74,13.87,17.03,17.18,17.97,11.62,9.48,4.85,-0.02
Zielonka,52.30376,21.16018,PL,17518,753276,Zielonka,1.9,4.87,6.49,8.77,13.9,17.11,17.25,18.0,11.63,9.52,4.9,-0.0
Zamość,50.72314,23.25196,PL,66034,753866,Zamość,1.01,4.21,6.4,8.83,13.78,16.97,17.15,17.69,11.52,9.0,4.92,-0.78
Zambrów,52.9855,22.24319,PL,22857,753895,Zambrów,1.52,4.65,5.71,8.45,13.39,16.51,16.63,17.23,10.93,8.73,4.42,-0.58
Ząbki,52.29271,21.10539,PL,23473,754351,Ząbki,1.97,4.91,6.55,8.8,13.93,17.12,17.26,18.03,11.67,9.55,4.93,0.05
Wyszków,52.59278,21.4584,PL,26500,754454,Wyszków,1.8,4.85,6.19,8.69,13.71,16.9,17.08,17.84,11.42,9.27,4.76,-0.12
Wołomin,52.34006,21.24207,PL,36592,754800,Wołomin,1.87,4.83,6.44,8.72,13.85,17.06,17.2,17.95,11.58,9.47,4.85,-0.03
Wola,52.2401,20.98869,PL,140958,755330,Wola,1.9,4.84,6.56,8.73,13.84,16.98,17.16,17.96,11.59,9.5,4.82,-0.03
Włochy,52.17941,20.94612,PL,36276,755475,Włochy,2.0,4.92,6.66,8.82,13.91,17.04,17.23,18.05,11.67,9.57,4.89,0.05
Wieliczka,49.98738,20.06473,PL,18677,755889,Wieliczka,0.87,3.66,6.38,7.41,13.39,15.86,16.6,17.3,11.53,8.65,4.71,-1.95
Wesoła,52.25451,21.22407,PL,20000,756004,Wesoła,1.82,4.78,6.39,8.67,13.8,17.01,17.15,17.9,11.53,9.42,4.8,-0.08
Wawer,52.19656,21.17752,PL,77205,756092,Wawer,1.92,4.95,6.59,8.8,13.93,17.11,17.25,18.01,11.63,9.59,4.9,0.03
Warsaw,52.22977,21.01178,PL,1702139,756135,Warsaw,1.9,4.84,6.56,8.73,13.84,16.98,17.16,17.96,11.59,9.5,4.82,-0.03
Ursus,52.19517,20.88419,PL,47285,756320,Ursus,2.0,4.92,6.66,8.82,13.91,17.04,17.23,18.05,11.67,9.57,4.89,0.05
Tomaszów Mazowiecki,51.53131,20.00855,PL,67197,756867,Tomaszów Mazowiecki,1.73,4.7,6.85,8.46,13.85,16.78,17.17,18.22,11.67,9.48,4.78,-0.43
Tomaszów Lubelski,50.44767,23.41616,PL,20261,756868,Tomaszów Lubelski,0.7,3.88,6.2,8.68,13.59,16.73,16.95,17.57,11.39,8.9,4.77,-1.1
Tarnów,50.01381,20.98698,PL,117799,757026,Tarnów,1.37,4.4,6.77,8.18,13.89,16.71,17.09,17.86,11.91,9.58,5.35,-0.88
Tarnobrzeg,50.57304,21.67937,PL,50459,757033,Tarnobrzeg,1.44,4.53,6.82,8.75,14.32,17.58,17.53,18.27,11.9,9.51,5.19,-0.38
Targówek,52.29185,21.04845,PL,124279,757065,Targówek,2.03,4.94,6.6,8.84,13.97,17.13,17.28,18.07,11.72,9.58,4.95,0.08
Szczytno,53.56259,20.98747,PL,26044,757357,Szczytno,1.68,4.44,5.64,8.31,13.01,16.2,16.52,17.15,11.06,8.72,4.37,-0.67
Świdnik,51.21898,22.69621,PL,40050,757692,Świdnik,1.21,4.47,6.4,8.65,13.77,17.08,17.1,17.6,11.36,9.11,4.79,-0.52
Suwałki,54.11175,22.93087,PL,69222,757718,Suwałki,1.0,4.01,4.87,7.88,12.51,15.65,15.92,16.51,10.53,7.83,3.73,-1.33
Sulejówek,52.25221,21.26902,PL,18414,757809,Sulejówek,1.79,4.8,6.37,8.65,13.77,16.99,17.13,17.87,11.49,9.43,4.79,-0.09
Staszów,50.56307,21.16593,PL,16137,758252,Staszów,1.41,4.39,6.8,8.56,14.24,17.33,17.35,18.3,11.81,9.49,5.06,-0.49
Starachowice,51.0374,21.07126,PL,53739,758390,Starachowice,1.42,4.55,6.76,8.32,13.97,16.85,16.99,17.86,11.5,9.42,4.77,-0.53
Stalowa Wola,50.58286,22.05334,PL,66495,758445,Stalowa Wola,1.35,4.48,6.75,8.92,14.36,17.63,17.58,18.3,11.85,9.49,5.19,-0.44
Śródmieście,52.22904,21.01644,PL,134306,758470,Śródmieście,1.9,4.84,6.56,8.73,13.84,16.98,17.16,17.96,11.59,9.5,4.82,-0.03
Sokołów Podlaski,52.40677,22.25307,PL,18241,758626,Sokołów Podlaski,1.3,4.58,5.81,8.22,13.13,16.38,16.59,17.18,10.9,8.87,4.4,-0.65
Sokółka,53.40715,23.50228,PL,19079,758651,Sokółka,1.12,4.16,5.23,8.12,12.96,16.03,16.0,16.5,10.59,8.22,3.91,-1.06
Sochaczew,52.22944,20.23838,PL,38267,758682,Sochaczew,2.21,5.02,6.81,8.81,13.82,16.9,17.27,18.17,11.86,9.59,4.99,0.05
Skierniewice,51.95485,20.15837,PL,49042,759123,Skierniewice,2.02,4.96,6.8,8.69,13.81,16.82,17.16,18.11,11.74,9.53,4.85,-0.17
Skarżysko-Kamienna,51.11311,20.87162,PL,49410,759141,Skarżysko-Kamienna,1.34,4.46,6.62,8.17,13.81,16.71,16.83,17.78,11.33,9.38,4.62,-0.6
Siemiatycze,52.42719,22.86231,PL,15421,759320,Siemiatycze,1.29,4.5,5.82,8.47,13.48,16.83,16.73,17.24,11.01,8.8,4.48,-0.69
Siedlce,52.16772,22.29006,PL,77185,759412,Siedlce,1.41,4.78,6.13,8.61,13.67,16.86,16.93,17.57,11.18,9.17,4.58,-0.5
Sanok,49.55573,22.2056,PL,39684,759591,Sanok,-0.58,3.52,6.06,8.0,13.47,16.32,16.9,17.61,11.53,8.88,4.89,-1.46
Sandomierz,50.68265,21.74898,PL,25087,759603,Sandomierz,1.28,4.34,6.59,8.51,13.99,17.19,17.2,17.94,11.61,9.27,4.94,-0.5
Rzeszów,50.04132,21.99901,PL,158382,759734,Rzeszów,0.81,4.47,6.93,8.58,14.09,17.1,17.46,18.24,12.03,9.59,5.39,-0.69
Ropczyce,50.05229,21.60891,PL,15279,760343,Ropczyce,1.24,4.56,6.96,8.59,14.14,17.19,17.4,18.27,11.98,9.82,5.4,-0.49
Rembertów,52.26059,21.16355,PL,21893,760503,Rembertów,1.87,4.83,6.44,8.72,13.85,17.06,17.2,17.95,11.58,9.47,4.85,-0.03
Rawa Mazowiecka,51.76437,20.25493,PL,17770,760584,Rawa Mazowiecka,1.91,4.85,6.81,8.61,13.79,16.81,17.18,18.12,11.7,9.46,4.85,-0.27
Radzyń Podlaski,51.78333,22.61667,PL,16071,760680,Radzyń Podlaski,1.46,4.79,6.36,8.77,13.82,17.18,17.16,17.63,11.35,9.24,4.79,-0.31
Radom,51.40253,21.14714,PL,226794,760778,Radom,1.71,4.72,6.77,8.47,13.83,17.01,17.19,17.95,11.61,9.49,4.91,-0.13
Pułtusk,52.7025,21.08276,PL,19039,760917,Pułtusk,1.89,4.76,6.16,8.64,13.58,16.8,17.04,17.8,11.47,9.21,4.76,-0.11
Puławy,51.41655,21.96939,PL,49759,760924,Puławy,1.66,4.94,6.8,8.89,14.13,17.35,17.39,17.99,11.69,9.63,5.02,-0.03
Przeworsk,50.05912,22.49408,PL,15805,761131,Przeworsk,0.85,4.36,6.85,8.75,13.96,17.15,17.49,18.17,11.96,9.27,5.27,-1.05
Przemyśl,49.78498,22.76728,PL,67013,761168,Przemyśl,0.76,4.42,6.95,8.74,13.86,16.94,17.49,18.16,12.15,9.36,5.42,-1.23
Przasnysz,53.01907,20.88029,PL,16718,761218,Przasnysz,1.78,4.59,5.93,8.48,13.32,16.49,16.81,17.52,11.26,8.94,4.56,-0.36
Pruszków,52.17072,20.81214,PL,55371,761228,Pruszków,2.08,4.98,6.72,8.86,13.92,17.04,17.25,18.08,11.75,9.61,4.97,0.09
Płońsk,52.62348,20.37552,PL,22217,762021,Płońsk,2.07,4.84,6.42,8.73,13.65,16.84,17.2,18.0,11.71,9.36,4.86,-0.05
Pisz,53.62744,21.81253,PL,19232,762120,Pisz,1.68,4.63,5.73,8.54,13.38,16.42,16.72,17.29,11.16,8.7,4.42,-0.58
Pionki,51.47604,21.44995,PL,19966,762199,Pionki,1.74,4.82,6.78,8.65,13.98,17.19,17.31,17.99,11.61,9.57,4.94,-0.03
Piastów,52.18435,20.83952,PL,23290,762381,Piastów,2.08,4.98,6.72,8.86,13.92,17.04,17.25,18.08,11.75,9.61,4.97,0.09
Piaseczno,52.0814,21.02397,PL,36278,762423,Piaseczno,1.97,4.92,6.67,8.79,13.89,17.04,17.23,18.02,11.67,9.58,4.93,0.03
Otwock,52.10577,21.26129,PL,43388,762788,Otwock,1.92,5.02,6.69,8.88,14.07,17.24,17.35,18.11,11.68,9.69,4.95,0.06
Ostrów Mazowiecka,52.80245,21.89507,PL,22653,762850,Ostrów Mazowiecka,1.56,4.67,5.82,8.46,13.49,16.62,16.78,17.46,11.05,8.91,4.51,-0.44
Ostrowiec Świętokrzyski,50.92936,21.38525,PL,73989,762863,Ostrowiec Świętokrzyski,1.6,4.69,6.92,8.59,14.14,17.16,17.26,18.07,11.74,9.54,5.04,-0.24
Ostrołęka,53.08621,21.57566,PL,53740,762909,Ostrołęka,1.76,4.71,5.88,8.6,13.61,16.67,16.89,17.48,11.15,8.89,4.57,-0.33
Opoczno,51.37569,20.27827,PL,22592,763111,Opoczno,1.57,4.54,6.68,8.3,13.68,16.66,16.99,18.0,11.49,9.39,4.69,-0.51
Olsztyn,53.77995,20.49416,PL,171803,763166,Olsztyn,1.73,4.43,5.6,8.16,12.72,15.89,16.31,17.09,11.05,8.79,4.36,-0.77
Olecko,54.03374,22.50704,PL,15923,763291,Olecko,1.15,4.14,5.03,7.96,12.59,15.67,16.04,16.66,10.69,8.01,3.89,-1.13
Ochota,52.22096,20.98526,PL,93192,763442,Ochota,1.9,4.84,6.56,8.73,13.84,16.98,17.16,17.96,11.59,9.5,4.82,-0.03
Nowy Targ,49.47783,20.03228,PL,33763,763523,Nowy Targ,-0.32,2.08,4.6,5.66,12.08,14.48,15.39,16.18,10.05,7.58,3.29,-4.55
Nowy Sącz,49.62177,20.69705,PL,84376,763534,Nowy Sącz,0.88,3.87,6.24,7.48,13.52,16.09,16.71,17.4,11.57,8.95,5.01,-2.08
Nowy Dwór Mazowiecki,52.43022,20.71652,PL,27633,763556,Nowy Dwór Mazowiecki,2.2,5.08,6.74,9.02,14.13,17.2,17.41,18.21,11.9,9.67,5.07,0.18
Nisko,50.51987,22.13968,PL,15573,763829,Nisko,1.44,4.62,6.88,9.0,14.47,17.77,17.71,18.46,11.98,9.62,5.33,-0.32
Mrągowo,53.86437,21.30507,PL,21965,764312,Mrągowo,1.73,4.54,5.55,8.25,12.73,15.97,16.38,17.09,11.12,8.71,4.41,-0.62
Mokotów,52.1934,21.03487,PL,217683,764484,Mokotów,2.1,5.04,6.76,8.93,14.04,17.18,17.36,18.16,11.79,9.7,5.02,0.17
Mława,53.11278,20.3841,PL,29398,764634,Mława,1.61,4.37,5.76,8.28,13.01,16.19,16.54,17.28,11.1,8.73,4.35,-0.65
Mińsk Mazowiecki,52.17935,21.57251,PL,37027,764679,Mińsk Mazowiecki,1.61,4.73,6.2,8.45,13.54,16.76,16.93,17.62,11.24,9.34,4.66,-0.22
Milanówek,52.11879,20.67155,PL,15784,764749,Milanówek,2.18,5.1,6.84,8.91,13.98,17.08,17.32,18.17,11.83,9.71,5.05,0.17
Mielec,50.28709,21.4239,PL,60993,764849,Mielec,1.43,4.53,6.8,8.63,14.27,17.39,17.42,18.34,11.95,9.75,5.3,-0.48
Międzyrzec Podlaski,51.9864,22.78248,PL,17158,764862,Międzyrzec Podlaski,1.31,4.59,6.09,8.58,13.57,17.0,16.98,17.43,11.19,8.98,4.64,-0.54
Marki,52.32065,21.10474,PL,23177,765191,Marki,1.92,4.86,6.5,8.75,13.88,17.07,17.22,17.98,11.62,9.5,4.88,-0.0
Łuków,51.929,22.37956,PL,30465,765749,Łuków,1.32,4.59,6.11,8.51,13.57,16.99,16.99,17.44,11.17,9.0,4.6,-0.49
Lublin,51.25,22.56667,PL,360044,765876,Lublin,1.39,4.71,6.53,8.75,13.86,17.15,17.2,17.7,11.46,9.28,4.89,-0.32
Lubartów,51.46026,22.60952,PL,22839,765927,Lubartów,1.43,4.76,6.45,8.78,13.9,17.3,17.24,17.71,11.41,9.25,4.85,-0.3
Łomża,53.17806,22.05935,PL,63723,766027,Łomża,1.74,4.79,5.85,8.58,13.5,16.55,16.77,17.31,11.12,8.79,4.55,-0.45
Łomianki,52.33413,20.88602,PL,15315,766042,Łomianki,2.16,5.07,6.76,8.99,14.11,17.23,17.4,18.22,11.85,9.71,5.05,0.19
Lidzbark Warmiński,54.12588,20.57954,PL,16540,766307,Lidzbark Warmiński,2.21,4.87,5.91,8.3,12.72,16.03,16.56,17.22,11.37,9.01,4.74,-0.41
Legionowo,52.40149,20.92664,PL,50786,766555,Legionowo,2.09,5.0,6.63,8.93,14.07,17.17,17.32,18.1,11.79,9.6,4.99,0.12
Łęczna,51.30121,22.88135,PL,21719,766583,Łęczna,1.29,4.56,6.45,8.78,13.9,17.32,17.25,17.7,11.43,9.13,4.87,-0.44
Łapy,52.9911,22.88422,PL,16434,766783,Łapy,1.49,4.63,5.7,8.5,13.32,16.55,16.53,17.02,10.93,8.66,4.38,-0.67
Łańcut,50.06871,22.22912,PL,18266,766810,Łańcut,0.85,4.34,6.75,8.51,13.91,17.04,17.35,18.11,11.85,9.35,5.22,-0.9
Krosno,49.68866,21.77058,PL,47784,767470,Krosno,-0.51,3.43,6.05,7.87,13.44,16.19,16.7,17.45,11.4,8.79,4.77,-1.34
Krasnystaw,50.98464,23.1742,PL,19532,767605,Krasnystaw,1.24,4.4,6.44,8.86,13.87,17.18,17.22,17.74,11.51,9.1,4.95,-0.46
Kraśnik,50.9236,22.22706,PL,35834,767623,Kraśnik,1.38,4.54,6.61,8.77,14.08,17.18,17.24,17.91,11.57,9.44,5.04,-0.34
Kozienice,51.58294,21.54779,PL,18677,767814,Kozienice,1.87,5.01,6.93,8.92,14.22,17.44,17.55,18.19,11.8,9.74,5.08,0.12
Konstancin-Jeziorna,52.0938,21.11761,PL,16548,768216,Konstancin-Jeziorna,2.0,4.99,6.72,8.85,13.97,17.13,17.31,18.08,11.72,9.66,4.98,0.08
Końskie,51.19166,20.40607,PL,20756,768218,Końskie,1.25,4.25,6.49,8.05,13.56,16.45,16.71,17.74,11.24,9.24,4.48,-0.79
Kobyłka,52.33953,21.19589,PL,17659,768905,Kobyłka,1.87,4.83,6.44,8.72,13.85,17.06,17.2,17.95,11.58,9.47,4.85,-0.03
Kielce,50.87033,20.62752,PL,208598,769250,Kielce,1.05,4.05,6.44,7.99,13.69,16.47,16.7,17.73,11.22,9.19,4.46,-1.0
Kętrzyn,54.07676,21.37527,PL,27478,769274,Kętrzyn,1.91,4.69,5.62,8.36,12.7,15.97,16.48,17.23,11.29,8.78,4.57,-0.45
Kabaty,52.13012,21.08148,PL,25000,769893,Kabaty,1.95,4.94,6.67,8.8,13.92,17.08,17.25,18.03,11.67,9.6,4.93,0.03
Józefów,52.13707,21.23589,PL,17910,769981,Józefów,1.93,4.97,6.68,8.83,13.98,17.14,17.29,18.05,11.67,9.64,4.94,0.04
Jędrzejów,50.63945,20.30454,PL,16792,770157,Jędrzejów,1.04,4.06,6.6,7.86,13.6,16.3,16.77,17.8,11.48,9.12,4.63,-1.05
Jasło,49.74506,21.47252,PL,37851,770293,Jasło,-0.05,3.71,6.37,8.12,13.83,16.5,17.0,17.72,11.72,9.05,5.08,-1.22
Jarosław,50.01623,22.67776,PL,40134,770380,Jarosław,0.64,4.16,6.69,8.59,13.71,16.87,17.28,17.95,11.83,9.09,5.13,-1.26
Hrubieszów,50.80502,23.89251,PL,18605,770966,Hrubieszów,1.1,4.15,6.4,8.95,13.7,17.08,17.1,17.71,11.58,9.04,4.95,-0.77
Hajnówka,52.74328,23.58122,PL,22157,771158,Hajnówka,1.16,4.22,5.54,8.48,13.51,16.61,16.39,16.89,10.74,8.56,4.24,-0.74
Grodzisk Mazowiecki,52.10387,20.6337,PL,26684,771401,Grodzisk Mazowiecki,2.2,5.11,6.87,8.91,13.96,17.04,17.31,18.19,11.86,9.71,5.07,0.17
Grajewo,53.64728,22.45537,PL,22803,771506,Grajewo,1.51,4.56,5.55,8.29,13.09,16.13,16.44,16.87,10.94,8.38,4.22,-0.82
Gorlice,49.65563,21.16035,PL,28609,771804,Gorlice,0.33,3.82,6.36,7.84,13.72,16.4,16.89,17.63,11.63,9.08,5.02,-1.5
Giżycko,54.03811,21.76441,PL,29972,772195,Giżycko,1.62,4.47,5.42,8.31,12.81,16.0,16.42,17.11,11.14,8.52,4.37,-0.68
Gierłoż,54.08134,21.49551,PL,28351,772227,Gierłoż,1.64,4.43,5.35,8.19,12.52,15.78,16.25,17.05,11.07,8.56,4.35,-0.63
Garwolin,51.89747,21.61466,PL,15912,772339,Garwolin,1.7,4.86,6.52,8.7,13.89,17.15,17.29,17.95,11.5,9.54,4.84,-0.06
Ełk,53.82824,22.36469,PL,55769,772621,Ełk,1.47,4.45,5.4,8.25,12.98,16.04,16.41,16.97,11.04,8.36,4.25,-0.81
Działdowo,53.23958,20.17004,PL,21127,772748,Działdowo,1.59,4.33,5.71,8.23,12.96,16.1,16.42,17.2,11.07,8.7,4.29,-0.72
Dęblin,51.55912,21.84829,PL,17775,773357,Dęblin,1.75,5.03,6.89,9.02,14.31,17.56,17.59,18.21,11.79,9.73,5.04,0.03
Dębica,50.05146,21.41141,PL,47366,773380,Dębica,1.39,4.6,6.96,8.58,14.13,17.12,17.38,18.23,12.05,9.88,5.47,-0.49
Ciechanów,52.88141,20.61996,PL,46438,774208,Ciechanów,1.8,4.56,6.01,8.47,13.21,16.46,16.83,17.58,11.35,8.98,4.58,-0.33
Chełm,51.14312,23.4716,PL,63949,774558,Chełm,1.28,4.4,6.44,8.92,13.87,17.36,17.26,17.78,11.56,9.12,4.98,-0.49
Busko-Zdrój,50.47078,20.71884,PL,17095,774747,Busko-Zdrój,0.9,3.81,6.39,7.92,13.65,16.55,16.79,17.82,11.4,9.05,4.62,-1.04
Brzesko,49.96911,20.60606,PL,16866,775183,Brzesko,1.29,4.26,6.66,7.9,13.75,16.42,16.92,17.65,11.82,9.15,5.14,-1.25
Bochnia,49.96905,20.43028,PL,29184,775758,Bochnia,1.34,4.24,6.75,7.88,13.83,16.42,17.0,17.71,11.92,9.07,5.13,-1.32
Biłgoraj,50.54114,22.72204,PL,26987,775922,Biłgoraj,0.94,4.05,6.43,8.85,14.03,17.27,17.36,17.99,11.62,9.06,4.96,-0.88
Bielsk Podlaski,52.76512,23.18647,PL,26493,775986,Bielsk Podlaski,1.34,4.48,5.66,8.5,13.4,16.65,16.53,17.04,10.91,8.66,4.36,-0.7
Bielany,52.29242,20.93531,PL,134854,776029,Bielany,2.01,4.92,6.61,8.84,13.96,17.08,17.25,18.06,11.7,9.56,4.9,0.04
Białystok,53.13333,23.16433,PL,291855,776069,Białystok,1.4,4.48,5.58,8.45,13.34,16.5,16.43,16.91,10.85,8.56,4.26,-0.74
Białołeka,52.32127,20.97204,PL,129106,776103,Białołeka,2.03,4.94,6.6,8.84,13.97,17.13,17.28,18.07,11.72,9.58,4.95,0.08
Biała Podlaska,52.03238,23.11652,PL,57541,776175,Biała Podlaska,1.35,4.59,6.16,8.74,13.78,17.19,17.09,17.55,11.28,9.05,4.74,-0.48
Bemowo,52.2546,20.90844,PL,102393,776251,Bemowo,1.96,4.87,6.56,8.79,13.91,17.03,17.2,18.02,11.65,9.51,4.85,-0.01
Bartoszyce,54.25354,20.80819,PL,23482,776337,Bartoszyce,2.45,5.14,6.09,8.48,12.8,16.14,16.7,17.37,11.55,9.09,4.92,-0.2
Augustów,53.84321,22.97979,PL,29752,776597,Augustów,1.34,4.35,5.26,8.14,12.93,16.01,16.19,16.69,10.83,8.18,4.05,-1.01
Żywiec,49.68529,19.19243,PL,32132,3079855,Żywiec,0.89,3.92,6.05,7.09,13.21,15.56,16.51,17.38,11.36,8.89,4.86,-2.38
Żory,50.04523,18.70062,PL,63174,3080004,Żory,1.07,4.69,6.89,7.78,13.62,16.05,17.05,18.17,11.89,9.59,5.09,-1.17
Złotów,53.36346,17.04082,PL,18395,3080071,Złotów,2.38,4.81,6.41,7.78,13.26,16.18,16.26,17.58,11.5,9.39,4.5,-0.33
Złotoryja,51.12637,15.91979,PL,15564,3080074,Złotoryja,2.08,5.14,6.85,7.5,13.74,15.91,17.07,18.45,11.91,9.92,4.32,-0.44
Zielona Góra,51.93548,15.50643,PL,118433,3080165,Zielona Góra,2.69,5.71,7.44,8.21,14.71,16.64,17.57,19.27,12.51,10.33,4.73,0.22
Zgorzelec,51.14942,15.00835,PL,33247,3080231,Zgorzelec,2.04,5.25,6.92,7.49,13.76,15.95,16.8,18.57,12.05,10.03,4.44,-0.46
Zgierz,51.85561,19.40623,PL,58036,3080251,Zgierz,1.81,4.77,6.66,8.29,13.63,16.59,16.87,18.12,11.5,9.56,4.52,-0.48
Zduńska Wola,51.59915,18.93974,PL,44515,3080414,Zduńska Wola,1.75,4.69,6.83,8.19,13.84,16.69,17.01,18.37,11.58,9.66,4.54,-0.35
Zawiercie,50.48766,19.41679,PL,53159,3080526,Zawiercie,0.82,4.14,6.49,7.6,13.45,15.85,16.42,17.56,11.26,9.17,4.41,-1.49
Żary,51.64205,15.13727,PL,38779,3080644,Żary,2.82,5.97,7.64,8.28,14.73,16.74,17.75,19.51,12.7,10.58,4.9,0.37
Zakopane,49.29899,19.94885,PL,27266,3080866,Zakopane,-1.91,0.5,2.99,4.2,10.76,13.16,14.04,14.9,8.58,6.06,1.77,-5.83
Żagań,51.61759,15.31486,PL,26251,3080944,Żagań,3.05,6.25,7.92,8.63,15.15,17.13,18.19,19.87,13.0,10.82,5.15,0.64
Zabrze,50.32492,18.78576,PL,192177,3080985,Zabrze,0.95,4.53,7.0,8.06,14.0,16.27,17.1,18.25,11.89,9.59,4.9,-1.13
Ząbkowice Śląskie,50.58969,16.81239,PL,16321,3081046,Ząbkowice Śląskie,1.18,4.41,6.41,7.02,13.3,15.42,16.77,18.01,11.52,9.36,4.31,-1.05
Września,52.32512,17.56519,PL,28703,3081324,Września,2.41,5.11,7.07,8.32,14.16,16.74,17.18,18.5,11.98,9.95,4.77,0.19
Wrocław,51.1,17.03333,PL,634893,3081368,Wrocław,2.41,5.68,7.73,8.54,14.69,17.06,18.31,19.71,12.66,10.57,5.17,0.43
Wodzisław Śląski,50.00377,18.47205,PL,49521,3081677,Wodzisław Śląski,1.08,4.84,7.03,7.86,13.73,16.16,17.22,18.47,12.03,9.73,5.12,-0.89
Włocławek,52.64817,19.0678,PL,120339,3081741,Włocławek,2.52,5.24,6.98,8.94,14.24,17.16,17.45,18.46,12.09,9.88,5.04,0.21
Wieluń,51.22097,18.56964,PL,21892,3082197,Wieluń,1.84,4.85,7.16,8.14,13.99,16.7,17.21,18.63,11.86,9.85,4.8,-0.28
Wejherowo,54.60568,18.23559,PL,46820,3082473,Wejherowo,3.26,5.6,6.43,8.16,12.59,16.34,16.47,17.6,12.23,9.8,5.34,1.04
Wałcz,53.27787,16.47122,PL,25971,3082704,Wałcz,2.51,4.95,6.58,7.88,13.56,16.28,16.32,17.77,11.65,9.65,4.51,-0.16
Wałbrzych,50.77141,16.28432,PL,127431,3082707,Wałbrzych,0.35,3.52,5.45,6.01,12.35,14.44,15.64,17.01,10.51,8.54,3.03,-2.25
Wągrowiec,52.80842,17.19961,PL,24428,3082712,Wągrowiec,2.62,5.23,7.01,8.38,13.98,16.57,16.93,18.26,11.94,9.93,4.85,0.12
Wadowice,49.88335,19.49292,PL,19238,3082722,Wadowice,1.19,4.03,6.47,7.5,13.5,15.84,16.79,17.52,11.7,8.9,5.11,-2.1
Ustroń,49.72153,18.80198,PL,15637,3082751,Ustroń,0.6,4.07,6.17,7.16,13.15,15.55,16.5,17.55,11.38,9.09,4.65,-1.93
Ustka,54.58048,16.86194,PL,16250,3082756,Ustka,3.87,5.74,6.3,7.71,12.18,16.1,16.44,18.01,12.92,10.48,6.07,2.1
Tychy,50.13717,18.96641,PL,130000,3082914,Tychy,0.98,4.38,6.72,7.77,13.61,15.93,16.82,17.86,11.7,9.35,4.96,-1.4
Turek,52.01548,18.50055,PL,29533,3082998,Turek,2.3,5.11,7.06,8.46,14.21,16.94,17.2,18.53,11.87,9.99,4.78,0.1
Trzebinia,50.15931,19.46966,PL,18828,3083111,Trzebinia,0.93,4.07,6.52,7.68,13.51,15.79,16.57,17.53,11.43,9.09,4.71,-1.46
Trzcianka,53.04063,16.45629,PL,16914,3083185,Trzcianka,2.66,5.12,6.94,8.16,13.96,16.52,16.69,18.15,11.93,9.79,4.65,-0.02
Toruń,53.01375,18.59814,PL,198613,3083271,Toruń,2.57,5.18,6.85,8.7,14.07,17.0,17.25,18.29,12.03,9.76,5.06,0.33
Tczew,54.09242,18.77787,PL,60133,3083426,Tczew,2.79,5.27,6.51,8.43,13.0,16.55,16.74,17.59,12.02,9.35,5.07,0.33
Tarnowskie Góry,50.44548,18.86147,PL,60938,3083440,Tarnowskie Góry,0.75,4.24,6.7,7.77,13.71,15.98,16.72,17.86,11.5,9.34,4.56,-1.34
Szczecinek,53.70791,16.69937,PL,38496,3083826,Szczecinek,2.32,4.71,6.12,7.51,12.92,15.93,15.9,17.2,11.35,9.34,4.34,-0.36
Szczecin,53.42894,14.55302,PL,407811,3083829,Szczecin,3.57,5.84,7.31,8.44,13.9,16.39,16.96,18.58,12.41,10.5,5.03,0.72
Szamotuły,52.61201,16.57794,PL,18588,3083878,Szamotuły,2.82,5.42,7.31,8.46,14.24,16.72,17.2,18.69,12.32,10.16,4.91,0.24
Świnoujście,53.91053,14.24712,PL,40919,3083955,Świnoujście,3.9,5.85,6.91,8.26,13.24,16.27,17.12,18.54,13.13,11.06,5.85,2.14
Świętochłowice,50.29636,18.91726,PL,55600,3083988,Świętochłowice,0.84,4.34,6.81,7.9,13.82,16.09,16.88,18.01,11.7,9.42,4.76,-1.31
Świebodzin,52.24751,15.53355,PL,21757,3084062,Świebodzin,3.02,5.89,7.7,8.57,14.83,16.8,17.55,19.23,12.73,10.48,4.99,0.41
Świecie,53.40953,18.44742,PL,25843,3084074,Świecie,2.67,5.18,6.76,8.53,13.75,16.85,16.96,18.05,11.99,9.54,5.05,0.32
Świebodzice,50.85974,16.31966,PL,23228,3084084,Świebodzice,1.74,5.02,6.86,7.36,13.61,15.82,17.04,18.44,11.85,9.86,4.26,-0.93
Świdwin,53.77464,15.77671,PL,15725,3084085,Świdwin,2.85,5.25,6.56,7.89,13.36,16.28,16.27,17.67,11.71,9.93,4.49,0.25
Świdnica,50.84378,16.48859,PL,60351,3084093,Świdnica,1.86,5.23,7.09,7.61,13.84,16.06,17.35,18.71,12.09,9.97,4.45,-0.75
Swarzędz,52.41289,17.08503,PL,29010,3084130,Swarzędz,2.54,5.2,7.17,8.39,14.22,16.74,17.18,18.56,12.1,10.01,4.81,0.2
Sulechów,52.08362,15.62513,PL,18055,3084241,Sulechów,2.95,5.85,7.68,8.54,14.88,16.83,17.64,19.33,12.73,10.49,4.96,0.4
Strzelce Opolskie,50.5107,18.30056,PL,20241,3084415,Strzelce Opolskie,1.24,4.8,7.16,8.11,14.09,16.47,17.47,18.93,12.02,9.88,4.88,-0.54
Strzegom,50.96264,16.35006,PL,16106,3084440,Strzegom,2.08,5.45,7.2,7.68,13.84,16.13,17.43,18.86,12.1,10.15,4.51,-0.54
Starogard Gdański,53.96396,18.52638,PL,48202,3084826,Starogard Gdański,2.48,4.92,6.2,8.06,12.92,16.32,16.37,17.34,11.66,9.08,4.72,-0.04
Stargard,53.33672,15.0499,PL,71224,3084840,Stargard,3.36,5.7,7.27,8.4,13.75,16.34,16.81,18.33,12.33,10.32,4.9,0.47
Środa Wielkopolska,52.22843,17.27617,PL,21757,3085045,Środa Wielkopolska,2.53,5.28,7.25,8.42,14.38,16.87,17.36,18.72,12.15,10.11,4.84,0.31
Śrem,52.08868,17.01508,PL,30404,3085056,Śrem,2.73,5.52,7.48,8.59,14.59,17.0,17.64,19.03,12.43,10.37,5.01,0.53
Sosnowiec,50.28682,19.10385,PL,227295,3085128,Sosnowiec,1.05,4.44,6.91,8.06,13.95,16.21,16.93,18.03,11.8,9.52,4.93,-1.18
Sopot,54.4418,18.56003,PL,37089,3085151,Sopot,3.12,5.47,6.47,8.36,12.89,16.59,16.8,17.76,12.35,9.75,5.42,0.88
Solec Kujawski,53.08371,18.22572,PL,15125,3085172,Solec Kujawski,2.74,5.35,7.01,8.72,14.13,17.01,17.22,18.32,12.13,9.88,5.18,0.47
Słupsk,54.46405,17.02872,PL,98608,3085450,Słupsk,3.5,5.57,6.33,7.72,12.34,16.15,16.28,17.73,12.46,10.14,5.56,1.49
Słubice,52.35088,14.56065,PL,17567,3085495,Słubice,3.46,6.24,7.88,8.74,14.8,16.8,17.49,19.4,12.96,10.75,5.31,0.61
Skawina,49.97524,19.82869,PL,23647,3085807,Skawina,1.08,3.91,6.64,7.68,13.73,16.07,16.9,17.6,11.79,8.94,4.99,-1.81
Sierpc,52.8568,19.66913,PL,18866,3085941,Sierpc,2.04,4.75,6.31,8.54,13.5,16.62,16.92,17.73,11.55,9.18,4.66,-0.25
Sieradz,51.59584,18.73023,PL,44436,3085978,Sieradz,2.05,4.93,7.14,8.41,14.11,16.95,17.27,18.63,11.87,9.92,4.79,-0.03
Siemianowice Śląskie,50.32738,19.02901,PL,73121,3086024,Siemianowice Śląskie,0.95,4.38,6.84,7.96,13.86,16.13,16.88,18.0,11.73,9.47,4.84,-1.27
Rypin,53.06603,19.40941,PL,16589,3086511,Rypin,2.21,4.85,6.39,8.53,13.44,16.57,16.83,17.73,11.64,9.32,4.78,-0.11
Rydułtowy,50.05857,18.41703,PL,21887,3086531,Rydułtowy,0.73,4.54,6.83,7.72,13.66,16.03,17.14,18.47,11.84,9.45,4.79,-1.12
Rybnik,50.09713,18.54179,PL,142510,3086586,Rybnik,1.16,4.9,7.19,8.09,14.01,16.38,17.44,18.72,12.17,9.83,5.19,-0.77
Rumia,54.57092,18.38802,PL,44791,3086706,Rumia,3.31,5.61,6.39,8.11,12.43,16.2,16.5,17.64,12.38,9.91,5.55,1.27
Ruda Śląska,50.2584,18.85632,PL,146189,3086800,Ruda Śląska,0.99,4.5,6.96,8.05,13.97,16.24,17.03,18.16,11.85,9.58,4.91,-1.16
Reda,54.60528,18.34717,PL,18116,3087281,Reda,3.4,5.73,6.54,8.27,12.65,16.39,16.6,17.73,12.42,9.96,5.55,1.25
Rawicz,51.60946,16.85852,PL,21380,3087307,Rawicz,2.48,5.53,7.57,8.59,14.8,17.1,18.03,19.36,12.52,10.53,4.94,0.53
Radzionków,50.40026,18.90232,PL,17167,3087418,Radzionków,0.75,4.24,6.7,7.77,13.71,15.98,16.72,17.86,11.5,9.34,4.56,-1.34
Radomsko,51.06713,19.44477,PL,45353,3087497,Radomsko,1.48,4.53,6.85,8.01,13.67,16.44,16.95,18.22,11.58,9.51,4.63,-0.83
Radlin,50.0502,18.47626,PL,17479,3087529,Radlin,0.81,4.56,6.84,7.74,13.66,16.03,17.09,18.37,11.82,9.48,4.85,-1.12
Racibórz,50.09195,18.21928,PL,58464,3087584,Racibórz,1.17,5.01,7.39,8.12,14.12,16.44,17.63,18.99,12.35,10.0,5.2,-0.58
Pyskowice,50.4,18.63333,PL,19018,3087628,Pyskowice,1.13,4.74,7.21,8.22,14.2,16.48,17.37,18.59,12.06,9.78,4.97,-0.82
Pszczyna,49.98037,18.95382,PL,25288,3087705,Pszczyna,0.97,4.39,6.68,7.7,13.58,15.95,16.88,17.83,11.75,9.25,4.99,-1.66
Pruszcz Gdański,54.26217,18.63625,PL,23618,3088034,Pruszcz Gdański,3.1,5.49,6.6,8.48,13.06,16.67,16.86,17.78,12.33,9.7,5.38,0.74
Prudnik,50.32124,17.57461,PL,23343,3088065,Prudnik,1.32,4.73,6.99,7.43,13.58,15.96,17.28,18.56,11.96,9.93,4.73,-0.91
Poznań,52.40692,16.92993,PL,570352,3088171,Poznań,2.79,5.47,7.41,8.6,14.45,16.92,17.39,18.8,12.36,10.25,5.01,0.38
Polkowice,51.50391,16.07261,PL,21565,3088435,Polkowice,2.37,5.58,7.32,8.18,14.65,16.66,17.88,19.31,12.39,10.39,4.64,0.3
Police,53.55214,14.57182,PL,34350,3088461,Police,3.68,5.9,7.28,8.52,13.86,16.51,17.07,18.58,12.64,10.66,5.26,1.16
Płock,52.54682,19.70638,PL,127474,3088825,Płock,2.09,4.84,6.6,8.75,13.8,16.82,17.21,18.09,11.76,9.39,4.76,-0.22
Pleszew,51.89636,17.78549,PL,17640,3088848,Pleszew,2.33,5.16,7.2,8.34,14.28,16.86,17.25,18.63,11.98,10.09,4.76,0.2
Piotrków Trybunalski,51.40547,19.70321,PL,80128,3088972,Piotrków Trybunalski,1.58,4.54,6.78,8.26,13.73,16.6,17.08,18.23,11.58,9.46,4.65,-0.63
Piła,53.15145,16.73782,PL,75532,3089033,Piła,2.8,5.26,6.96,8.26,13.95,16.67,16.74,18.19,12.0,9.93,4.86,0.13
Piekary Śląskie,50.38017,18.92653,PL,59757,3089125,Piekary Śląskie,0.8,4.29,6.75,7.82,13.75,16.03,16.77,17.9,11.55,9.39,4.61,-1.28
Pabianice,51.66446,19.35473,PL,70542,3089578,Pabianice,1.84,4.79,6.84,8.4,13.79,16.69,17.05,18.31,11.66,9.7,4.68,-0.39
Ozorków,51.96336,19.29139,PL,20608,3089582,Ozorków,2.14,5.07,6.94,8.6,13.94,16.88,17.17,18.41,11.83,9.83,4.79,-0.14
Oświęcim,50.03437,19.21037,PL,39057,3089658,Oświęcim,1.02,4.22,6.62,7.68,13.59,15.92,16.84,17.68,11.72,9.1,5.03,-1.82
Ostrów Wielkopolski,51.65501,17.80686,PL,72898,3089684,Ostrów Wielkopolski,2.31,5.13,7.3,8.37,14.35,16.96,17.36,18.78,12.05,10.21,4.83,0.24
Ostróda,53.69671,19.96486,PL,33524,3089779,Ostróda,2.0,4.67,5.92,8.39,13.0,16.17,16.49,17.39,11.36,9.09,4.61,-0.46
Orzesze,50.15595,18.77923,PL,18438,3089965,Orzesze,0.79,4.37,6.76,7.79,13.7,15.96,16.85,18.0,11.68,9.42,4.79,-1.29
Opole,50.67211,17.92533,PL,127676,3090048,Opole,1.73,5.16,7.41,8.35,14.31,16.82,17.9,19.5,12.38,10.28,5.16,0.01
Olkusz,50.2813,19.56503,PL,37744,3090146,Olkusz,0.81,4.04,6.36,7.48,13.34,15.63,16.35,17.37,11.22,8.98,4.49,-1.51
Oleśnica,51.21338,17.38986,PL,36956,3090170,Oleśnica,2.12,5.16,7.39,8.32,14.51,16.89,17.8,19.24,12.23,10.33,4.93,0.21
Oława,50.9466,17.2926,PL,33029,3090205,Oława,2.24,5.52,7.61,8.44,14.5,16.99,18.25,19.66,12.67,10.48,5.3,0.4
Oborniki,52.64739,16.81406,PL,17915,3090403,Oborniki,2.83,5.45,7.33,8.53,14.28,16.79,17.25,18.68,12.31,10.19,4.97,0.28
Nysa,50.47379,17.33437,PL,47283,3090436,Nysa,1.84,5.29,7.25,7.77,13.82,16.27,17.67,18.96,12.31,10.16,5.05,-0.53
Nowy Tomyśl,52.3195,16.12844,PL,15179,3090452,Nowy Tomyśl,2.95,5.71,7.55,8.63,14.69,16.79,17.48,19.13,12.57,10.4,4.95,0.39
Nowogard,53.67437,15.1163,PL,16703,3090558,Nowogard,3.24,5.5,6.88,8.15,13.4,16.25,16.58,17.99,12.19,10.19,4.85,0.64
Nowa Sól,51.80333,15.71702,PL,40354,3090764,Nowa Sól,3.1,6.13,7.91,8.71,15.21,17.19,18.27,19.87,13.06,10.85,5.22,0.73
Nowa Ruda,50.58008,16.50164,PL,24753,3090768,Nowa Ruda,0.3,3.54,5.7,6.59,13.1,14.98,16.3,17.58,11.01,8.72,3.58,-1.8
Namysłów,51.07592,17.72284,PL,16376,3091141,Namysłów,2.01,5.05,7.35,8.26,14.37,16.86,17.7,19.22,12.19,10.23,4.96,0.14
Nakło nad Notecią,53.14214,17.60181,PL,19565,3091150,Nakło nad Notecią,2.54,5.11,6.82,8.36,13.82,16.56,16.76,17.98,11.79,9.67,4.85,0.06
Myszków,50.5752,19.32461,PL,33273,3091217,Myszków,1.03,4.32,6.7,7.77,13.6,16.09,16.6,17.76,11.41,9.34,4.55,-1.25
Mysłowice,50.20745,19.16668,PL,74586,3091232,Mysłowice,1.07,4.39,6.88,8.01,13.88,16.14,16.92,17.94,11.81,9.43,5.0,-1.23
Myślenice,49.83383,19.9383,PL,17686,3091256,Myślenice,1.01,3.65,6.23,7.22,13.22,15.6,16.5,17.17,11.44,8.58,4.81,-2.24
Mikołów,50.17103,18.9041,PL,38821,3091831,Mikołów,0.89,4.37,6.77,7.82,13.71,15.98,16.83,17.97,11.69,9.43,4.86,-1.29
Międzyrzecz,52.44461,15.57801,PL,18669,3091969,Międzyrzecz,3.16,5.91,7.7,8.64,14.72,16.72,17.39,19.08,12.67,10.46,5.02,0.51
Malbork,54.03591,19.0266,PL,38723,3092472,Malbork,2.8,5.29,6.56,8.52,13.05,16.58,16.78,17.68,12.03,9.46,5.15,0.41
Luboń,52.34705,16.89267,PL,26431,3092856,Luboń,2.83,5.57,7.47,8.64,14.53,16.96,17.48,18.87,12.4,10.34,5.05,0.48
Lubliniec,50.66897,18.6844,PL,23784,3092906,Lubliniec,1.14,4.45,6.89,7.88,13.8,16.33,16.93,18.19,11.6,9.52,4.58,-0.97
Lubin,51.40089,16.20149,PL,77532,3092931,Lubin,2.71,5.92,7.69,8.51,14.9,16.99,18.33,19.68,12.75,10.77,5.03,0.69
Lubań,51.12014,15.28768,PL,22245,3093040,Lubań,1.97,5.11,6.74,7.4,13.68,15.8,16.66,18.34,11.86,9.89,4.31,-0.71
Łowicz,52.10714,19.94525,PL,29809,3093066,Łowicz,2.33,5.23,7.06,8.88,13.97,16.99,17.36,18.37,12.02,9.8,5.06,0.11
Łódź,51.77058,19.47395,PL,768755,3093133,Łódź,1.67,4.62,6.56,8.17,13.48,16.45,16.76,17.98,11.37,9.43,4.44,-0.62
Libiąż,50.10396,19.31568,PL,17834,3093457,Libiąż,0.73,3.95,6.43,7.55,13.4,15.7,16.56,17.45,11.43,8.89,4.68,-1.82
Leszno,51.84034,16.57494,PL,63565,3093524,Leszno,2.7,5.67,7.57,8.56,14.78,17.01,18.03,19.4,12.61,10.6,5.0,0.63
Legnica,51.21006,16.1619,PL,106033,3093692,Legnica,2.43,5.68,7.48,8.16,14.41,16.6,18.02,19.33,12.51,10.51,4.82,0.04
Lędziny,50.14264,19.13149,PL,16305,3093708,Lędziny,0.9,4.23,6.64,7.72,13.56,15.87,16.75,17.72,11.63,9.2,4.89,-1.54
Łęczyca,52.05959,19.19972,PL,15528,3093726,Łęczyca,2.25,5.11,6.96,8.63,13.95,16.88,17.22,18.42,11.89,9.86,4.84,0.01
Lębork,54.53921,17.75012,PL,35161,3093739,Lębork,3.14,5.47,6.4,8.16,12.9,16.56,16.43,17.64,12.09,9.69,5.08,0.67
Łaziska Górne,50.14952,18.84215,PL,21983,3093785,Łaziska Górne,0.53,4.07,6.35,7.33,13.17,15.52,16.45,17.58,11.3,9.08,4.53,-1.65
Łask,51.59056,19.13278,PL,18577,3093902,Łask,1.82,4.8,6.87,8.31,13.89,16.75,17.07,18.43,11.65,9.76,4.65,-0.33
Kwidzyn,53.72495,18.93114,PL,37601,3094086,Kwidzyn,2.52,5.02,6.44,8.36,13.17,16.5,16.61,17.65,11.82,9.28,4.9,0.15
Kutno,52.23064,19.36409,PL,48323,3094170,Kutno,2.22,5.06,6.85,8.64,13.84,16.8,17.17,18.29,11.84,9.72,4.83,-0.03
Krotoszyn,51.69868,17.43738,PL,29231,3094625,Krotoszyn,2.29,5.17,7.27,8.34,14.41,16.88,17.46,18.87,12.12,10.25,4.77,0.25
Krapkowice,50.47515,17.96539,PL,18275,3094788,Krapkowice,1.75,5.29,7.52,8.32,14.26,16.73,17.95,19.5,12.49,10.42,5.29,-0.08
Kraków,50.06143,19.93658,PL,755050,3094802,Kraków,1.13,4.08,6.86,7.86,13.87,16.27,17.03,17.82,11.91,9.14,5.03,-1.41
Koszalin,54.19438,16.17222,PL,107450,3095049,Koszalin,3.32,5.57,6.6,7.92,12.72,16.34,16.43,17.74,12.33,10.15,5.2,1.1
Kostrzyn nad Odrą,52.58713,14.64953,PL,18099,3095057,Kostrzyn nad Odrą,3.45,6.15,7.78,8.75,14.68,16.67,17.35,19.21,12.83,10.62,5.18,0.54
Kościerzyna,54.12226,17.98119,PL,23361,3095126,Kościerzyna,2.0,4.36,5.53,7.45,12.41,15.81,15.73,16.94,11.22,8.77,4.24,-0.57
Kościan,52.08829,16.64866,PL,24096,3095151,Kościan,2.8,5.63,7.56,8.6,14.65,16.96,17.72,19.17,12.58,10.46,5.0,0.52
Konstantynów Łódzki,51.74776,19.32564,PL,17415,3095277,Konstantynów Łódzki,1.89,4.84,6.91,8.45,13.88,16.78,17.12,18.42,11.72,9.77,4.72,-0.32
Konin,52.22338,18.25121,PL,81258,3095321,Konin,2.51,5.3,7.21,8.65,14.47,17.14,17.42,18.74,12.07,10.12,4.92,0.28
Kołobrzeg,54.17565,15.58342,PL,44377,3095795,Kołobrzeg,3.65,5.85,6.85,8.1,12.84,16.43,16.69,17.99,12.7,10.5,5.49,1.65
Koło,52.20024,18.63865,PL,23493,3095797,Koło,2.4,5.21,7.1,8.65,14.29,17.05,17.35,18.62,12.0,10.03,4.87,0.15
Knurów,50.21971,18.65067,PL,39744,3095971,Knurów,1.19,4.86,7.24,8.24,14.17,16.44,17.38,18.56,12.17,9.87,5.22,-0.83
Kluczbork,50.97281,18.21816,PL,25978,3096003,Kluczbork,1.77,4.88,7.22,8.13,14.15,16.7,17.42,18.93,11.94,9.99,4.85,-0.22
Kłodzko,50.43488,16.66145,PL,26845,3096053,Kłodzko,0.86,4.2,6.33,7.13,13.6,15.53,16.85,18.1,11.58,9.28,4.13,-1.32
Kęty,49.88214,19.22333,PL,19249,3096328,Kęty,1.16,4.31,6.55,7.46,13.46,15.83,16.79,17.61,11.7,9.09,5.14,-2.03
Kędzierzyn-Koźle,50.34984,18.22606,PL,65636,3096372,Kędzierzyn-Koźle,1.35,5.07,7.45,8.3,14.3,16.66,17.85,19.21,12.44,10.08,5.2,-0.47
Katowice,50.25841,19.02754,PL,317316,3096472,Katowice,0.95,4.38,6.84,7.96,13.86,16.13,16.88,18.0,11.73,9.47,4.84,-1.27
Kartuzy,54.33424,18.19735,PL,15002,3096525,Kartuzy,1.98,4.39,5.43,7.27,12.0,15.53,15.45,16.51,10.97,8.62,4.08,-0.62
Kamienna Góra,50.78314,16.03037,PL,21743,3096779,Kamienna Góra,0.88,3.98,5.8,6.44,12.8,14.89,15.94,17.39,10.91,8.98,3.33,-1.82
Kalisz,51.76109,18.09102,PL,108759,3096880,Kalisz,2.39,5.22,7.35,8.52,14.41,17.08,17.4,18.77,12.1,10.18,4.92,0.28
Jelenia Góra,50.89973,15.72899,PL,87310,3097257,Jelenia Góra,1.44,4.57,6.26,6.88,13.24,15.36,16.27,17.82,11.36,9.4,3.74,-1.49
Jelcz,51.02102,17.32095,PL,15308,3097271,Jelcz,2.31,5.57,7.69,8.53,14.67,17.11,18.27,19.74,12.66,10.55,5.26,0.42
Jaworzno,50.20528,19.27498,PL,96541,3097333,Jaworzno,0.75,4.04,6.52,7.68,13.54,15.79,16.57,17.57,11.46,9.05,4.65,-1.55
Jawor,51.05132,16.19347,PL,23865,3097367,Jawor,2.11,5.35,7.08,7.6,13.78,16.03,17.32,18.74,12.0,10.16,4.44,-0.54
Jastrzębie Zdrój,49.95542,18.57479,PL,95813,3097391,Jastrzębie Zdrój,1.13,4.82,7.01,7.87,13.72,16.15,17.18,18.36,12.01,9.72,5.16,-0.96
Jarocin,51.97266,17.50256,PL,25665,3097528,Jarocin,2.43,5.23,7.26,8.38,14.36,16.89,17.38,18.75,12.1,10.15,4.8,0.26
Inowrocław,52.79886,18.26387,PL,77597,3097872,Inowrocław,2.38,5.04,6.73,8.38,13.87,16.69,17.02,18.13,11.82,9.68,4.82,0.14
Iława,53.59601,19.56849,PL,32557,3097902,Iława,2.01,4.63,6.0,8.29,12.94,16.18,16.4,17.34,11.37,9.01,4.58,-0.49
Gubin,51.94956,14.72837,PL,16629,3098130,Gubin,3.42,6.48,8.13,8.86,15.15,17.16,17.98,19.88,13.28,11.05,5.48,0.89
Gryfino,53.25243,14.48831,PL,21270,3098200,Gryfino,3.76,6.05,7.54,8.61,14.08,16.5,17.12,18.81,12.59,10.68,5.2,0.8
Gryfice,53.9165,15.20027,PL,16720,3098201,Gryfice,3.46,5.7,6.92,8.26,13.38,16.47,16.72,18.04,12.46,10.36,5.12,1.1
Grudziądz,53.48411,18.75366,PL,95045,3098218,Grudziądz,2.75,5.27,6.79,8.67,13.68,16.88,16.99,18.08,12.12,9.6,5.18,0.42
Gostynin,52.42938,19.46194,PL,18976,3098619,Gostynin,2.33,5.11,6.85,8.87,14.0,16.97,17.37,18.35,11.94,9.7,4.93,0.01
Gostyń,51.88247,17.01225,PL,20771,3098625,Gostyń,2.64,5.49,7.49,8.56,14.63,17.0,17.75,19.12,12.44,10.46,4.98,0.52
Gorzów Wielkopolski,52.73679,15.22878,PL,124430,3098722,Gorzów Wielkopolski,3.34,6.03,7.75,8.77,14.62,16.69,17.26,18.95,12.68,10.49,5.03,0.55
Goleniów,53.56392,14.82854,PL,22505,3098966,Goleniów,3.56,5.8,7.24,8.47,13.77,16.48,16.96,18.4,12.49,10.5,5.13,0.94
Gniezno,52.53481,17.58259,PL,70269,3099112,Gniezno,2.4,5.08,6.96,8.32,14.0,16.64,17.05,18.36,11.92,9.9,4.78,0.14
Głuchołazy,50.31505,17.38355,PL,15120,3099169,Głuchołazy,1.42,4.88,6.94,7.42,13.41,15.86,17.26,18.59,11.95,9.93,4.7,-0.88
Głowno,51.96463,19.71565,PL,15103,3099180,Głowno,2.11,5.06,6.94,8.67,13.86,16.86,17.19,18.31,11.84,9.69,4.85,-0.18
Głogów,51.66361,16.0845,PL,67317,3099213,Głogów,2.81,5.91,7.72,8.61,15.05,17.06,18.23,19.72,12.84,10.74,5.03,0.64
Gliwice,50.29761,18.67658,PL,198835,3099230,Gliwice,1.21,4.85,7.3,8.34,14.3,16.57,17.45,18.64,12.21,9.87,5.16,-0.83
Gdynia,54.51889,18.53188,PL,244969,3099424,Gdynia,3.43,5.58,6.26,8.0,12.22,16.01,16.44,17.5,12.36,9.89,5.66,1.44
Gdańsk,54.35227,18.64912,PL,461865,3099434,Gdańsk,3.17,5.52,6.52,8.41,12.94,16.64,16.86,17.81,12.4,9.79,5.47,0.93
Fordon,53.14821,18.17036,PL,70000,3099654,Fordon,2.74,5.35,7.01,8.72,14.13,17.01,17.22,18.32,12.13,9.88,5.18,0.47
Elbląg,54.1522,19.40884,PL,127558,3099759,Elbląg,3.09,5.51,6.51,8.61,12.88,16.5,16.87,17.82,12.32,9.96,5.63,0.97
Dzierżoniów,50.7282,16.65141,PL,34168,3099828,Dzierżoniów,1.48,4.72,6.69,7.25,13.57,15.7,17.05,18.32,11.79,9.58,4.53,-0.75
Dąbrowa Górnicza,50.33394,19.20479,PL,118285,3100796,Dąbrowa Górnicza,1.0,4.38,6.85,8.03,13.91,16.17,16.89,17.95,11.76,9.43,4.88,-1.25
Częstochowa,50.79646,19.12409,PL,248125,3100946,Częstochowa,1.25,4.46,6.87,7.91,13.73,16.31,16.82,18.02,11.55,9.48,4.59,-1.09
Czerwionka-Leszczyny,50.15007,18.67762,PL,28740,3100974,Czerwionka-Leszczyny,1.09,4.76,7.14,8.14,14.07,16.34,17.28,18.46,12.07,9.77,5.12,-0.93
Czeladź,50.31542,19.07824,PL,34308,3101057,Czeladź,0.9,4.29,6.76,7.91,13.8,16.06,16.78,17.88,11.65,9.37,4.78,-1.33
Czechowice-Dziedzice,49.91342,19.00479,PL,34703,3101076,Czechowice-Dziedzice,1.25,4.63,6.82,7.71,13.66,16.05,17.01,17.93,11.92,9.43,5.25,-1.72
Cieszyn,49.75133,18.63213,PL,35586,3101321,Cieszyn,0.74,4.46,6.63,7.62,13.6,16.0,17.0,18.12,11.85,9.41,4.89,-1.37
Chrzanów,50.13546,19.40203,PL,39973,3101547,Chrzanów,0.86,4.02,6.51,7.64,13.5,15.79,16.65,17.52,11.51,8.97,4.77,-1.71
Choszczno,53.16905,15.42054,PL,15733,3101613,Choszczno,3.09,5.49,7.12,8.3,13.74,16.29,16.63,18.15,12.17,10.14,4.73,0.26
Chorzów,50.30582,18.9742,PL,113430,3101619,Chorzów,0.65,4.08,6.54,7.66,13.56,15.83,16.58,17.7,11.43,9.17,4.54,-1.57
Chojnice,53.69554,17.55701,PL,39407,3101672,Chojnice,2.11,4.54,5.94,7.48,12.72,15.9,15.93,17.13,11.23,8.96,4.32,-0.55
Chodzież,52.99505,16.9198,PL,19776,3101680,Chodzież,2.79,5.32,7.11,8.44,14.1,16.68,16.89,18.3,12.04,9.99,4.91,0.17
Chełmża,53.18463,18.60466,PL,15403,3101787,Chełmża,2.44,4.99,6.59,8.36,13.51,16.59,16.82,17.88,11.77,9.49,4.9,0.18
Chełmno,53.34855,18.4251,PL,20576,3101795,Chełmno,2.47,4.99,6.6,8.35,13.57,16.61,16.79,17.9,11.81,9.44,4.89,0.17
Bytów,54.17057,17.49187,PL,16724,3101943,Bytów,2.41,4.76,5.87,7.58,12.57,16.01,15.85,17.1,11.45,9.18,4.47,-0.2
Bytom,50.34802,18.93282,PL,189186,3101950,Bytom,0.79,4.3,6.76,7.85,13.77,16.04,16.83,17.96,11.65,9.38,4.71,-1.36
Bydgoszcz,53.1235,18.00762,PL,366452,3102014,Bydgoszcz,2.77,5.36,7.05,8.66,14.14,17.0,17.2,18.33,12.11,9.88,5.17,0.45
Brzeg,50.86079,17.4674,PL,38259,3102459,Brzeg,2.15,5.42,7.54,8.43,14.52,16.98,18.11,19.64,12.54,10.47,5.24,0.33
Brodnica,53.25967,19.39653,PL,27341,3102627,Brodnica,2.29,4.91,6.38,8.55,13.39,16.55,16.76,17.72,11.69,9.33,4.85,-0.05
Braniewo,54.37971,19.81959,PL,18356,3102677,Braniewo,2.78,5.22,6.19,8.47,12.62,16.26,16.76,17.57,12.02,9.53,5.3,0.49
Bolesławiec,51.26418,15.5697,PL,40682,3102987,Bolesławiec,2.4,5.57,7.2,7.95,14.26,16.37,17.55,18.99,12.32,10.24,4.64,0.1
Boguszów-Gorce,50.75514,16.20494,PL,16726,3103034,Boguszów-Gorce,-0.17,2.93,4.88,5.54,11.93,13.96,15.13,16.5,10.02,8.01,2.46,-2.84
Bogatynia,50.90747,14.95634,PL,17436,3103096,Bogatynia,1.71,4.99,6.7,7.35,13.72,15.86,16.64,18.46,11.91,9.86,4.26,-0.83
Bieruń,50.09,19.09291,PL,19659,3103365,Bieruń,1.0,4.33,6.74,7.82,13.66,15.97,16.85,17.82,11.73,9.3,4.99,-1.44
Bielsko-Biala,49.82245,19.04686,PL,176515,3103402,Bielsko-Biala,0.92,4.18,6.38,7.23,13.23,15.62,16.57,17.44,11.49,8.96,4.9,-2.21
Bielawa,50.69075,16.623,PL,29971,3103476,Bielawa,1.4,4.77,6.71,7.26,13.55,15.7,17.05,18.31,11.76,9.47,4.28,-0.96
Białogard,54.00696,15.98751,PL,24368,3103556,Białogard,3.16,5.54,6.79,8.09,13.16,16.51,16.48,17.76,12.14,10.08,4.88,0.6
Bełchatów,51.36883,19.35671,PL,62896,3103709,Bełchatów,1.62,4.59,6.79,8.17,13.73,16.56,17.04,18.29,11.57,9.55,4.62,-0.56
Będzin,50.32607,19.12565,PL,58236,3103719,Będzin,1.05,4.44,6.91,8.06,13.95,16.21,16.93,18.03,11.8,9.52,4.93,-1.18
Andrychów,49.85497,19.33834,PL,21954,3104115,Andrychów,0.85,3.9,6.18,7.13,13.12,15.49,16.45,17.23,11.36,8.7,4.81,-2.37
Aleksandrów Łódzki,51.81965,19.30384,PL,20292,3104132,Aleksandrów Łódzki,1.76,4.72,6.68,8.27,13.69,16.61,16.89,18.2,11.5,9.61,4.51,-0.48
Ursynów,52.15051,21.05041,PL,150668,6545326,Ursynów,1.9,4.87,6.55,8.75,13.86,17.02,17.17,17.96,11.6,9.53,4.86,-0.03
Praga Północ,52.25443,21.03472,PL,93192,6545347,Praga Północ,2.03,4.94,6.6,8.84,13.97,17.13,17.28,18.07,11.72,9.58,4.95,0.08
Praga Południe,52.24424,21.08545,PL,179836,6545348,Praga Południe,2.04,5.02,6.7,8.89,14.01,17.17,17.32,18.1,11.75,9.68,5.01,0.12
Jelcz Laskowice,51.02134,17.31649,PL,15340,7303641,Jelcz Laskowice,2.31,5.57,7.69,8.53,14.67,17.11,18.27,19.74,12.66,10.55,5.26,0.42
Osiedle Kosmonautów,51.12753,16.96186,PL,19048,12047617,Osiedle Kosmonautów,2.41,5.68,7.73,8.54,14.69,17.06,18.31,19.71,12.66,10.57,5.17,0.43
Rejon placu Grunwaldzkiego,51.11669,17.06126,PL,27030,12047623,Rejon placu Grunwaldzkiego,2.43,5.69,7.76,8.61,14.78,17.14,18.33,19.75,12.69,10.61,5.23,0.49
Rejon ulicy Traugutta,51.10247,17.04827,PL,20617,12047628,Rejon ulicy Traugutta,2.41,5.68,7.73,8.54,14.69,17.06,18.31,19.71,12.66,10.57,5.17,0.43
Kozanów,51.14447,16.96937,PL,15901,12047636,Kozanów,2.46,5.73,7.78,8.59,14.73,17.11,18.37,19.77,12.72,10.62,5.22,0.48
Rejon placu Świętego Macieja,51.12056,17.03761,PL,44090,12047644,Rejon placu Świętego Macieja,2.41,5.68,7.73,8.54,14.69,17.06,18.31,19.71,12.66,10.57,5.17,0.43
Różanka-Polanka,51.14344,17.01987,PL,15746,12047651,Różanka-Polanka,2.46,5.73,7.78,8.59,14.73,17.11,18.37,19.77,12.72,10.62,5.22,0.48
