name,latitude,longitude,country,population,id,city,jan,feb,mar,apr,may,jun,jul,aug,sep,oct,nov,dec
Żyrardów,52.0488,20.44599,PL,41179,752967,Żyrardów,-2.46,-5.08,2.26,6.92,15.7,18.16,20.2,19.35,14.73,5.98,5.88,1.44
Żoliborz,52.26896,20.98644,PL,50934,753142,Żoliborz,-3.0,-5.36,1.73,6.67,15.64,18.03,20.44,19.45,14.52,5.8,5.5,1.26
Zielonka,52.30376,21.16018,PL,17518,753276,Zielonka,-3.07,-5.45,1.68,6.63,15.7,18.1,20.61,19.61,14.53,5.81,5.55,1.26
Zamość,50.72314,23.25196,PL,66034,753866,Zamość,-3.42,-6.48,1.11,6.63,15.97,17.66,19.82,19.52,14.42,6.04,5.38,0.58
Zambrów,52.9855,22.24319,PL,22857,753895,Zambrów,-4.19,-5.74,0.89,6.0,14.8,16.96,20.34,18.71,13.79,5.22,4.82,0.9
Ząbki,52.29271,21.10539,PL,23473,754351,Ząbki,-3.0,-5.34,1.77,6.7,15.72,18.11,20.57,19.57,14.57,5.86,5.58,1.31
Wyszków,52.59278,21.4584,PL,26500,754454,Wyszków,-3.48,-5.48,1.39,6.4,15.42,17.7,20.58,19.43,14.37,5.64,5.34,1.19
Wołomin,52.34006,21.24207,PL,36592,754800,Wołomin,-3.09,-5.46,1.65,6.59,15.65,18.05,20.56,19.56,14.48,5.77,5.51,1.22
Wola,52.2401,20.98869,PL,140958,755330,Wola,-2.92,-5.38,1.78,6.69,15.68,18.07,20.4,19.47,14.54,5.78,5.55,1.23
Włochy,52.17941,20.94612,PL,36276,755475,Włochy,-2.75,-5.27,1.9,6.8,15.73,18.14,20.44,19.51,14.62,5.86,5.62,1.31
Wieliczka,49.98738,20.06473,PL,18677,755889,Wieliczka,-3.09,-6.17,1.95,6.76,15.39,18.37,19.03,19.69,13.99,5.69,4.45,0.13
Wesoła,52.25451,21.22407,PL,20000,756004,Wesoła,-3.14,-5.51,1.6,6.54,15.6,18.0,20.51,19.51,14.43,5.72,5.46,1.17
Wawer,52.19656,21.17752,PL,77205,756092,Wawer,-2.98,-5.3,1.83,6.75,15.8,18.16,20.57,19.61,14.6,5.85,5.64,1.28
Warsaw,52.22977,21.01178,PL,1702139,756135,Warsaw,-2.92,-5.38,1.78,6.69,15.68,18.07,20.4,19.47,14.54,5.78,5.55,1.23
Ursus,52.19517,20.88419,PL,47285,756320,Ursus,-2.75,-5.27,1.9,6.8,15.73,18.14,20.44,19.51,14.62,5.86,5.62,1.31
Tomaszów Mazowiecki,51.53131,20.00855,PL,67197,756867,Tomaszów Mazowiecki,-2.63,-5.41,2.47,6.95,15.85,18.74,20.04,19.4,14.7,5.71,5.71,1.02
Tomaszów Lubelski,50.44767,23.41616,PL,20261,756868,Tomaszów Lubelski,-3.55,-6.81,0.96,6.46,16.0,17.51,19.42,19.23,14.07,5.91,5.34,0.39
Tarnów,50.01381,20.98698,PL,117799,757026,Tarnów,-2.77,-6.19,1.91,7.07,16.09,18.76,19.73,20.15,14.36,6.36,5.74,1.03
Tarnobrzeg,50.57304,21.67937,PL,50459,757033,Tarnobrzeg,-2.85,-5.95,1.97,7.19,16.46,18.77,20.41,20.6,14.96,6.37,5.68,1.0
Targówek,52.29185,21.04845,PL,124279,757065,Targówek,-2.9,-5.26,1.83,6.77,15.74,18.13,20.54,19.55,14.62,5.9,5.6,1.36
Szczytno,53.56259,20.98747,PL,26044,757357,Szczytno,-4.24,-5.05,0.88,5.82,14.13,16.65,19.62,17.91,13.74,5.04,4.62,1.18
Świdnik,51.21898,22.69621,PL,40050,757692,Świdnik,-3.31,-6.14,1.19,6.51,15.89,17.79,20.01,19.59,14.58,5.88,5.35,0.77
Suwałki,54.11175,22.93087,PL,69222,757718,Suwałki,-5.17,-5.9,0.28,4.84,13.31,15.81,20.02,17.79,13.07,4.56,3.83,0.53
Sulejówek,52.25221,21.26902,PL,18414,757809,Sulejówek,-3.16,-5.51,1.59,6.52,15.59,17.97,20.53,19.51,14.42,5.71,5.47,1.16
Staszów,50.56307,21.16593,PL,16137,758252,Staszów,-2.93,-5.95,2.13,7.12,16.16,18.7,20.29,20.38,14.85,6.15,5.41,0.95
Starachowice,51.0374,21.07126,PL,53739,758390,Starachowice,-2.77,-5.86,2.04,6.73,15.8,18.46,20.02,19.83,14.61,5.74,5.33,0.99
Stalowa Wola,50.58286,22.05334,PL,66495,758445,Stalowa Wola,-2.93,-5.9,1.83,7.27,16.7,18.76,20.39,20.41,14.94,6.37,5.79,0.95
Śródmieście,52.22904,21.01644,PL,134306,758470,Śródmieście,-2.92,-5.38,1.78,6.69,15.68,18.07,20.4,19.47,14.54,5.78,5.55,1.23
Sokołów Podlaski,52.40677,22.25307,PL,18241,758626,Sokołów Podlaski,-3.84,-6.08,0.75,5.85,14.84,16.87,20.0,18.86,13.76,5.25,4.9,0.72
Sokółka,53.40715,23.50228,PL,19079,758651,Sokółka,-5.07,-6.12,0.22,5.26,14.22,16.35,20.18,18.23,13.14,4.73,4.14,0.36
Sochaczew,52.22944,20.23838,PL,38267,758682,Sochaczew,-2.5,-4.89,2.31,6.86,15.57,18.07,20.22,19.3,14.75,6.01,5.76,1.42
Skierniewice,51.95485,20.15837,PL,49042,759123,Skierniewice,-2.63,-5.16,2.23,6.87,15.59,18.15,20.06,19.22,14.67,5.86,5.72,1.24
Skarżysko-Kamienna,51.11311,20.87162,PL,49410,759141,Skarżysko-Kamienna,-2.77,-5.92,1.97,6.58,15.67,18.34,19.87,19.53,14.44,5.56,5.31,0.9
Siemiatycze,52.42719,22.86231,PL,15421,759320,Siemiatycze,-4.35,-6.39,0.54,6.02,15.12,17.12,20.43,19.12,13.88,5.32,4.76,0.54
Siedlce,52.16772,22.29006,PL,77185,759412,Siedlce,-3.58,-5.95,1.23,6.34,15.36,17.43,20.23,19.06,14.19,5.52,5.11,0.86
Sanok,49.55573,22.2056,PL,39684,759591,Sanok,-4.55,-6.85,0.97,6.49,15.99,17.95,18.97,19.62,13.68,6.01,5.74,-0.22
Sandomierz,50.68265,21.74898,PL,25087,759603,Sandomierz,-2.96,-6.07,1.78,6.92,16.13,18.37,20.08,20.15,14.67,6.08,5.41,0.82
Rzeszów,50.04132,21.99901,PL,158382,759734,Rzeszów,-3.45,-6.14,1.84,7.07,16.46,18.55,19.75,20.24,14.51,6.59,6.19,0.88
Ropczyce,50.05229,21.60891,PL,15279,760343,Ropczyce,-3.02,-5.91,1.98,7.2,16.45,18.78,19.97,20.44,14.64,6.55,6.11,1.05
Rembertów,52.26059,21.16355,PL,21893,760503,Rembertów,-3.09,-5.46,1.65,6.59,15.65,18.05,20.56,19.56,14.48,5.77,5.51,1.22
Rawa Mazowiecka,51.76437,20.25493,PL,17770,760584,Rawa Mazowiecka,-2.64,-5.4,2.3,6.78,15.62,18.16,20.01,19.2,14.55,5.78,5.72,1.18
Radzyń Podlaski,51.78333,22.61667,PL,16071,760680,Radzyń Podlaski,-3.33,-5.8,1.24,6.58,15.81,17.84,20.35,19.52,14.5,5.77,5.35,0.92
Radom,51.40253,21.14714,PL,226794,760778,Radom,-2.52,-5.49,2.06,6.6,15.7,18.22,20.19,19.57,14.53,5.84,5.59,1.2
Pułtusk,52.7025,21.08276,PL,19039,760917,Pułtusk,-3.39,-5.3,1.52,6.46,15.19,17.46,20.32,19.17,14.33,5.65,5.28,1.24
Puławy,51.41655,21.96939,PL,49759,760924,Puławy,-2.83,-5.47,1.84,6.98,16.21,18.27,20.37,19.69,14.84,6.09,5.69,1.2
Przeworsk,50.05912,22.49408,PL,15805,761131,Przeworsk,-3.35,-6.7,1.56,6.97,16.39,18.28,19.69,20.09,14.43,6.46,6.02,0.76
Przemyśl,49.78498,22.76728,PL,67013,761168,Przemyśl,-3.44,-6.7,1.68,6.96,16.45,18.21,19.51,19.89,14.25,6.59,6.3,0.89
Przasnysz,53.01907,20.88029,PL,16718,761218,Przasnysz,-3.48,-5.15,1.49,6.36,14.73,17.1,19.93,18.69,14.15,5.43,5.0,1.14
Pruszków,52.17072,20.81214,PL,55371,761228,Pruszków,-2.77,-5.21,1.97,6.83,15.72,18.11,20.41,19.49,14.67,5.93,5.68,1.38
Płońsk,52.62348,20.37552,PL,22217,762021,Płońsk,-3.05,-5.0,1.94,6.71,15.19,17.56,20.07,19.1,14.6,5.84,5.42,1.33
Pisz,53.62744,21.81253,PL,19232,762120,Pisz,-4.26,-5.34,1.0,5.91,14.47,16.97,20.24,18.28,13.89,5.28,4.61,1.17
Pionki,51.47604,21.44995,PL,19966,762199,Pionki,-2.78,-5.11,2.08,6.79,15.97,18.35,20.36,19.64,14.61,5.92,5.68,1.26
Piastów,52.18435,20.83952,PL,23290,762381,Piastów,-2.77,-5.21,1.97,6.83,15.72,18.11,20.41,19.49,14.67,5.93,5.68,1.38
Piaseczno,52.0814,21.02397,PL,36278,762423,Piaseczno,-2.78,-5.31,1.9,6.76,15.77,18.17,20.45,19.54,14.58,5.87,5.66,1.31
Otwock,52.10577,21.26129,PL,43388,762788,Otwock,-2.9,-5.18,1.97,6.86,15.98,18.33,20.64,19.71,14.69,5.92,5.72,1.33
Ostrów Mazowiecka,52.80245,21.89507,PL,22653,762850,Ostrów Mazowiecka,-3.93,-5.67,1.0,6.07,15.03,17.26,20.37,18.96,13.96,5.33,5.0,0.97
Ostrowiec Świętokrzyski,50.92936,21.38525,PL,73989,762863,Ostrowiec Świętokrzyski,-2.59,-5.72,2.11,7.0,16.06,18.54,20.26,20.18,14.8,6.08,5.53,1.14
Ostrołęka,53.08621,21.57566,PL,53740,762909,Ostrołęka,-3.72,-5.28,1.18,6.28,14.94,17.33,20.38,18.78,14.05,5.45,4.96,1.18
Opoczno,51.37569,20.27827,PL,22592,763111,Opoczno,-2.7,-5.78,2.18,6.69,15.65,18.39,19.86,19.27,14.46,5.57,5.61,0.93
Olsztyn,53.77995,20.49416,PL,171803,763166,Olsztyn,-4.28,-5.28,0.95,5.67,13.81,16.48,19.21,17.62,13.75,5.01,4.68,1.22
Olecko,54.03374,22.50704,PL,15923,763291,Olecko,-5.07,-5.81,0.53,5.11,13.49,16.0,19.99,17.82,13.23,4.68,4.0,0.71
Ochota,52.22096,20.98526,PL,93192,763442,Ochota,-2.92,-5.38,1.78,6.69,15.68,18.07,20.4,19.47,14.54,5.78,5.55,1.23
Nowy Targ,49.47783,20.03228,PL,33763,763523,Nowy Targ,-4.96,-6.95,0.73,4.93,14.45,17.08,17.17,18.29,12.41,4.4,3.57,-1.83
Nowy Sącz,49.62177,20.69705,PL,84376,763534,Nowy Sącz,-3.35,-6.05,1.62,6.72,15.76,18.37,18.93,19.52,13.8,5.93,5.21,0.28
Nowy Dwór Mazowiecki,52.43022,20.71652,PL,27633,763556,Nowy Dwór Mazowiecki,-2.84,-4.92,2.06,7.01,15.78,18.11,20.47,19.45,14.79,6.06,5.66,1.48
Nisko,50.51987,22.13968,PL,15573,763829,Nisko,-2.8,-5.79,1.9,7.37,16.86,18.9,20.49,20.59,15.03,6.54,6.01,1.08
Mrągowo,53.86437,21.30507,PL,21965,764312,Mrągowo,-4.16,-4.95,0.86,5.54,13.8,16.32,19.72,17.74,13.74,5.17,4.59,1.32
Mokotów,52.1934,21.03487,PL,217683,764484,Mokotów,-2.72,-5.18,1.98,6.89,15.88,18.27,20.6,19.67,14.74,5.98,5.75,1.43
Mława,53.11278,20.3841,PL,29398,764634,Mława,-3.88,-5.37,1.37,6.15,14.34,16.76,19.43,18.26,14.02,5.21,4.78,0.95
Mińsk Mazowiecki,52.17935,21.57251,PL,37027,764679,Mińsk Mazowiecki,-3.22,-5.54,1.43,6.31,15.38,17.65,20.19,19.19,14.14,5.54,5.41,1.04
Milanówek,52.11879,20.67155,PL,15784,764749,Milanówek,-2.71,-5.05,2.19,6.93,15.81,18.19,20.4,19.48,14.74,6.0,5.84,1.48
Mielec,50.28709,21.4239,PL,60993,764849,Mielec,-2.81,-5.95,2.03,7.25,16.38,18.85,20.23,20.58,14.8,6.44,5.86,1.05
Międzyrzec Podlaski,51.9864,22.78248,PL,17158,764862,Międzyrzec Podlaski,-3.81,-6.29,0.79,6.27,15.42,17.46,20.24,19.3,14.2,5.54,5.03,0.67
Marki,52.32065,21.10474,PL,23177,765191,Marki,-3.05,-5.39,1.72,6.66,15.67,18.05,20.53,19.52,14.52,5.81,5.53,1.26
Łuków,51.929,22.37956,PL,30465,765749,Łuków,-3.52,-6.01,1.03,6.22,15.46,17.64,20.21,19.38,14.21,5.53,5.13,0.75
Lublin,51.25,22.56667,PL,360044,765876,Lublin,-3.1,-5.91,1.36,6.65,16.04,17.95,20.19,19.72,14.72,5.99,5.51,0.96
Lubartów,51.46026,22.60952,PL,22839,765927,Lubartów,-3.18,-5.87,1.26,6.58,16.03,18.03,20.3,19.66,14.64,5.92,5.43,0.94
Łomża,53.17806,22.05935,PL,63723,766027,Łomża,-4.0,-5.5,1.02,6.12,14.85,17.15,20.44,18.69,13.93,5.32,4.89,1.12
Łomianki,52.33413,20.88602,PL,15315,766042,Łomianki,-2.77,-5.1,1.99,6.94,15.85,18.24,20.59,19.62,14.79,6.03,5.71,1.48
Lidzbark Warmiński,54.12588,20.57954,PL,16540,766307,Lidzbark Warmiński,-3.81,-4.56,1.35,5.83,13.73,16.45,19.58,17.73,13.96,5.37,5.02,1.71
Legionowo,52.40149,20.92664,PL,50786,766555,Legionowo,-2.97,-5.09,1.92,6.87,15.72,18.06,20.49,19.42,14.66,5.96,5.58,1.41
Łęczna,51.30121,22.88135,PL,21719,766583,Łęczna,-3.33,-6.19,1.16,6.56,15.97,17.92,20.19,19.72,14.69,5.95,5.34,0.79
Łapy,52.9911,22.88422,PL,16434,766783,Łapy,-4.53,-5.72,0.82,5.89,14.74,16.75,20.45,18.7,13.61,5.2,4.69,0.71
Łańcut,50.06871,22.22912,PL,18266,766810,Łańcut,-3.31,-6.46,1.58,6.87,16.32,18.32,19.68,20.08,14.39,6.41,6.01,0.77
Krosno,49.68866,21.77058,PL,47784,767470,Krosno,-4.47,-6.64,1.2,6.51,15.83,17.99,18.95,19.56,13.6,5.93,5.48,-0.23
Krasnystaw,50.98464,23.1742,PL,19532,767605,Krasnystaw,-3.31,-6.28,1.14,6.6,15.92,17.72,19.97,19.49,14.55,6.05,5.42,0.73
Kraśnik,50.9236,22.22706,PL,35834,767623,Kraśnik,-2.98,-5.69,1.71,6.99,16.37,18.27,20.12,19.79,14.72,6.11,5.67,1.02
Kozienice,51.58294,21.54779,PL,18677,767814,Kozienice,-2.69,-4.93,2.24,7.06,16.22,18.51,20.58,19.78,14.8,6.1,5.81,1.38
Konstancin-Jeziorna,52.0938,21.11761,PL,16548,768216,Konstancin-Jeziorna,-2.75,-5.25,1.94,6.83,15.88,18.26,20.56,19.66,14.65,5.93,5.72,1.35
Końskie,51.19166,20.40607,PL,20756,768218,Końskie,-2.83,-6.15,1.88,6.52,15.56,18.33,19.64,19.22,14.28,5.37,5.35,0.69
Kobyłka,52.33953,21.19589,PL,17659,768905,Kobyłka,-3.09,-5.46,1.65,6.59,15.65,18.05,20.56,19.56,14.48,5.77,5.51,1.22
Kielce,50.87033,20.62752,PL,208598,769250,Kielce,-3.03,-6.23,1.87,6.65,15.61,18.43,19.68,19.59,14.34,5.44,5.08,0.57
Kętrzyn,54.07676,21.37527,PL,27478,769274,Kętrzyn,-4.14,-4.88,1.06,5.58,13.7,16.31,19.9,17.81,13.92,5.38,4.69,1.5
Kabaty,52.13012,21.08148,PL,25000,769893,Kabaty,-2.8,-5.31,1.9,6.78,15.83,18.21,20.51,19.61,14.6,5.88,5.67,1.3
Józefów,52.13707,21.23589,PL,17910,769981,Józefów,-2.92,-5.27,1.92,6.81,15.9,18.26,20.56,19.66,14.64,5.9,5.69,1.3
Jędrzejów,50.63945,20.30454,PL,16792,770157,Jędrzejów,-2.99,-6.26,2.03,6.8,15.57,18.48,19.58,19.84,14.43,5.62,4.91,0.43
Jasło,49.74506,21.47252,PL,37851,770293,Jasło,-4.03,-6.2,1.6,6.88,16.11,18.44,19.29,19.88,13.91,6.19,5.56,0.09
Jarosław,50.01623,22.67776,PL,40134,770380,Jarosław,-3.51,-6.89,1.4,6.79,16.23,18.04,19.44,19.79,14.16,6.31,5.9,0.61
Hrubieszów,50.80502,23.89251,PL,18605,770966,Hrubieszów,-3.45,-6.72,0.93,6.59,16.01,17.54,19.86,19.35,14.35,6.13,5.23,0.45
Hajnówka,52.74328,23.58122,PL,22157,771158,Hajnówka,-4.78,-6.39,0.45,5.8,14.92,16.74,20.3,18.74,13.54,5.14,4.4,0.33
Grodzisk Mazowiecki,52.10387,20.6337,PL,26684,771401,Grodzisk Mazowiecki,-2.58,-5.05,2.21,6.93,15.75,18.15,20.34,19.44,14.76,6.02,5.85,1.48
Grajewo,53.64728,22.45537,PL,22803,771506,Grajewo,-4.67,-5.66,0.75,5.65,14.29,16.63,20.31,18.31,13.51,5.0,4.41,0.93
Gorlice,49.65563,21.16035,PL,28609,771804,Gorlice,-3.67,-6.06,1.55,6.79,16.02,18.45,19.16,19.75,13.89,6.06,5.42,0.26
Giżycko,54.03811,21.76441,PL,29972,772195,Giżycko,-4.54,-5.2,0.72,5.52,13.82,16.31,19.99,17.82,13.63,5.2,4.41,1.31
Gierłoż,54.08134,21.49551,PL,28351,772227,Gierłoż,-4.4,-5.14,0.84,5.34,13.51,16.1,19.71,17.59,13.7,5.19,4.45,1.25
Garwolin,51.89747,21.61466,PL,15912,772339,Garwolin,-2.96,-5.24,1.83,6.71,15.91,18.18,20.43,19.54,14.45,5.8,5.61,1.18
Ełk,53.82824,22.36469,PL,55769,772621,Ełk,-4.56,-5.52,0.73,5.51,14.01,16.48,20.25,18.23,13.55,5.05,4.33,1.0
Działdowo,53.23958,20.17004,PL,21127,772748,Działdowo,-3.92,-5.36,1.34,6.12,14.24,16.66,19.26,18.07,13.98,5.14,4.74,0.94
Dęblin,51.55912,21.84829,PL,17775,773357,Dęblin,-2.82,-5.18,2.07,7.1,16.3,18.48,20.58,19.81,14.87,6.1,5.75,1.28
Dębica,50.05146,21.41141,PL,47366,773380,Dębica,-2.87,-6.03,2.04,7.25,16.37,18.83,20.0,20.46,14.68,6.59,6.05,1.12
Ciechanów,52.88141,20.61996,PL,46438,774208,Ciechanów,-3.46,-5.32,1.58,6.37,14.69,17.04,19.8,18.7,14.24,5.48,5.04,1.11
Chełm,51.14312,23.4716,PL,63949,774558,Chełm,-3.42,-6.46,1.05,6.56,15.93,17.73,20.09,19.51,14.61,6.1,5.34,0.65
Busko-Zdrój,50.47078,20.71884,PL,17095,774747,Busko-Zdrój,-3.33,-6.47,1.85,6.75,15.61,18.35,19.7,19.91,14.42,5.67,4.77,0.33
Brzesko,49.96911,20.60606,PL,16866,775183,Brzesko,-2.85,-6.25,1.99,7.04,15.85,18.71,19.5,19.96,14.27,6.09,5.21,0.68
Bochnia,49.96905,20.43028,PL,29184,775758,Bochnia,-2.75,-6.16,2.2,7.18,15.87,18.83,19.53,20.03,14.38,6.09,5.04,0.56
Biłgoraj,50.54114,22.72204,PL,26987,775922,Biłgoraj,-3.38,-6.54,1.28,6.92,16.39,18.23,19.88,19.98,14.5,6.1,5.52,0.57
Bielsk Podlaski,52.76512,23.18647,PL,26493,775986,Bielsk Podlaski,-4.56,-6.03,0.59,5.91,14.88,16.76,20.45,18.84,13.63,5.23,4.58,0.52
Bielany,52.29242,20.93531,PL,134854,776029,Bielany,-2.92,-5.25,1.84,6.79,15.7,18.09,20.44,19.47,14.64,5.88,5.56,1.33
Białystok,53.13333,23.16433,PL,291855,776069,Białystok,-4.72,-5.73,0.62,5.73,14.71,16.78,20.46,18.66,13.49,5.09,4.55,0.61
Białołeka,52.32127,20.97204,PL,129106,776103,Białołeka,-2.9,-5.26,1.83,6.77,15.74,18.13,20.54,19.55,14.62,5.9,5.6,1.36
Biała Podlaska,52.03238,23.11652,PL,57541,776175,Biała Podlaska,-3.97,-6.46,0.8,6.42,15.62,17.55,20.44,19.4,14.3,5.64,5.03,0.64
Bemowo,52.2546,20.90844,PL,102393,776251,Bemowo,-2.97,-5.3,1.79,6.74,15.65,18.04,20.39,19.42,14.59,5.83,5.51,1.28
Bartoszyce,54.25354,20.80819,PL,23482,776337,Bartoszyce,-3.6,-4.2,1.63,5.98,13.73,16.38,19.86,17.89,14.2,5.65,5.09,1.99
Augustów,53.84321,22.97979,PL,29752,776597,Augustów,-4.86,-5.77,0.43,5.29,13.93,16.34,20.42,18.35,13.31,4.86,4.22,0.79
Żywiec,49.68529,19.19243,PL,32132,3079855,Żywiec,-3.42,-5.98,2.17,6.39,15.16,18.13,18.29,19.25,13.69,5.74,5.28,-0.0
Żory,50.04523,18.70062,PL,63174,3080004,Żory,-2.75,-5.57,2.86,7.15,15.58,18.93,19.01,20.0,14.57,6.19,5.95,0.82
Złotów,53.36346,17.04082,PL,18395,3080071,Złotów,-2.29,-4.49,2.21,6.71,14.3,17.7,18.77,18.29,14.06,5.31,5.09,1.61
Złotoryja,51.12637,15.91979,PL,15564,3080074,Złotoryja,-2.08,-3.29,3.17,7.23,15.1,19.1,18.93,20.25,14.51,5.64,5.46,1.25
Zielona Góra,51.93548,15.50643,PL,118433,3080165,Zielona Góra,-1.43,-3.36,3.27,8.03,15.96,20.01,19.8,20.52,15.04,6.05,5.85,1.89
Zgorzelec,51.14942,15.00835,PL,33247,3080231,Zgorzelec,-1.46,-4.41,3.56,7.4,14.95,19.42,18.95,19.94,14.68,5.84,5.75,1.3
Zgierz,51.85561,19.40623,PL,58036,3080251,Zgierz,-2.76,-4.57,2.34,6.83,15.4,18.36,19.67,19.13,14.65,5.61,5.59,1.04
Zduńska Wola,51.59915,18.93974,PL,44515,3080414,Zduńska Wola,-2.45,-4.23,2.55,7.2,15.72,19.06,19.89,19.72,14.9,5.69,5.65,1.03
Zawiercie,50.48766,19.41679,PL,53159,3080526,Zawiercie,-2.86,-5.87,2.37,6.75,15.43,18.48,18.9,19.42,14.3,5.4,5.3,0.34
Żary,51.64205,15.13727,PL,38779,3080644,Żary,-1.51,-3.19,3.68,8.27,15.93,20.22,19.9,20.72,15.28,6.26,6.08,1.9
Zakopane,49.29899,19.94885,PL,27266,3080866,Zakopane,-6.7,-8.24,-0.65,3.55,13.25,15.82,15.88,16.99,11.08,2.98,2.08,-3.42
Żagań,51.61759,15.31486,PL,26251,3080944,Żagań,-1.37,-3.05,3.94,8.58,16.27,20.54,20.21,21.1,15.62,6.54,6.32,2.17
Zabrze,50.32492,18.78576,PL,192177,3080985,Zabrze,-2.67,-5.33,2.87,7.42,15.83,19.11,19.27,20.09,14.83,6.06,5.79,0.64
Ząbkowice Śląskie,50.58969,16.81239,PL,16321,3081046,Ząbkowice Śląskie,-2.52,-3.73,2.78,6.66,14.72,18.64,18.72,19.95,13.99,5.61,5.6,0.72
Września,52.32512,17.56519,PL,28703,3081324,Września,-1.89,-3.91,2.68,7.46,15.35,18.72,19.58,19.86,14.98,6.02,5.59,1.66
Wrocław,51.1,17.03333,PL,634893,3081368,Wrocław,-1.57,-2.44,3.65,8.21,16.16,20.06,20.08,21.31,15.36,6.54,6.29,1.83
Wodzisław Śląski,50.00377,18.47205,PL,49521,3081677,Wodzisław Śląski,-2.52,-4.95,2.99,7.2,15.64,19.15,19.23,20.32,14.78,6.29,6.13,0.97
Włocławek,52.64817,19.0678,PL,120339,3081741,Włocławek,-2.05,-3.71,2.7,7.31,15.58,18.38,20.01,19.34,15.05,6.25,5.78,1.67
Wieluń,51.22097,18.56964,PL,21892,3082197,Wieluń,-2.17,-4.32,2.84,7.46,15.89,19.42,20.0,20.35,15.13,5.95,5.95,1.17
Wejherowo,54.60568,18.23559,PL,46820,3082473,Wejherowo,-1.22,-2.97,2.35,5.73,13.25,16.36,18.97,17.86,14.53,6.49,5.88,2.98
Wałcz,53.27787,16.47122,PL,25971,3082704,Wałcz,-1.88,-4.29,2.4,6.93,14.47,18.05,18.85,18.66,14.33,5.5,5.23,1.76
Wałbrzych,50.77141,16.28432,PL,127431,3082707,Wałbrzych,-3.65,-5.63,1.82,5.75,13.75,17.69,17.73,19.09,13.15,4.44,4.54,-0.48
Wągrowiec,52.80842,17.19961,PL,24428,3082712,Wągrowiec,-1.66,-4.16,2.66,7.39,15.28,18.66,19.45,19.55,14.8,5.87,5.58,1.86
Wadowice,49.88335,19.49292,PL,19238,3082722,Wadowice,-2.87,-5.24,2.34,6.85,15.4,18.38,18.79,19.6,13.99,5.92,5.07,0.45
Ustroń,49.72153,18.80198,PL,15637,3082751,Ustroń,-3.51,-6.43,2.28,6.47,15.08,18.29,18.29,19.39,13.88,5.8,5.47,0.19
Ustka,54.58048,16.86194,PL,16250,3082756,Ustka,-0.22,-2.29,2.25,5.69,12.34,16.13,18.76,18.29,15.03,7.55,6.36,3.77
Tychy,50.13717,18.96641,PL,130000,3082914,Tychy,-2.91,-5.27,2.71,7.14,15.55,18.73,18.94,19.72,14.43,5.96,5.54,0.58
Turek,52.01548,18.50055,PL,29533,3082998,Turek,-2.08,-3.83,2.75,7.42,15.76,18.97,19.87,19.89,15.03,6.01,5.82,1.51
Trzebinia,50.15931,19.46966,PL,18828,3083111,Trzebinia,-3.0,-5.23,2.43,6.89,15.47,18.45,18.94,19.49,14.23,5.66,5.0,0.41
Trzcianka,53.04063,16.45629,PL,16914,3083185,Trzcianka,-1.65,-3.97,2.6,7.38,15.11,18.76,19.34,19.3,14.63,5.61,5.39,1.9
Toruń,53.01375,18.59814,PL,198613,3083271,Toruń,-2.35,-4.07,2.59,7.14,15.23,18.22,19.64,18.99,14.86,6.11,5.6,1.84
Tczew,54.09242,18.77787,PL,60133,3083426,Tczew,-2.6,-3.92,2.15,6.2,13.87,16.75,19.15,18.01,14.34,5.87,5.28,2.29
Tarnowskie Góry,50.44548,18.86147,PL,60938,3083440,Tarnowskie Góry,-2.82,-5.58,2.59,7.09,15.57,18.75,18.99,19.73,14.53,5.7,5.57,0.43
Szczecinek,53.70791,16.69937,PL,38496,3083826,Szczecinek,-2.33,-4.56,2.0,6.35,13.67,17.12,18.36,17.74,13.82,5.25,5.01,1.55
Szczecin,53.42894,14.55302,PL,407811,3083829,Szczecin,-0.84,-2.73,3.04,7.77,14.65,18.79,19.26,19.51,15.06,6.43,6.02,2.65
Szamotuły,52.61201,16.57794,PL,18588,3083878,Szamotuły,-1.39,-3.86,2.87,7.71,15.49,19.25,19.68,20.16,15.08,6.08,5.73,2.07
Świnoujście,53.91053,14.24712,PL,40919,3083955,Świnoujście,0.1,-1.71,3.09,7.12,13.78,17.59,18.8,19.12,15.61,7.81,6.64,3.59
Świętochłowice,50.29636,18.91726,PL,55600,3083988,Świętochłowice,-2.79,-5.4,2.71,7.24,15.68,18.9,19.11,19.88,14.65,5.88,5.61,0.5
Świebodzin,52.24751,15.53355,PL,21757,3084062,Świebodzin,-1.16,-3.14,3.41,8.31,16.17,20.17,20.05,20.77,15.36,6.37,6.02,2.23
Świecie,53.40953,18.44742,PL,25843,3084074,Świecie,-2.71,-4.21,2.44,6.92,14.84,17.73,19.37,18.48,14.59,5.87,5.41,1.94
Świebodzice,50.85974,16.31966,PL,23228,3084084,Świebodzice,-2.2,-4.1,3.06,7.14,15.09,19.02,19.02,20.45,14.49,5.69,5.75,0.89
Świdwin,53.77464,15.77671,PL,15725,3084085,Świdwin,-1.48,-3.85,2.53,6.82,13.94,17.53,18.55,18.15,14.24,5.68,5.5,2.12
Świdnica,50.84378,16.48859,PL,60351,3084093,Świdnica,-2.05,-3.82,3.18,7.39,15.29,19.26,19.29,20.7,14.68,5.9,5.87,1.06
Swarzędz,52.41289,17.08503,PL,29010,3084130,Swarzędz,-1.72,-4.0,2.73,7.57,15.41,18.94,19.57,19.97,14.98,6.02,5.56,1.79
Sulechów,52.08362,15.62513,PL,18055,3084241,Sulechów,-1.21,-3.23,3.42,8.29,16.18,20.17,20.02,20.8,15.33,6.35,6.01,2.17
Strzelce Opolskie,50.5107,18.30056,PL,20241,3084415,Strzelce Opolskie,-2.37,-4.87,3.04,7.55,15.99,19.65,19.62,20.73,15.13,6.09,6.17,1.05
Strzegom,50.96264,16.35006,PL,16106,3084440,Strzegom,-1.88,-3.27,3.24,7.42,15.35,19.27,19.29,20.7,14.73,5.94,5.97,1.29
Starogard Gdański,53.96396,18.52638,PL,48202,3084826,Starogard Gdański,-3.01,-4.41,2.04,6.03,13.82,16.71,18.82,17.61,13.97,5.46,4.96,1.92
Stargard,53.33672,15.0499,PL,71224,3084840,Stargard,-1.01,-3.08,2.89,7.76,14.64,18.73,19.2,19.42,14.94,6.26,5.86,2.43
Środa Wielkopolska,52.22843,17.27617,PL,21757,3085045,Środa Wielkopolska,-1.79,-3.74,2.84,7.71,15.53,19.11,19.68,20.15,15.11,6.12,5.69,1.78
Śrem,52.08868,17.01508,PL,30404,3085056,Śrem,-1.51,-3.4,3.11,7.97,15.72,19.51,19.89,20.58,15.29,6.35,5.88,2.02
Sosnowiec,50.28682,19.10385,PL,227295,3085128,Sosnowiec,-2.62,-5.12,2.84,7.36,15.84,18.96,19.26,19.94,14.75,5.99,5.65,0.65
Sopot,54.4418,18.56003,PL,37089,3085151,Sopot,-1.53,-2.95,2.42,6.03,13.61,16.72,19.29,18.22,14.71,6.46,5.65,2.79
Solec Kujawski,53.08371,18.22572,PL,15125,3085172,Solec Kujawski,-2.17,-4.05,2.72,7.29,15.27,18.33,19.61,19.08,14.92,6.15,5.65,2.01
Słupsk,54.46405,17.02872,PL,98608,3085450,Słupsk,-0.87,-3.0,2.21,5.94,12.74,16.36,18.69,17.91,14.6,6.84,6.05,3.29
Słubice,52.35088,14.56065,PL,17567,3085495,Słubice,-0.71,-2.09,3.66,8.46,15.88,20.07,20.22,20.87,15.59,6.66,6.31,2.53
Skawina,49.97524,19.82869,PL,23647,3085807,Skawina,-2.9,-5.55,2.33,7.08,15.65,18.62,19.18,19.95,14.24,5.95,4.77,0.35
Sierpc,52.8568,19.66913,PL,18866,3085941,Sierpc,-3.18,-4.68,2.08,6.61,14.88,17.42,19.6,18.63,14.49,5.67,5.21,1.28
Sieradz,51.59584,18.73023,PL,44436,3085978,Sieradz,-2.09,-3.84,2.81,7.51,15.95,19.36,20.15,20.09,15.17,5.96,5.87,1.32
Siemianowice Śląskie,50.32738,19.02901,PL,73121,3086024,Siemianowice Śląskie,-2.7,-5.25,2.76,7.27,15.74,18.91,19.17,19.89,14.68,5.91,5.63,0.58
Rypin,53.06603,19.40941,PL,16589,3086511,Rypin,-3.2,-4.67,2.11,6.57,14.69,17.27,19.38,18.41,14.47,5.71,5.33,1.49
Rydułtowy,50.05857,18.41703,PL,21887,3086531,Rydułtowy,-2.75,-4.99,2.75,7.06,15.53,19.2,19.21,20.26,14.66,5.97,5.85,0.62
Rybnik,50.09713,18.54179,PL,142510,3086586,Rybnik,-2.38,-4.76,3.12,7.44,15.91,19.49,19.5,20.49,15.0,6.34,6.21,1.01
Rumia,54.57092,18.38802,PL,44791,3086706,Rumia,-1.02,-2.6,2.31,5.63,12.94,16.2,18.99,18.03,14.72,6.77,5.94,3.09
Ruda Śląska,50.2584,18.85632,PL,146189,3086800,Ruda Śląska,-2.64,-5.25,2.86,7.39,15.83,19.05,19.26,20.03,14.8,6.03,5.76,0.66
Reda,54.60528,18.34717,PL,18116,3087281,Reda,-1.0,-2.68,2.47,5.81,13.25,16.4,19.1,18.05,14.73,6.73,6.02,3.14
Rawicz,51.60946,16.85852,PL,21380,3087307,Rawicz,-1.58,-2.95,3.33,8.23,16.11,19.99,20.1,21.16,15.32,6.38,5.98,1.87
Radzionków,50.40026,18.90232,PL,17167,3087418,Radzionków,-2.82,-5.58,2.59,7.09,15.57,18.75,18.99,19.73,14.53,5.7,5.57,0.43
Radomsko,51.06713,19.44477,PL,45353,3087497,Radomsko,-2.5,-5.41,2.48,7.03,15.75,19.08,19.87,19.81,14.78,5.65,5.71,0.79
Radlin,50.0502,18.47626,PL,17479,3087529,Radlin,-2.73,-5.1,2.77,7.09,15.55,19.14,19.15,20.14,14.64,5.99,5.85,0.66
Racibórz,50.09195,18.21928,PL,58464,3087584,Racibórz,-2.26,-4.2,3.25,7.49,15.9,19.57,19.66,20.75,15.18,6.48,6.35,1.12
Pyskowice,50.4,18.63333,PL,19018,3087628,Pyskowice,-2.44,-5.21,3.05,7.58,16.03,19.4,19.52,20.42,15.07,6.18,6.06,0.88
Pszczyna,49.98037,18.95382,PL,25288,3087705,Pszczyna,-3.05,-5.63,2.69,7.13,15.49,18.69,18.86,19.77,14.34,6.01,5.5,0.52
Pruszcz Gdański,54.26217,18.63625,PL,23618,3088034,Pruszcz Gdański,-1.83,-3.2,2.47,6.23,13.87,16.86,19.33,18.22,14.66,6.33,5.59,2.69
Prudnik,50.32124,17.57461,PL,23343,3088065,Prudnik,-2.82,-4.43,2.83,6.94,15.21,18.93,18.99,20.2,14.66,6.0,6.12,0.65
Poznań,52.40692,16.92993,PL,570352,3088171,Poznań,-1.44,-3.74,3.0,7.83,15.64,19.27,19.77,20.27,15.2,6.25,5.77,2.06
Polkowice,51.50391,16.07261,PL,21565,3088435,Polkowice,-1.8,-2.95,3.33,7.97,16.01,19.91,19.67,20.96,15.01,6.1,5.7,1.68
Police,53.55214,14.57182,PL,34350,3088461,Police,-0.59,-2.64,3.05,7.79,14.52,18.54,19.11,19.31,15.23,6.82,6.15,2.91
Płock,52.54682,19.70638,PL,127474,3088825,Płock,-2.66,-4.3,2.26,6.87,15.31,17.88,19.94,19.07,14.71,5.91,5.41,1.24
Pleszew,51.89636,17.78549,PL,17640,3088848,Pleszew,-1.93,-3.32,2.89,7.64,15.63,19.11,19.71,20.12,15.12,6.01,5.77,1.61
Piotrków Trybunalski,51.40547,19.70321,PL,80128,3088972,Piotrków Trybunalski,-2.68,-5.49,2.39,6.93,15.75,18.8,19.89,19.46,14.7,5.62,5.61,0.86
Piła,53.15145,16.73782,PL,75532,3089033,Piła,-1.66,-4.03,2.72,7.32,14.99,18.52,19.31,19.11,14.69,5.8,5.53,2.04
Piekary Śląskie,50.38017,18.92653,PL,59757,3089125,Piekary Śląskie,-2.76,-5.53,2.64,7.14,15.62,18.8,19.04,19.78,14.58,5.76,5.62,0.48
Pabianice,51.66446,19.35473,PL,70542,3089578,Pabianice,-2.61,-4.63,2.51,7.05,15.66,18.68,19.85,19.43,14.89,5.75,5.73,1.1
Ozorków,51.96336,19.29139,PL,20608,3089582,Ozorków,-2.44,-4.13,2.61,7.13,15.62,18.57,19.91,19.43,14.93,5.95,5.82,1.33
Oświęcim,50.03437,19.21037,PL,39057,3089658,Oświęcim,-3.04,-5.46,2.62,7.09,15.48,18.57,18.83,19.71,14.2,5.99,5.3,0.43
Ostrów Wielkopolski,51.65501,17.80686,PL,72898,3089684,Ostrów Wielkopolski,-1.88,-3.33,2.97,7.74,15.79,19.37,19.81,20.23,15.18,6.05,5.87,1.65
Ostróda,53.69671,19.96486,PL,33524,3089779,Ostróda,-3.85,-5.09,1.35,6.04,14.12,16.73,19.26,17.84,14.12,5.34,5.0,1.41
Orzesze,50.15595,18.77923,PL,18438,3089965,Orzesze,-2.86,-5.43,2.65,7.13,15.56,18.82,18.98,19.76,14.53,5.89,5.63,0.53
Opole,50.67211,17.92533,PL,127676,3090048,Opole,-2.08,-3.41,3.34,7.84,16.12,20.02,19.94,21.21,15.44,6.43,6.41,1.47
Olkusz,50.2813,19.56503,PL,37744,3090146,Olkusz,-3.11,-5.59,2.17,6.64,15.27,18.2,18.74,19.25,14.05,5.4,4.9,0.28
Oleśnica,51.21338,17.38986,PL,36956,3090170,Oleśnica,-1.93,-3.17,3.25,7.95,16.04,19.77,19.88,20.78,15.17,6.19,6.04,1.59
Oława,50.9466,17.2926,PL,33029,3090205,Oława,-1.59,-2.57,3.62,8.07,16.15,20.15,20.17,21.38,15.38,6.61,6.37,1.8
Oborniki,52.64739,16.81406,PL,17915,3090403,Oborniki,-1.41,-3.9,2.88,7.71,15.53,19.2,19.72,20.12,15.11,6.13,5.76,2.07
Nysa,50.47379,17.33437,PL,47283,3090436,Nysa,-2.13,-3.47,3.24,7.35,15.45,19.32,19.39,20.71,14.84,6.36,6.31,1.33
Nowy Tomyśl,52.3195,16.12844,PL,15179,3090452,Nowy Tomyśl,-1.26,-3.3,3.27,8.16,16.0,19.86,19.89,20.72,15.31,6.3,5.92,2.2
Nowogard,53.67437,15.1163,PL,16703,3090558,Nowogard,-1.03,-3.35,2.59,7.36,14.06,17.98,18.7,18.76,14.72,6.16,5.75,2.48
Nowa Sól,51.80333,15.71702,PL,40354,3090764,Nowa Sól,-1.06,-2.93,3.72,8.51,16.45,20.53,20.31,21.25,15.62,6.56,6.25,2.33
Nowa Ruda,50.58008,16.50164,PL,24753,3090768,Nowa Ruda,-3.57,-4.91,2.38,6.24,14.33,18.42,18.26,19.68,13.65,5.1,4.95,-0.18
Namysłów,51.07592,17.72284,PL,16376,3091141,Namysłów,-1.99,-3.43,3.2,7.89,16.11,19.92,19.97,20.82,15.22,6.17,6.09,1.51
Nakło nad Notecią,53.14214,17.60181,PL,19565,3091150,Nakło nad Notecią,-2.15,-4.3,2.51,7.15,14.97,18.12,19.27,18.91,14.58,5.72,5.38,1.74
Myszków,50.5752,19.32461,PL,33273,3091217,Myszków,-2.65,-5.58,2.55,6.93,15.64,18.84,19.23,19.71,14.55,5.59,5.56,0.56
Mysłowice,50.20745,19.16668,PL,74586,3091232,Mysłowice,-2.79,-5.0,2.8,7.34,15.8,18.88,19.22,19.9,14.64,6.04,5.48,0.65
Myślenice,49.83383,19.9383,PL,17686,3091256,Myślenice,-3.0,-5.59,2.0,6.57,15.17,18.14,18.66,19.4,13.73,5.65,4.6,0.17
Mikołów,50.17103,18.9041,PL,38821,3091831,Mikołów,-2.79,-5.27,2.69,7.16,15.61,18.81,19.02,19.77,14.53,5.9,5.62,0.6
Międzyrzecz,52.44461,15.57801,PL,18669,3091969,Międzyrzecz,-1.1,-3.14,3.42,8.29,16.15,20.06,20.01,20.73,15.43,6.41,6.09,2.39
Malbork,54.03591,19.0266,PL,38723,3092472,Malbork,-2.78,-4.02,2.04,6.21,13.99,16.83,19.25,18.05,14.45,5.93,5.45,2.31
Luboń,52.34705,16.89267,PL,26431,3092856,Luboń,-1.41,-3.47,3.13,7.94,15.71,19.36,19.79,20.34,15.23,6.32,5.88,2.1
Lubliniec,50.66897,18.6844,PL,23784,3092906,Lubliniec,-2.6,-5.19,2.68,7.21,15.8,19.37,19.46,20.28,14.86,5.77,5.83,0.72
Lubin,51.40089,16.20149,PL,77532,3092931,Lubin,-1.39,-2.23,3.71,8.27,16.34,20.25,20.03,21.41,15.31,6.51,6.14,2.04
Lubań,51.12014,15.28768,PL,22245,3093040,Lubań,-1.77,-4.74,3.35,7.21,14.92,19.18,18.81,19.88,14.47,5.64,5.66,0.98
Łowicz,52.10714,19.94525,PL,29809,3093066,Łowicz,-2.35,-4.51,2.67,7.11,15.7,18.37,20.24,19.39,14.94,6.16,5.96,1.51
Łódź,51.77058,19.47395,PL,768755,3093133,Łódź,-2.86,-4.87,2.24,6.69,15.35,18.28,19.57,19.02,14.53,5.47,5.51,0.91
Libiąż,50.10396,19.31568,PL,17834,3093457,Libiąż,-3.23,-5.44,2.41,6.91,15.34,18.41,18.76,19.51,14.1,5.68,4.93,0.2
Leszno,51.84034,16.57494,PL,63565,3093524,Leszno,-1.4,-2.99,3.34,8.11,15.98,19.93,20.03,21.14,15.27,6.41,5.98,2.0
Legnica,51.21006,16.1619,PL,106033,3093692,Legnica,-1.64,-2.55,3.49,7.89,15.84,19.8,19.71,21.18,15.08,6.31,6.03,1.73
Lędziny,50.14264,19.13149,PL,16305,3093708,Lędziny,-3.03,-5.3,2.63,7.09,15.5,18.63,18.89,19.66,14.33,5.9,5.34,0.44
Łęczyca,52.05959,19.19972,PL,15528,3093726,Łęczyca,-2.31,-3.91,2.63,7.13,15.57,18.47,19.89,19.43,14.92,6.03,5.82,1.4
Lębork,54.53921,17.75012,PL,35161,3093739,Lębork,-1.75,-3.85,2.29,6.1,13.58,16.74,18.92,17.68,14.31,6.14,5.75,2.74
Łaziska Górne,50.14952,18.84215,PL,21983,3093785,Łaziska Górne,-3.24,-5.84,2.3,6.66,15.12,18.39,18.51,19.33,14.08,5.58,5.35,0.29
Łask,51.59056,19.13278,PL,18577,3093902,Łask,-2.5,-4.29,2.63,7.21,15.79,19.03,19.93,19.66,14.96,5.76,5.78,1.1
Kwidzyn,53.72495,18.93114,PL,37601,3094086,Kwidzyn,-3.3,-4.6,1.97,6.28,14.17,16.96,19.1,17.96,14.34,5.66,5.28,1.89
Kutno,52.23064,19.36409,PL,48323,3094170,Kutno,-2.36,-3.99,2.52,7.01,15.43,18.21,19.88,19.25,14.82,6.0,5.74,1.37
Krotoszyn,51.69868,17.43738,PL,29231,3094625,Krotoszyn,-1.86,-3.42,2.97,7.8,15.72,19.37,19.71,20.37,15.13,6.06,5.81,1.66
Krapkowice,50.47515,17.96539,PL,18275,3094788,Krapkowice,-1.95,-3.7,3.48,7.81,16.09,19.85,19.92,21.17,15.43,6.52,6.64,1.55
Kraków,50.06143,19.93658,PL,755050,3094802,Kraków,-2.82,-5.66,2.43,7.22,15.85,18.78,19.44,20.1,14.55,6.06,4.83,0.44
Koszalin,54.19438,16.17222,PL,107450,3095049,Koszalin,-1.03,-3.21,2.33,6.46,13.25,16.93,18.64,18.04,14.54,6.52,5.86,2.96
Kostrzyn nad Odrą,52.58713,14.64953,PL,18099,3095057,Kostrzyn nad Odrą,-0.75,-2.07,3.55,8.42,15.78,19.91,20.08,20.67,15.46,6.51,6.16,2.51
Kościerzyna,54.12226,17.98119,PL,23361,3095126,Kościerzyna,-3.13,-4.99,1.35,5.69,13.21,16.25,18.21,17.07,13.47,5.12,4.58,1.49
Kościan,52.08829,16.64866,PL,24096,3095151,Kościan,-1.41,-3.31,3.18,8.07,15.82,19.73,19.92,20.81,15.29,6.38,5.87,2.06
Konstantynów Łódzki,51.74776,19.32564,PL,17415,3095277,Konstantynów Łódzki,-2.54,-4.45,2.59,7.16,15.74,18.84,19.93,19.56,14.98,5.81,5.78,1.15
Konin,52.22338,18.25121,PL,81258,3095321,Konin,-1.88,-3.85,2.91,7.64,15.84,19.03,19.96,20.01,15.22,6.22,5.89,1.71
Kołobrzeg,54.17565,15.58342,PL,44377,3095795,Kołobrzeg,-0.46,-2.52,2.58,6.55,13.25,17.01,18.81,18.44,14.94,6.98,6.13,3.32
Koło,52.20024,18.63865,PL,23493,3095797,Koło,-2.03,-3.99,2.78,7.46,15.74,18.8,19.89,19.78,15.06,6.15,5.84,1.57
Knurów,50.21971,18.65067,PL,39744,3095971,Knurów,-2.42,-5.01,3.12,7.6,16.01,19.35,19.47,20.31,15.02,6.35,6.11,0.96
Kluczbork,50.97281,18.21816,PL,25978,3096003,Kluczbork,-2.2,-4.08,3.05,7.66,15.99,19.74,19.92,20.68,15.23,6.02,6.09,1.26
Kłodzko,50.43488,16.66145,PL,26845,3096053,Kłodzko,-3.09,-4.26,2.83,6.78,14.81,18.87,18.73,20.08,14.14,5.61,5.46,0.37
Kęty,49.88214,19.22333,PL,19249,3096328,Kęty,-2.99,-5.77,2.42,6.87,15.35,18.4,18.67,19.57,14.07,5.99,5.4,0.34
Kędzierzyn-Koźle,50.34984,18.22606,PL,65636,3096372,Kędzierzyn-Koźle,-2.23,-4.37,3.32,7.68,16.13,19.85,19.86,21.05,15.34,6.45,6.41,1.19
Katowice,50.25841,19.02754,PL,317316,3096472,Katowice,-2.7,-5.25,2.76,7.27,15.74,18.91,19.17,19.89,14.68,5.91,5.63,0.58
Kartuzy,54.33424,18.19735,PL,15002,3096525,Kartuzy,-3.07,-4.86,1.4,5.17,12.87,15.74,18.02,16.73,13.25,4.93,4.59,1.56
Kamienna Góra,50.78314,16.03037,PL,21743,3096779,Kamienna Góra,-3.29,-5.36,2.25,6.04,14.14,18.04,17.92,19.39,13.57,4.71,4.86,-0.23
Kalisz,51.76109,18.09102,PL,108759,3096880,Kalisz,-1.87,-3.52,2.98,7.75,15.91,19.4,20.02,20.33,15.3,6.13,5.91,1.65
Jelenia Góra,50.89973,15.72899,PL,87310,3097257,Jelenia Góra,-2.77,-5.02,2.71,6.49,14.5,18.49,18.27,19.66,13.96,5.08,5.17,0.24
Jelcz,51.02102,17.32095,PL,15308,3097271,Jelcz,-1.65,-2.67,3.63,8.23,16.32,20.27,20.22,21.38,15.46,6.56,6.35,1.79
Jaworzno,50.20528,19.27498,PL,96541,3097333,Jaworzno,-3.14,-5.36,2.42,6.99,15.46,18.51,18.89,19.54,14.28,5.67,5.04,0.28
Jawor,51.05132,16.19347,PL,23865,3097367,Jawor,-1.92,-3.25,3.17,7.32,15.3,19.19,19.15,20.59,14.62,5.87,5.84,1.32
Jastrzębie Zdrój,49.95542,18.57479,PL,95813,3097391,Jastrzębie Zdrój,-2.58,-5.25,2.97,7.22,15.66,19.08,19.17,20.21,14.73,6.29,6.1,0.95
Jarocin,51.97266,17.50256,PL,25665,3097528,Jarocin,-1.85,-3.55,2.89,7.72,15.6,19.16,19.72,20.21,15.12,6.08,5.75,1.71
Inowrocław,52.79886,18.26387,PL,77597,3097872,Inowrocław,-2.18,-4.19,2.51,6.99,15.01,18.04,19.38,18.96,14.65,5.92,5.47,1.63
Iława,53.59601,19.56849,PL,32557,3097902,Iława,-4.07,-5.47,1.36,6.04,14.08,16.68,19.09,17.77,14.11,5.3,5.03,1.37
Gubin,51.94956,14.72837,PL,16629,3098130,Gubin,-0.8,-2.09,4.01,8.77,16.28,20.48,20.49,21.22,15.83,6.89,6.49,2.52
Gryfino,53.25243,14.48831,PL,21270,3098200,Gryfino,-0.7,-2.46,3.25,7.93,14.84,19.01,19.54,19.82,15.24,6.56,6.19,2.79
Gryfice,53.9165,15.20027,PL,16720,3098201,Gryfice,-0.75,-3.07,2.7,7.29,13.95,17.8,18.83,18.69,14.9,6.48,5.94,2.82
Grudziądz,53.48411,18.75366,PL,95045,3098218,Grudziądz,-2.99,-4.24,2.38,6.77,14.69,17.48,19.45,18.44,14.73,5.99,5.57,2.05
Gostynin,52.42938,19.46194,PL,18976,3098619,Gostynin,-2.24,-3.81,2.58,7.12,15.51,18.17,20.08,19.31,14.93,6.12,5.72,1.47
Gostyń,51.88247,17.01225,PL,20771,3098625,Gostyń,-1.53,-3.17,3.19,8.01,15.81,19.61,19.94,20.75,15.27,6.32,5.95,1.96
Gorzów Wielkopolski,52.73679,15.22878,PL,124430,3098722,Gorzów Wielkopolski,-0.96,-2.56,3.47,8.46,15.96,19.88,20.01,20.54,15.4,6.33,6.07,2.46
Goleniów,53.56392,14.82854,PL,22505,3098966,Goleniów,-0.74,-2.86,2.91,7.78,14.5,18.58,19.08,19.27,15.09,6.57,6.01,2.76
Gniezno,52.53481,17.58259,PL,70269,3099112,Gniezno,-1.89,-4.18,2.59,7.3,15.2,18.48,19.47,19.63,14.87,5.97,5.53,1.65
Głuchołazy,50.31505,17.38355,PL,15120,3099169,Głuchołazy,-2.66,-4.17,2.85,6.92,15.08,18.85,18.91,20.19,14.52,5.98,6.08,0.83
Głowno,51.96463,19.71565,PL,15103,3099180,Głowno,-2.54,-4.59,2.55,7.02,15.62,18.4,20.03,19.3,14.84,5.94,5.8,1.29
Głogów,51.66361,16.0845,PL,67317,3099213,Głogów,-1.36,-2.91,3.55,8.36,16.34,20.36,20.13,21.35,15.45,6.48,6.0,2.08
Gliwice,50.29761,18.67658,PL,198835,3099230,Gliwice,-2.39,-5.05,3.16,7.71,16.12,19.47,19.59,20.46,15.15,6.36,6.11,0.93
Gdynia,54.51889,18.53188,PL,244969,3099424,Gdynia,-0.95,-2.43,2.28,5.65,12.56,16.01,18.94,18.05,14.66,6.83,6.01,3.18
Gdańsk,54.35227,18.64912,PL,461865,3099434,Gdańsk,-1.48,-2.9,2.47,6.08,13.66,16.76,19.34,18.27,14.76,6.51,5.7,2.84
Fordon,53.14821,18.17036,PL,70000,3099654,Fordon,-2.17,-4.05,2.72,7.29,15.27,18.33,19.61,19.08,14.92,6.15,5.65,2.01
Elbląg,54.1522,19.40884,PL,127558,3099759,Elbląg,-2.07,-3.55,2.0,6.17,13.74,16.7,19.49,18.31,14.76,6.51,5.95,2.82
Dzierżoniów,50.7282,16.65141,PL,34168,3099828,Dzierżoniów,-2.07,-3.4,3.04,6.93,14.97,18.96,19.08,20.26,14.24,5.82,5.82,1.06
Dąbrowa Górnicza,50.33394,19.20479,PL,118285,3100796,Dąbrowa Górnicza,-2.73,-5.21,2.77,7.33,15.81,18.89,19.22,19.88,14.69,5.93,5.51,0.57
Częstochowa,50.79646,19.12409,PL,248125,3100946,Częstochowa,-2.55,-5.32,2.61,7.08,15.76,19.21,19.63,20.07,14.82,5.72,5.74,0.7
Czerwionka-Leszczyny,50.15007,18.67762,PL,28740,3100974,Czerwionka-Leszczyny,-2.52,-5.11,3.02,7.5,15.91,19.25,19.37,20.21,14.92,6.25,6.01,0.86
Czeladź,50.31542,19.07824,PL,34308,3101057,Czeladź,-2.77,-5.27,2.69,7.21,15.69,18.8,19.11,19.79,14.6,5.84,5.5,0.5
Czechowice-Dziedzice,49.91342,19.00479,PL,34703,3101076,Czechowice-Dziedzice,-2.84,-5.79,2.67,7.1,15.55,18.7,18.86,19.82,14.36,6.23,5.76,0.8
Cieszyn,49.75133,18.63213,PL,35586,3101321,Cieszyn,-3.08,-5.8,2.82,6.99,15.46,18.85,18.82,20.08,14.43,6.16,5.79,0.57
Chrzanów,50.13546,19.40203,PL,39973,3101547,Chrzanów,-3.1,-5.3,2.48,6.99,15.45,18.49,18.88,19.61,14.19,5.75,4.95,0.31
Choszczno,53.16905,15.42054,PL,15733,3101613,Choszczno,-1.17,-3.44,2.79,7.64,14.71,18.65,19.1,19.26,14.79,5.99,5.68,2.22
Chorzów,50.30582,18.9742,PL,113430,3101619,Chorzów,-3.0,-5.55,2.46,6.97,15.44,18.61,18.87,19.59,14.38,5.61,5.33,0.28
Chojnice,53.69554,17.55701,PL,39407,3101672,Chojnice,-3.03,-4.73,1.85,6.1,13.73,16.79,18.38,17.5,13.63,5.1,4.76,1.45
Chodzież,52.99505,16.9198,PL,19776,3101680,Chodzież,-1.56,-3.88,2.76,7.47,15.3,18.69,19.49,19.38,14.79,5.81,5.62,2.03
Chełmża,53.18463,18.60466,PL,15403,3101787,Chełmża,-2.73,-4.29,2.27,6.67,14.67,17.5,19.24,18.44,14.44,5.78,5.41,1.73
Chełmno,53.34855,18.4251,PL,20576,3101795,Chełmno,-2.77,-4.36,2.27,6.75,14.69,17.57,19.2,18.41,14.45,5.75,5.3,1.74
Bytów,54.17057,17.49187,PL,16724,3101943,Bytów,-2.73,-4.87,1.8,5.96,13.3,16.54,18.37,17.2,13.68,5.36,5.08,1.89
Bytom,50.34802,18.93282,PL,189186,3101950,Bytom,-2.84,-5.45,2.66,7.19,15.63,18.85,19.06,19.83,14.6,5.83,5.56,0.46
Bydgoszcz,53.1235,18.00762,PL,366452,3102014,Bydgoszcz,-2.07,-4.08,2.74,7.33,15.32,18.43,19.61,19.18,14.9,6.08,5.61,2.01
Brzeg,50.86079,17.4674,PL,38259,3102459,Brzeg,-1.75,-2.76,3.53,8.06,16.25,20.23,20.15,21.33,15.41,6.5,6.36,1.7
Brodnica,53.25967,19.39653,PL,27341,3102627,Brodnica,-3.42,-4.8,2.08,6.54,14.54,17.17,19.36,18.28,14.5,5.7,5.37,1.59
Braniewo,54.37971,19.81959,PL,18356,3102677,Braniewo,-2.69,-4.11,1.67,6.09,13.48,16.44,19.5,18.08,14.53,6.24,5.5,2.48
Bolesławiec,51.26418,15.5697,PL,40682,3102987,Bolesławiec,-1.84,-3.07,3.52,7.75,15.59,19.72,19.39,20.57,14.95,5.98,5.73,1.64
Boguszów-Gorce,50.75514,16.20494,PL,16726,3103034,Boguszów-Gorce,-4.2,-6.33,1.33,5.19,13.26,17.22,17.21,18.63,12.69,3.92,4.02,-1.1
Bogatynia,50.90747,14.95634,PL,17436,3103096,Bogatynia,-1.69,-5.04,3.52,7.27,14.86,19.37,18.83,19.85,14.63,5.69,5.58,0.94
Bieruń,50.09,19.09291,PL,19659,3103365,Bieruń,-2.93,-5.2,2.73,7.19,15.6,18.73,18.99,19.76,14.43,6.0,5.44,0.54
Bielsko-Biala,49.82245,19.04686,PL,176515,3103402,Bielsko-Biala,-3.22,-6.09,2.24,6.67,15.13,18.22,18.44,19.36,13.9,5.79,5.29,0.38
Bielawa,50.69075,16.623,PL,29971,3103476,Bielawa,-2.31,-3.77,2.88,6.99,14.91,18.9,19.02,20.26,14.24,5.64,5.58,0.83
Białogard,54.00696,15.98751,PL,24368,3103556,Białogard,-1.32,-3.57,2.43,6.8,13.74,17.4,18.76,18.15,14.48,6.1,5.71,2.53
Bełchatów,51.36883,19.35671,PL,62896,3103709,Bełchatów,-2.59,-5.07,2.45,7.02,15.72,18.9,19.86,19.58,14.79,5.64,5.66,0.89
Będzin,50.32607,19.12565,PL,58236,3103719,Będzin,-2.62,-5.12,2.84,7.36,15.84,18.96,19.26,19.94,14.75,5.99,5.65,0.65
Andrychów,49.85497,19.33834,PL,21954,3104115,Andrychów,-3.28,-5.93,2.04,6.51,15.01,18.03,18.36,19.22,13.69,5.64,4.98,0.05
Aleksandrów Łódzki,51.81965,19.30384,PL,20292,3104132,Aleksandrów Łódzki,-2.75,-4.53,2.39,6.92,15.5,18.56,19.7,19.25,14.72,5.61,5.61,1.01
Ursynów,52.15051,21.05041,PL,150668,6545326,Ursynów,-3.03,-5.39,1.75,6.68,15.71,18.09,20.46,19.53,14.55,5.81,5.57,1.25
Praga Północ,52.25443,21.03472,PL,93192,6545347,Praga Północ,-2.9,-5.26,1.83,6.77,15.74,18.13,20.54,19.55,14.62,5.9,5.6,1.36
Praga Południe,52.24424,21.08545,PL,179836,6545348,Praga Południe,-2.88,-5.23,1.9,6.83,15.86,18.24,20.61,19.68,14.7,5.96,5.72,1.4
Jelcz Laskowice,51.02134,17.31649,PL,15340,7303641,Jelcz Laskowice,-1.65,-2.67,3.63,8.23,16.32,20.27,20.22,21.38,15.46,6.56,6.35,1.79
Osiedle Kosmonautów,51.12753,16.96186,PL,19048,12047617,Osiedle Kosmonautów,-1.57,-2.44,3.65,8.21,16.16,20.06,20.08,21.31,15.36,6.54,6.29,1.83
Rejon placu Grunwaldzkiego,51.11669,17.06126,PL,27030,12047623,Rejon placu Grunwaldzkiego,-1.56,-2.44,3.69,8.29,16.24,20.11,20.14,21.31,15.42,6.58,6.34,1.87
Rejon ulicy Traugutta,51.10247,17.04827,PL,20617,12047628,Rejon ulicy Traugutta,-1.57,-2.44,3.65,8.21,16.16,20.06,20.08,21.31,15.36,6.54,6.29,1.83
Kozanów,51.14447,16.96937,PL,15901,12047636,Kozanów,-1.52,-2.4,3.7,8.26,16.2,20.11,20.13,21.37,15.4,6.59,6.34,1.88
Rejon placu Świętego Macieja,51.12056,17.03761,PL,44090,12047644,Rejon placu Świętego Macieja,-1.57,-2.44,3.65,8.21,16.16,20.06,20.08,21.31,15.36,6.54,6.29,1.83
Różanka-Polanka,51.14344,17.01987,PL,15746,12047651,Różanka-Polanka,-1.52,-2.4,3.7,8.26,16.2,20.11,20.13,21.37,15.4,6.59,6.34,1.88
