name,latitude,longitude,country,population,id,city,jan,feb,mar,apr,may,jun,jul,aug,sep,oct,nov,dec
Udomlya,57.87944,34.9925,RU,32373,452949,Udomlya,-6.76,0.31,0.61,6.71,9.65,13.72,16.53,15.55,8.4,4.36,-1.66,-4.58
Sosnovka,60.01667,30.35,RU,66227,461698,Sosnovka,-6.24,0.67,0.34,6.49,8.71,12.9,16.28,15.57,8.45,4.95,-1.16,-2.54
Sasovo,54.35369,41.91986,RU,29858,461699,Sasovo,-7.3,-1.02,1.62,8.41,11.01,15.1,18.33,16.4,10.35,5.33,-0.48,-5.69
Zyuzino,55.65608,37.56846,RU,121000,461740,Zyuzino,-6.85,-0.82,0.23,7.05,10.29,14.1,17.25,15.43,9.18,4.79,-0.41,-4.73
Zyablikovo,55.61667,37.76667,RU,129000,461835,Zyablikovo,-6.41,-0.39,1.07,7.43,10.65,14.44,17.62,15.81,9.58,5.15,-0.05,-4.42
Zverevo,48.02108,40.12282,RU,24978,461910,Zverevo,-3.83,-1.24,4.52,10.55,14.03,17.53,21.8,19.65,14.66,8.26,5.49,-1.7
Zvenigorod,55.73401,36.85918,RU,16395,461920,Zvenigorod,-6.03,-0.13,1.34,7.43,10.69,14.32,17.22,15.81,9.33,5.18,-0.03,-4.53
Zlatoust,55.17111,59.65083,RU,191366,462444,Zlatoust,-13.82,-8.94,-2.62,2.54,8.24,15.26,16.49,14.17,8.37,-0.18,-6.4,-10.78
Zimovniki,47.1474,42.4721,RU,17678,462522,Zimovniki,-2.95,0.08,5.9,11.65,15.1,19.38,24.59,21.56,16.99,10.0,7.29,-0.37
Zhulebino,55.7,37.85,RU,150000,462745,Zhulebino,-6.44,-0.37,1.21,7.49,10.73,14.5,17.71,15.88,9.6,5.12,-0.11,-4.4
Zhukovskiy,55.59528,38.12028,RU,97200,462755,Zhukovskiy,-6.45,-0.37,1.23,7.48,10.67,14.5,17.71,15.88,9.64,5.13,-0.09,-4.44
Zhukovka,53.53381,33.73075,RU,19690,462822,Zhukovka,-2.81,0.69,3.41,8.1,11.95,14.88,16.96,16.43,10.02,6.43,2.04,-4.34
Zhirnovsk,50.98448,44.77347,RU,17887,462984,Zhirnovsk,-7.38,-2.98,3.37,10.4,13.23,16.45,20.22,17.1,12.64,6.7,1.58,-5.36
Zhigulevsk,53.39972,49.49528,RU,57094,463082,Zhigulevsk,-9.71,-3.74,0.52,8.34,12.76,17.15,19.93,17.31,12.07,5.3,-0.78,-7.08
Zherdevka,51.84861,41.46056,RU,16019,463217,Zherdevka,-5.85,-0.69,3.54,10.06,12.97,16.21,19.7,17.21,11.82,6.8,1.82,-4.74
Zheleznovodsk,44.13944,43.01972,RU,24632,463340,Zheleznovodsk,-3.74,-1.07,4.3,8.93,12.97,17.47,20.75,18.42,15.56,9.2,6.34,-1.59
Zheleznogorsk,52.331,35.3711,RU,97900,463343,Zheleznogorsk,-3.43,0.06,3.56,8.44,12.1,15.03,17.64,16.61,10.47,6.68,2.31,-4.49
Zheleznodorozhnyy,55.744,38.01684,RU,141648,463355,Zheleznodorozhnyy,-6.49,-0.38,1.18,7.43,10.66,14.45,17.67,15.84,9.55,5.06,-0.18,-4.45
Zernograd,46.84518,40.30834,RU,29268,463637,Zernograd,-2.25,1.22,5.72,11.62,15.16,19.23,23.64,21.18,16.41,9.96,7.72,0.38
Zelenokumsk,44.40694,43.88056,RU,41306,463824,Zelenokumsk,-1.56,1.53,7.04,11.75,15.88,21.14,24.64,22.01,18.77,11.21,8.12,0.96
Zelenogradsk,54.95893,20.47668,RU,15644,463828,Zelenogradsk,2.94,5.27,5.86,8.3,12.5,16.62,16.98,17.99,12.19,9.47,5.47,0.78
Zelenograd,55.9825,37.18139,RU,215727,463829,Zelenograd,-6.52,-0.34,0.79,7.08,10.24,13.92,17.0,15.46,8.97,4.74,-0.68,-4.87
Zelenodolsk,55.84376,48.51784,RU,99600,463835,Zelenodolsk,-10.54,-3.24,-1.08,5.47,10.61,15.48,19.13,16.39,9.92,3.04,-3.41,-6.99
Zelenchukskaya,43.85804,41.5894,RU,21117,463885,Zelenchukskaya,-5.54,-3.53,0.06,5.43,10.87,14.63,17.87,15.66,12.97,7.75,3.66,-1.07
Zavolzh’ye,56.64051,43.39446,RU,42900,464101,Zavolzh’ye,-9.25,-1.55,-0.33,7.41,9.97,14.77,18.74,16.58,9.71,3.87,-2.5,-5.89
Zavety Il’icha,56.04284,37.85153,RU,20000,464176,Zavety Il’icha,-6.73,-0.41,0.83,7.34,10.52,14.3,17.51,15.72,9.31,4.82,-0.71,-4.94
Zarechnyy,53.20356,45.19227,RU,63579,464625,Zarechnyy,-9.04,-3.01,1.27,8.25,11.64,14.96,18.41,15.87,10.46,4.81,-1.1,-6.82
Zaraysk,54.7605,38.87841,RU,24637,464687,Zaraysk,-6.38,-0.48,1.52,7.79,10.84,14.73,17.92,16.2,9.99,5.34,0.11,-5.19
Zapolyarnyy,69.41541,30.81355,RU,17789,464790,Zapolyarnyy,-15.64,-4.11,-6.11,-0.01,2.13,8.52,12.29,11.38,5.96,0.16,-8.09,-5.54
Zamoskvorech’ye,55.73333,37.63333,RU,55000,465057,Zamoskvorech’ye,-6.4,-0.37,0.68,7.5,10.74,14.55,17.7,15.89,9.63,5.24,0.04,-4.28
Zainsk,55.3195,52.06942,RU,42044,465543,Zainsk,-11.35,-4.88,-0.72,5.71,11.03,16.58,19.52,16.38,10.28,2.84,-3.64,-8.17
Yur’yev-Pol’skiy,56.50339,39.67911,RU,19906,466215,Yur’yev-Pol’skiy,-7.83,-0.73,0.01,6.95,9.88,14.13,17.77,15.76,9.22,4.43,-1.48,-5.31
Yoshkar-Ola,56.63877,47.89078,RU,268272,466806,Yoshkar-Ola,-10.81,-2.87,-0.98,5.75,9.66,15.13,18.85,16.08,9.51,2.51,-3.86,-6.82
Yeysk,46.7055,38.2739,RU,87814,466885,Yeysk,0.41,2.29,6.41,12.1,16.06,20.32,24.33,22.16,17.27,11.05,8.36,1.53
Yessentukskaya,44.0328,42.8813,RU,19956,466989,Yessentukskaya,-3.94,-1.23,3.99,8.64,12.7,17.16,20.41,18.11,15.29,9.09,6.15,-1.67
Yessentuki,44.04444,42.86056,RU,81015,466990,Yessentuki,-3.79,-1.21,3.88,8.56,12.66,17.07,20.31,18.02,15.26,9.18,6.23,-1.54
Yershov,51.3513,48.2766,RU,23681,467120,Yershov,-9.58,-4.61,2.49,9.93,13.43,17.78,21.25,17.55,13.18,6.48,0.43,-5.64
Yemva,62.58999,50.85939,RU,16404,467525,Yemva,-17.38,-3.4,-2.84,1.91,4.34,13.22,18.92,14.72,5.86,-1.5,-9.84,-8.51
Yelizavetinskaya,45.04616,38.79491,RU,19306,467854,Yelizavetinskaya,1.41,3.39,6.86,12.0,15.67,20.45,24.64,21.57,17.74,11.46,9.58,2.71
Yelets,52.62366,38.50169,RU,115688,467978,Yelets,-5.19,-0.25,3.08,8.81,11.67,15.08,18.38,16.63,10.96,6.27,1.5,-4.77
Yelan’,50.949,43.73781,RU,15181,468063,Yelan’,-6.57,-1.97,3.63,10.69,13.41,16.76,20.64,17.55,12.8,7.15,2.17,-4.89
Yelabuga,55.76127,52.06493,RU,72643,468082,Yelabuga,-10.96,-4.67,-0.91,5.28,11.04,16.82,19.96,16.82,10.2,2.81,-3.9,-7.65
Yegor’yevsk,55.38283,39.03233,RU,85200,468250,Yegor’yevsk,-6.56,-0.32,1.21,7.74,10.8,14.72,17.99,16.17,9.87,5.21,-0.2,-4.95
Yegorlykskaya,46.56564,40.65621,RU,17978,468307,Yegorlykskaya,-1.98,1.41,5.81,11.69,15.23,19.38,23.93,21.27,16.72,10.09,7.95,0.57
Yefremov,53.14806,38.09924,RU,45497,468390,Yefremov,-5.64,-0.71,2.44,8.05,11.13,14.59,17.73,16.23,10.33,5.74,0.92,-5.49
Yasnyy,51.0333,59.8742,RU,17359,468657,Yasnyy,-13.92,-9.48,-1.21,5.97,12.92,20.37,19.51,17.46,12.37,3.39,-3.89,-9.83
Yasnogorsk,54.48082,37.69854,RU,18022,468671,Yasnogorsk,-6.45,-0.87,1.12,7.25,10.28,14.06,17.07,15.52,9.45,5.08,0.16,-5.58
Yasenevo,55.60686,37.51991,RU,180000,468809,Yasenevo,-6.57,-0.61,0.88,7.01,10.22,13.95,17.07,15.37,9.08,4.8,-0.39,-4.73
Yartsevo,55.06491,32.69693,RU,52706,468866,Yartsevo,-4.07,0.67,2.54,7.49,11.43,14.32,16.34,15.92,9.42,5.87,1.2,-4.22
Yaroslavl,57.62987,39.87368,RU,608722,468902,Yaroslavl,-8.95,-0.96,-0.47,6.75,9.39,14.26,17.61,15.9,8.84,3.85,-3.04,-5.53
Yaransk,57.30331,47.88611,RU,19557,469005,Yaransk,-11.7,-3.25,-1.67,4.42,8.62,14.59,18.29,15.71,8.83,1.71,-4.71,-6.78
Yanaul,56.2751,54.9338,RU,27963,469178,Yanaul,-11.35,-5.8,-1.22,3.89,9.96,17.14,19.69,16.75,9.82,1.94,-4.83,-8.6
Yagry,64.59417,39.81028,RU,40000,469707,Yagry,-14.4,-1.61,-3.19,1.5,3.85,10.19,16.6,13.46,6.4,1.03,-6.22,-5.24
Yablonovskiy,44.98901,38.94324,RU,33431,469844,Yablonovskiy,1.45,3.43,6.92,12.07,15.71,20.52,24.74,21.71,17.85,11.59,9.68,2.77
Vyshniy Volochëk,57.59125,34.56453,RU,53800,470252,Vyshniy Volochëk,-6.21,0.51,0.81,6.87,9.95,13.9,16.62,15.74,8.61,4.59,-1.09,-4.47
Vyselki,45.58128,39.66409,RU,18746,470338,Vyselki,0.39,2.6,6.48,12.08,15.56,20.27,24.44,21.43,17.28,10.99,9.03,1.83
Vyksa,55.3175,42.17444,RU,61664,470444,Vyksa,-7.79,-1.03,0.75,8.12,10.73,14.97,18.51,16.44,10.11,4.95,-1.06,-5.75
Vykhino-Zhulebino,55.70196,37.81178,RU,216000,470451,Vykhino-Zhulebino,-6.47,-0.42,0.92,7.48,10.71,14.52,17.7,15.86,9.6,5.14,-0.08,-4.4
Vyborg,60.70763,28.75283,RU,78633,470546,Vyborg,-6.63,0.25,-0.22,6.12,9.61,13.43,16.46,16.38,8.92,5.02,-1.38,-1.79
Vyazniki,56.24057,42.15563,RU,39243,470666,Vyazniki,-8.31,-0.94,0.29,7.51,10.05,14.63,18.4,16.38,9.76,4.43,-1.53,-5.84
Vyaz’ma,55.20997,34.29695,RU,55500,470676,Vyaz’ma,-5.06,0.13,1.8,7.09,10.66,13.8,16.2,15.53,9.11,5.31,0.59,-4.65
Vyatskiye Polyany,56.22602,51.06557,RU,39534,470734,Vyatskiye Polyany,-11.08,-4.28,-1.15,4.02,10.22,16.1,19.28,16.41,9.67,2.46,-4.5,-7.47
Vsevolozhsk,60.01512,30.67314,RU,48224,471101,Vsevolozhsk,-6.1,0.89,0.67,6.9,9.21,13.51,16.84,16.01,8.71,5.27,-1.13,-2.62
Votkinsk,57.04865,53.98717,RU,98633,471430,Votkinsk,-10.98,-4.97,-1.35,3.43,9.24,16.65,19.59,16.74,9.48,1.71,-4.92,-7.57
Vostryakovo,55.66667,37.45,RU,30000,471456,Vostryakovo,-6.61,-0.6,0.47,7.22,10.46,14.23,17.36,15.59,9.32,4.99,-0.21,-4.51
Vostryakovo,55.39934,37.80829,RU,16509,471457,Vostryakovo,-6.18,-0.26,1.4,7.56,10.72,14.48,17.62,15.91,9.66,5.26,0.08,-4.48
Voskresensk,55.31733,38.65264,RU,77086,471656,Voskresensk,-6.4,-0.31,1.41,7.73,10.87,14.74,17.97,16.16,9.97,5.33,0.02,-4.76
Voronezh,51.67204,39.1843,RU,1047549,472045,Voronezh,-5.04,0.04,3.66,9.32,12.28,15.59,19.04,16.87,11.49,6.73,2.24,-3.96
Altuf’yevskiy,55.88333,37.58333,RU,54000,472072,Altuf’yevskiy,-6.56,-0.42,0.97,7.27,10.51,14.25,17.41,15.64,9.3,4.88,-0.41,-4.64
Vorob’yovo,55.71667,37.53333,RU,30000,472079,Vorob’yovo,-6.61,-0.6,0.47,7.22,10.46,14.23,17.36,15.59,9.32,4.99,-0.21,-4.51
Volzhsky,48.78583,44.77973,RU,323293,472231,Volzhsky,-4.73,-2.24,5.3,11.93,14.92,18.65,23.2,20.3,15.77,9.1,4.65,-2.12
Volzhsk,55.86638,48.3594,RU,58000,472234,Volzhsk,-10.23,-2.86,-0.7,5.92,10.74,15.69,19.35,16.56,10.13,3.28,-3.16,-6.63
Vol’sk,52.04541,47.37993,RU,70500,472278,Vol’sk,-9.34,-4.21,2.37,9.52,13.29,17.03,20.51,17.3,12.44,6.39,0.06,-6.44
Volokolamsk,56.03361,35.96944,RU,25000,472433,Volokolamsk,-5.52,0.5,1.65,7.6,10.68,14.21,16.98,16.0,9.3,5.36,0.0,-4.19
Vologda,59.2239,39.88398,RU,312420,472459,Vologda,-10.55,-1.17,-1.69,5.98,8.32,13.88,16.94,15.51,7.74,2.52,-4.72,-5.1
Volkhov,59.9258,32.33819,RU,45673,472722,Volkhov,-6.89,0.78,0.35,7.04,9.24,14.17,17.11,15.89,8.41,5.05,-1.87,-3.41
Nagornyy,55.65,37.61667,RU,76000,472732,Nagornyy,-6.45,-0.47,1.0,7.23,10.46,14.21,17.36,15.6,9.34,5.01,-0.18,-4.54
Volgorechensk,57.43931,41.15553,RU,17700,472750,Volgorechensk,-9.22,-1.26,-0.58,6.73,9.24,14.25,18.05,16.06,8.93,3.63,-3.01,-5.82
Volgograd,48.71939,44.50183,RU,1013533,472757,Volgograd,-4.85,-2.4,5.1,11.59,14.63,18.33,22.87,20.07,15.6,8.9,4.55,-2.31
Volgodonsk,47.51361,42.15139,RU,167731,472761,Volgodonsk,-3.06,-0.3,5.63,11.85,15.36,19.37,24.33,21.63,16.97,10.03,7.0,-0.27
Novovladykino,55.85,37.58333,RU,50000,473127,Novovladykino,-6.41,-0.26,1.11,7.42,10.66,14.41,17.56,15.79,9.45,5.03,-0.26,-4.49
Vladimir,56.13655,40.39658,RU,357024,473247,Vladimir,-7.85,-0.92,0.08,7.16,10.02,14.27,18.0,15.9,9.35,4.45,-1.33,-5.84
Vladikavkaz,43.03667,44.66778,RU,306258,473249,Vladikavkaz,-4.54,-1.79,3.05,8.4,12.49,17.08,19.54,17.48,15.13,9.14,5.56,-0.95
Vidnoye,55.55239,37.70967,RU,51721,473778,Vidnoye,-6.45,-0.46,1.01,7.31,10.54,14.32,17.5,15.69,9.46,5.07,-0.12,-4.48
Vichuga,57.21276,41.93012,RU,39071,473788,Vichuga,-9.42,-1.48,-0.78,6.61,9.06,14.15,18.08,15.96,8.85,3.46,-3.12,-6.11
Veshnyaki,55.72393,37.81952,RU,122000,473972,Veshnyaki,-6.62,-0.57,0.77,7.32,10.56,14.37,17.55,15.71,9.45,4.99,-0.23,-4.55
Vereshchagino,58.07894,54.6557,RU,22451,475777,Vereshchagino,-12.71,-5.57,-2.46,2.4,7.29,15.4,18.04,15.6,7.74,-0.6,-6.45,-8.31
Venëv,54.35533,38.26843,RU,15700,475881,Venëv,-6.32,-0.67,1.67,7.64,10.71,14.48,17.68,16.01,9.93,5.4,0.34,-5.44
Vel’sk,61.07006,42.0983,RU,23126,475938,Vel’sk,-13.27,-1.48,-2.11,4.8,6.66,13.21,17.32,14.44,6.76,1.12,-7.13,-5.56
Velikiy Ustyug,60.76186,46.31352,RU,32642,476062,Velikiy Ustyug,-14.24,-1.92,-1.73,4.16,6.64,13.8,18.22,15.32,7.18,0.4,-7.26,-5.93
Velikiye Luki,56.34,30.54517,RU,103149,476077,Velikiye Luki,-3.12,1.87,3.04,7.86,11.55,14.87,16.35,15.88,9.51,6.17,1.41,-2.99
Vatutino,55.88441,37.69055,RU,50000,476368,Vatutino,-6.42,-0.25,1.14,7.47,10.7,14.44,17.61,15.85,9.48,5.05,-0.25,-4.49
Valuyki,50.2035,38.1067,RU,35887,477192,Valuyki,-3.05,0.75,5.01,10.73,13.57,16.4,20.33,18.22,13.3,8.01,4.3,-2.43
Valday,57.97826,33.24737,RU,18549,477301,Valday,-6.11,0.53,0.59,6.79,9.72,14.0,16.4,15.37,8.33,4.51,-1.15,-4.38
Vagonoremont,55.9,37.55,RU,50000,477377,Vagonoremont,-6.61,-0.46,0.91,7.22,10.46,14.21,17.36,15.59,9.25,4.83,-0.46,-4.69
Uzlovaya,53.98179,38.17118,RU,58458,477494,Uzlovaya,-6.31,-0.8,1.75,7.64,10.62,14.3,17.39,15.83,9.88,5.4,0.37,-5.65
Uvarovo,51.98486,42.26147,RU,28771,477626,Uvarovo,-6.49,-1.21,3.13,9.71,12.71,15.96,19.41,16.83,11.48,6.38,1.22,-5.42
Uva,56.99081,52.18517,RU,19143,477656,Uva,-11.22,-4.39,-1.25,3.97,9.31,15.92,19.09,16.33,9.2,1.56,-4.94,-7.39
Ust’-Labinsk,45.21077,39.68914,RU,44088,478044,Ust’-Labinsk,0.66,2.91,6.65,12.21,15.68,20.6,24.76,21.67,17.73,11.25,9.3,2.23
Ust’-Katav,54.9366,58.1757,RU,25046,478071,Ust’-Katav,-12.64,-7.63,-0.95,3.83,9.63,16.66,17.89,15.6,9.87,0.79,-5.19,-9.83
Ust’-Dzheguta,44.0834,41.9763,RU,34001,478130,Ust’-Dzheguta,-4.5,-2.18,2.77,8.64,12.71,16.99,20.42,18.21,15.07,9.09,6.06,-0.77
Usman’,52.04662,39.7288,RU,19910,478317,Usman’,-5.21,0.01,3.45,9.41,12.19,15.6,19.04,16.8,11.46,6.63,1.98,-4.21
Uryupinsk,50.8047,42.0138,RU,41644,478544,Uryupinsk,-5.52,-0.77,4.19,10.92,13.7,17.02,20.88,18.05,13.02,7.68,2.9,-4.31
Urus-Martan,43.13053,45.53791,RU,41480,478581,Urus-Martan,-3.16,-0.05,5.45,10.4,14.5,19.46,21.97,19.73,17.15,10.8,7.21,-0.36
Uritsk,59.83889,30.17528,RU,55037,478724,Uritsk,-5.67,1.23,0.89,6.9,9.35,13.4,16.48,15.68,8.48,5.28,-1.04,-2.5
Unecha,52.84294,32.68761,RU,29028,479028,Unecha,-2.17,1.0,4.0,8.28,12.19,14.97,16.95,16.57,10.16,6.72,2.68,-3.73
Ulyanovsk,54.32824,48.38657,RU,626540,479123,Ulyanovsk,-10.21,-3.68,-0.35,7.06,11.52,15.6,18.97,16.37,10.64,3.76,-2.18,-7.75
Ukhta,63.56705,53.68348,RU,102187,479411,Ukhta,-19.15,-5.14,-4.45,1.31,2.96,12.74,19.32,13.95,5.31,-2.02,-11.39,-10.47
Uglich,57.5275,38.33167,RU,37732,479532,Uglich,-7.87,-0.3,0.19,6.86,9.49,14.14,17.54,15.81,8.9,4.26,-2.28,-5.0
Ufa,54.74306,55.96779,RU,1120547,479561,Ufa,-12.75,-7.42,-0.74,5.18,11.01,17.3,19.22,16.54,10.79,2.42,-4.41,-9.43
Uchkeken,43.93778,42.51167,RU,15118,479687,Uchkeken,-4.88,-2.68,1.18,6.73,11.16,15.35,18.51,16.18,13.66,8.01,4.85,-2.48
Uchaly,54.35806,59.43611,RU,37788,479703,Uchaly,-15.04,-10.43,-2.71,2.9,9.06,15.94,16.8,14.26,8.95,0.36,-6.66,-12.78
Tyrnyauz,43.38278,42.91833,RU,20104,479933,Tyrnyauz,-6.82,-3.38,-0.0,4.34,9.25,13.89,17.13,15.05,12.7,7.32,2.36,-2.52
Tver,56.85836,35.90057,RU,420065,480060,Tver,-6.09,0.48,1.46,7.53,10.46,14.22,17.15,16.02,9.16,4.95,-0.59,-4.26
Tuymazy,54.60666,53.7097,RU,68829,480089,Tuymazy,-12.26,-5.92,-0.63,5.82,11.11,16.94,19.2,16.36,10.83,3.13,-3.34,-8.45
Tutayev,57.88529,39.5406,RU,43828,480122,Tutayev,-8.99,-0.81,-0.56,6.51,9.1,14.14,17.35,15.72,8.56,3.67,-3.12,-5.33
Tula,54.19609,37.61822,RU,482873,480562,Tula,-5.88,-0.47,1.95,7.92,10.91,14.62,17.59,16.17,10.09,5.68,0.8,-5.42
Tuchkovo,55.60111,36.46806,RU,16826,480685,Tuchkovo,-5.99,-0.21,1.23,7.18,10.42,14.07,16.83,15.62,9.11,5.05,-0.09,-4.62
Tuapse,44.1053,39.0802,RU,64234,480716,Tuapse,3.15,5.37,7.38,11.82,15.79,20.02,24.51,22.28,18.78,13.17,11.78,6.06
Tsimlyansk,47.64611,42.10194,RU,15341,480876,Tsimlyansk,-3.46,-1.06,4.67,11.61,15.32,19.18,24.02,21.44,16.73,9.64,6.43,-0.48
Trubchevsk,52.58031,33.76574,RU,16100,481350,Trubchevsk,-2.53,0.65,3.85,8.11,12.21,14.95,17.19,16.57,10.18,6.61,2.54,-4.13
Troparëvo,55.65625,37.48496,RU,118000,481453,Troparëvo,-6.71,-0.7,0.37,7.12,10.36,14.13,17.26,15.49,9.22,4.89,-0.31,-4.61
Troitskaya,43.30664,44.98395,RU,23745,481605,Troitskaya,-2.36,-0.05,5.69,10.6,14.59,19.91,22.9,20.45,17.61,10.71,7.14,-0.41
Troitsk,55.48498,37.30736,RU,37591,481608,Troitsk,-6.05,-0.18,1.41,7.49,10.69,14.38,17.39,15.83,9.5,5.25,0.04,-4.43
Tosno,59.54,30.8775,RU,40198,481964,Tosno,-5.84,1.34,1.14,7.33,9.84,14.23,16.96,15.6,8.41,5.31,-1.24,-3.05
Torzhok,57.0436,34.96221,RU,48546,481985,Torzhok,-5.69,0.74,1.43,7.27,10.29,13.91,16.67,15.95,8.89,4.97,-0.47,-4.16
Tomilino,55.65619,37.94713,RU,28310,482260,Tomilino,-6.39,-0.32,1.26,7.54,10.77,14.55,17.76,15.93,9.65,5.17,-0.06,-4.35
Tolyatti,53.5303,49.3461,RU,702879,482283,Tolyatti,-10.18,-4.26,-0.08,6.94,12.57,16.87,19.94,17.24,11.83,4.8,-1.31,-7.5
Timashyovsk,45.61694,38.94528,RU,53940,482965,Timashyovsk,0.88,2.92,6.67,12.14,15.71,20.46,24.44,21.57,17.42,11.29,9.09,2.04
Tikhvin,59.64511,33.52937,RU,62075,483019,Tikhvin,-7.53,0.58,-0.08,6.81,8.97,14.08,17.01,15.46,8.0,4.45,-2.65,-3.92
Tikhoretsk,45.85472,40.12528,RU,64387,483029,Tikhoretsk,-0.21,2.16,6.18,11.95,15.38,19.75,24.11,21.35,17.05,10.69,8.69,1.36
Teykovo,56.85796,40.53692,RU,36015,483137,Teykovo,-8.45,-0.88,-0.04,7.04,9.71,14.39,18.07,16.06,9.24,4.14,-2.21,-5.66
Terek,43.48333,44.13611,RU,21180,483495,Terek,-2.5,-0.05,6.17,11.26,15.14,19.68,22.57,20.42,17.28,10.56,7.04,-0.68
Tyoply Stan,55.62047,37.49338,RU,125000,483551,Tyoply Stan,-6.63,-0.66,0.83,6.96,10.18,13.9,17.02,15.32,9.03,4.74,-0.44,-4.78
Temryuk,45.27055,37.38716,RU,36546,483661,Temryuk,2.16,3.39,6.43,11.35,15.62,19.79,24.1,21.96,17.95,11.96,9.64,3.31
Tekstil’shchiki,55.70033,37.74271,RU,100000,483826,Tekstil’shchiki,-6.58,-0.54,0.48,7.39,10.62,14.48,17.63,15.79,9.55,5.09,-0.11,-4.45
Tbilisskaya,45.36333,40.19,RU,24446,483883,Tbilisskaya,0.25,2.55,6.4,12.08,15.55,20.23,24.6,21.36,17.6,10.96,9.02,1.76
Tambov,52.73169,41.44326,RU,293661,484646,Tambov,-6.23,-0.64,2.72,9.14,11.91,15.56,18.94,16.6,11.1,6.09,0.93,-5.33
Agidel’,55.9077,53.9355,RU,19217,484856,Agidel’,-11.08,-5.51,-1.15,5.1,10.67,17.11,19.89,16.81,10.12,2.4,-4.14,-8.3
Taganrog,47.23627,38.9053,RU,279056,484907,Taganrog,-0.89,1.37,6.09,12.0,15.81,19.55,23.54,21.58,16.68,10.43,7.63,0.86
Taganskiy,55.73333,37.66667,RU,116000,484912,Taganskiy,-6.53,-0.49,0.53,7.44,10.67,14.53,17.68,15.84,9.6,5.15,-0.06,-4.4
Syzran’,53.1585,48.4681,RU,189338,484972,Syzran’,-9.59,-3.64,1.31,8.8,12.94,16.89,19.98,17.19,11.98,5.58,-0.65,-7.35
Syktyvkar,61.664,50.815,RU,245083,485239,Syktyvkar,-16.94,-3.49,-2.74,2.19,5.04,13.56,18.62,15.15,6.09,-1.42,-9.04,-7.87
Svobody,44.02556,43.05028,RU,17661,485432,Svobody,-3.2,-0.6,5.03,9.62,13.61,18.2,21.49,19.14,16.19,9.66,6.79,-1.19
Sviblovo,55.85,37.63333,RU,60000,485630,Sviblovo,-6.41,-0.26,1.11,7.42,10.66,14.41,17.56,15.79,9.45,5.03,-0.26,-4.49
Svetogorsk,61.11213,28.86321,RU,15733,485639,Svetogorsk,-7.59,-0.07,-0.8,6.36,9.82,13.68,16.45,16.24,8.49,4.55,-2.45,-2.75
Svetlyy,54.67501,20.13473,RU,22119,485660,Svetlyy,3.12,5.29,5.91,8.46,12.6,16.58,16.94,17.98,12.35,9.71,5.63,0.94
Svetlograd,45.33528,42.85472,RU,39727,485698,Svetlograd,-1.45,1.51,6.6,11.94,15.24,20.51,25.0,21.78,18.06,10.86,8.49,0.83
Suvorovskaya,44.1901,42.6595,RU,17261,485871,Suvorovskaya,-3.05,-0.23,4.93,9.74,13.61,18.16,21.52,19.3,16.34,9.99,6.97,-0.65
Suvorov,54.1223,36.49657,RU,21059,485888,Suvorov,-5.34,-0.08,2.4,7.81,10.84,14.35,17.2,16.05,9.89,5.66,0.96,-5.0
Surovikino,48.60734,42.84621,RU,20677,486071,Surovikino,-4.32,-1.71,5.32,11.56,14.8,18.43,23.05,20.58,15.88,9.05,5.18,-1.56
Surkhakhi,43.1875,44.90194,RU,16215,486110,Surkhakhi,-4.09,-1.41,3.4,8.77,12.88,17.74,20.3,18.14,15.65,9.55,6.18,-1.11
Sukhinichi,54.09989,35.34254,RU,16100,486665,Sukhinichi,-4.6,0.2,2.5,7.6,10.96,14.26,16.8,15.92,9.75,5.83,1.21,-4.88
Stupino,54.90083,38.07083,RU,60999,486968,Stupino,-6.29,-0.54,1.4,7.54,10.68,14.53,17.63,15.92,9.75,5.25,0.12,-5.15
Strunino,56.37328,38.58321,RU,15483,487095,Strunino,-7.32,-0.49,0.34,6.98,10.05,14.04,17.47,15.59,9.08,4.44,-1.28,-5.31
Stroitel’,50.78816,36.47751,RU,18636,487147,Stroitel’,-3.39,0.24,4.07,9.4,12.42,15.11,18.62,16.88,11.47,6.95,3.13,-4.01
Strogino,55.81838,37.41224,RU,152000,487150,Strogino,-6.1,-0.08,1.37,7.64,10.89,14.58,17.66,15.98,9.62,5.3,0.06,-4.21
Sterlitamak,53.62462,55.95015,RU,267231,487495,Sterlitamak,-12.84,-7.89,-0.47,5.01,11.77,18.1,19.05,16.36,11.31,2.8,-3.75,-9.54
Stavropol’,45.0428,41.9734,RU,433931,487846,Stavropol’,-3.18,-0.13,4.17,9.59,13.0,17.69,21.87,19.01,15.89,9.13,6.72,-0.51
Staryy Oskol,51.29667,37.84167,RU,226977,487928,Staryy Oskol,-3.9,0.49,4.18,9.65,12.65,15.58,18.98,17.12,11.86,7.17,3.04,-3.57
Staroshcherbinovskaya,46.6268,38.6739,RU,18785,488635,Staroshcherbinovskaya,-0.07,2.22,6.46,12.04,15.84,20.1,24.13,21.95,17.04,10.88,8.35,1.29
Starominskaya,46.53,39.04972,RU,30461,488742,Starominskaya,-0.44,2.07,6.22,11.74,15.42,19.79,23.78,21.57,16.68,10.6,8.17,1.08
Starodub,52.58501,32.76314,RU,18539,488852,Starodub,-2.18,0.93,4.06,8.22,12.19,14.99,16.97,16.58,10.2,6.72,2.75,-3.83
Staraya Russa,57.99439,31.36081,RU,34303,489088,Staraya Russa,-4.2,2.08,2.22,8.19,11.27,15.37,17.3,16.1,9.36,5.92,0.35,-2.76
Staraya Kupavna,55.80799,38.1805,RU,22099,489162,Staraya Kupavna,-6.58,-0.35,1.08,7.47,10.66,14.48,17.74,15.89,9.58,5.04,-0.25,-4.45
Staraya Derevnya,59.98834,30.24296,RU,35000,489226,Staraya Derevnya,-5.79,0.7,0.32,6.28,8.7,12.7,16.1,15.58,8.7,5.09,-0.6,-2.11
Sovetsk,57.58475,48.95844,RU,17869,490067,Sovetsk,-11.69,-3.44,-1.54,3.8,8.57,15.02,18.49,15.96,8.96,1.41,-5.0,-6.73
Sovetsk,55.08392,21.87851,RU,43309,490068,Sovetsk,2.21,4.87,5.32,8.34,12.31,16.1,16.51,17.4,11.48,8.55,4.57,-0.28
Sosnovyy Bor,59.8996,29.08574,RU,68563,490172,Sosnovyy Bor,-5.0,1.07,0.68,5.75,8.15,11.76,15.59,15.81,9.06,5.33,-0.03,-1.55
Sosnovaya Polyana,59.83528,30.14667,RU,48271,490377,Sosnovaya Polyana,-5.51,1.26,0.9,6.85,9.29,13.31,16.36,15.63,8.47,5.29,-0.95,-2.42
Sosnogorsk,63.60229,53.88175,RU,29343,490391,Sosnogorsk,-19.34,-5.37,-4.67,1.15,2.85,12.67,19.27,13.87,5.19,-2.18,-11.53,-10.71
Sortavala,61.71233,30.70953,RU,20760,490466,Sortavala,-7.9,-0.28,-1.02,4.14,8.43,12.47,16.03,15.77,8.38,4.32,-2.58,-2.32
Sorochinsk,52.4338,53.1583,RU,30731,490554,Sorochinsk,-12.4,-7.1,-0.2,7.49,13.12,18.48,20.17,17.62,12.69,4.82,-1.39,-8.33
Solntsevo,55.63711,37.38115,RU,120000,490971,Solntsevo,-6.19,-0.25,1.25,7.35,10.55,14.27,17.34,15.7,9.39,5.14,-0.05,-4.4
Solnechnogorsk,56.18333,36.98333,RU,58891,490996,Solnechnogorsk,-6.39,-0.09,0.95,7.24,10.35,14.02,17.08,15.63,9.07,4.82,-0.66,-4.79
Sol’-Iletsk,51.1631,54.99176,RU,27419,491019,Sol’-Iletsk,-12.83,-8.1,0.12,8.55,13.72,20.29,20.81,18.03,13.7,5.13,-0.96,-7.38
Solikamsk,59.6316,56.7685,RU,100812,491023,Solikamsk,-14.26,-5.44,-2.55,2.24,6.16,15.95,18.91,16.2,7.56,-0.98,-7.64,-8.61
Sokol’niki,55.80202,37.67159,RU,57000,491250,Sokol’niki,-6.55,-0.47,0.97,7.35,10.6,14.35,17.52,15.73,9.4,4.97,-0.28,-4.53
Sokol,55.8,37.51667,RU,57000,491280,Sokol,-6.48,-0.44,0.77,7.39,10.64,14.4,17.51,15.75,9.44,5.05,-0.18,-4.46
Sokol,59.46167,40.12056,RU,42174,491281,Sokol,-10.91,-1.25,-1.82,5.84,8.12,13.82,16.95,15.42,7.56,2.3,-5.19,-5.05
Sofrino,56.15,37.93333,RU,15265,491352,Sofrino,-6.84,-0.44,0.72,7.28,10.42,14.2,17.41,15.65,9.2,4.7,-0.87,-5.05
Sochi,43.59917,39.72569,RU,327608,491422,Sochi,3.13,5.33,6.92,11.59,15.35,19.55,23.36,21.69,19.67,15.22,12.78,8.27
Sobinka,55.98553,40.01111,RU,20458,491480,Sobinka,-7.45,-0.66,0.47,7.39,10.4,14.54,18.18,16.08,9.61,4.72,-0.92,-5.56
Smolensk,54.77944,32.04371,RU,330025,491687,Smolensk,-3.65,0.58,2.52,7.25,11.42,14.21,16.0,15.67,9.23,5.75,1.25,-4.28
Slobodskoy,58.73222,50.17722,RU,32361,491882,Slobodskoy,-12.63,-3.47,-1.75,2.88,7.46,14.61,18.19,15.67,8.11,-0.17,-6.21,-6.79
Slobodka,55.86667,37.58333,RU,20000,491895,Slobodka,-6.51,-0.36,1.01,7.32,10.56,14.31,17.46,15.69,9.35,4.93,-0.36,-4.59
Slavyansk-na-Kubani,45.2558,38.1256,RU,65196,492094,Slavyansk-na-Kubani,1.51,3.34,6.84,12.11,16.03,20.66,24.83,21.81,17.53,11.48,9.24,2.44
Slantsy,59.11817,28.09137,RU,36209,492162,Slantsy,-4.17,1.77,1.34,7.62,10.51,14.73,16.42,16.07,9.21,5.97,-0.03,-1.99
Skopin,53.82486,39.55053,RU,24357,492376,Skopin,-5.95,-0.4,2.17,8.25,11.11,14.91,18.31,16.36,10.56,5.82,0.59,-5.15
Skhodnya,55.94806,37.29778,RU,18897,492448,Skhodnya,-6.48,-0.38,0.94,7.19,10.39,14.07,17.14,15.55,9.11,4.84,-0.47,-4.71
Sim,54.993,57.6982,RU,15632,492944,Sim,-12.38,-7.17,-0.47,4.03,10.01,17.21,18.67,16.23,10.27,1.39,-4.75,-9.41
Sibay,52.71806,58.66583,RU,61590,493160,Sibay,-14.15,-9.61,-1.33,4.33,11.61,18.15,18.59,15.71,10.74,2.07,-5.1,-10.67
Shuya,56.84865,41.38833,RU,60705,493231,Shuya,-8.69,-1.12,-0.19,7.01,9.61,14.42,18.23,16.14,9.27,4.02,-2.27,-5.96
Shushary,59.80917,30.38167,RU,15503,493316,Shushary,-5.89,1.21,0.93,7.01,9.45,13.58,16.69,15.77,8.49,5.28,-1.21,-2.63
Shumerlya,55.5005,46.41288,RU,35220,493463,Shumerlya,-9.76,-2.43,-0.1,7.52,10.63,15.08,18.76,16.13,10.29,3.74,-2.64,-6.32
Mikhaylovsk,45.12833,42.02556,RU,59198,493702,Mikhaylovsk,-2.29,0.73,5.03,10.51,13.89,18.66,22.94,19.93,16.77,9.95,7.72,0.33
Shilovo,54.3204,40.874,RU,16159,494427,Shilovo,-6.61,-0.45,1.93,8.47,11.2,15.19,18.46,16.53,10.56,5.6,0.04,-5.26
Sheksna,59.20998,38.51066,RU,21197,495062,Sheksna,-9.93,-0.88,-1.61,6.12,8.62,13.88,16.92,15.66,7.83,3.15,-4.32,-4.92
Shebekino,50.40967,36.9136,RU,45194,495112,Shebekino,-2.65,1.04,4.96,10.31,13.27,16.05,19.79,17.92,12.75,7.77,4.17,-2.99
Shchukino,55.8,37.45,RU,102000,495136,Shchukino,-6.43,-0.39,0.82,7.43,10.69,14.45,17.56,15.8,9.49,5.1,-0.13,-4.41
Shchigry,51.87555,36.90432,RU,19198,495206,Shchigry,-4.14,0.04,3.5,8.82,12.0,14.83,18.05,16.55,10.9,6.64,2.16,-4.47
Shcherbinka,55.49972,37.55972,RU,28065,495260,Shcherbinka,-6.25,-0.32,1.31,7.39,10.6,14.36,17.48,15.74,9.5,5.16,-0.01,-4.47
Shchelkovo,55.92497,37.97218,RU,113000,495344,Shchelkovo,-6.59,-0.35,1.03,7.48,10.66,14.45,17.67,15.87,9.47,4.96,-0.39,-4.64
Shchëkino,54.00513,37.52194,RU,60700,495394,Shchëkino,-6.11,-0.74,1.81,7.5,10.46,14.08,17.08,15.73,9.67,5.33,0.5,-5.71
Shatura,55.57253,39.53682,RU,30069,495518,Shatura,-6.82,-0.35,1.05,7.73,10.78,14.77,18.14,16.18,9.84,5.08,-0.39,-5.13
Shar’ya,58.36909,45.51558,RU,29800,495619,Shar’ya,-11.95,-2.39,-1.61,5.13,7.93,13.81,17.91,15.37,8.37,1.66,-5.2,-6.09
Shali,43.14806,45.90194,RU,25000,495957,Shali,-2.77,0.68,5.73,10.55,14.83,20.04,22.7,20.27,17.85,10.89,7.26,-0.17
Shakhun’ya,57.67579,46.61136,RU,22400,496012,Shakhun’ya,-11.86,-2.86,-1.59,4.79,8.23,14.2,17.96,15.56,8.57,1.69,-4.76,-6.44
Shakhty,47.70911,40.21443,RU,221312,496015,Shakhty,-3.15,-0.47,5.23,11.31,14.86,18.47,22.96,20.77,15.64,9.11,6.37,-0.88
Severskaya,44.85407,38.67686,RU,22849,496267,Severskaya,1.26,3.25,6.66,11.71,15.34,20.11,24.33,21.23,17.51,11.23,9.48,2.58
Severo-Zadonsk,54.03481,38.40172,RU,16569,496269,Severo-Zadonsk,-6.46,-0.95,1.66,7.59,10.56,14.27,17.39,15.81,9.85,5.31,0.23,-5.82
Severoural’sk,60.15328,59.95205,RU,33500,496275,Severoural’sk,-21.5,-9.74,-4.61,1.27,5.3,15.24,18.3,14.9,6.23,-2.78,-10.77,-13.18
Severomorsk,69.06889,33.41622,RU,53921,496278,Severomorsk,-15.62,-3.62,-5.08,1.02,2.35,7.9,11.97,11.32,5.91,0.23,-7.45,-5.64
Severodvinsk,64.5635,39.8302,RU,194292,496285,Severodvinsk,-14.4,-1.61,-3.19,1.5,3.85,10.19,16.6,13.46,6.4,1.03,-6.22,-5.24
Severnyy,55.93583,37.54889,RU,200000,496348,Severnyy,-6.67,-0.54,0.76,7.14,10.37,14.12,17.25,15.5,9.16,4.78,-0.51,-4.75
Setun’,55.71667,37.41667,RU,20000,496456,Setun’,-6.17,-0.18,1.12,7.52,10.74,14.47,17.55,15.88,9.55,5.27,0.06,-4.24
Sestroretsk,60.09801,29.96378,RU,37248,496478,Sestroretsk,-5.98,0.64,0.3,6.4,8.72,12.66,15.96,15.55,8.59,4.97,-0.78,-2.17
Sertolovo,60.1444,30.20165,RU,43622,496519,Sertolovo,-6.21,0.53,0.21,6.44,8.69,12.69,16.01,15.49,8.42,4.86,-1.1,-2.48
Serpukhov,54.91578,37.41114,RU,128158,496527,Serpukhov,-5.78,-0.16,1.79,7.72,10.87,14.68,17.61,16.04,9.9,5.57,0.61,-4.56
Sergiyev Posad,56.3,38.13333,RU,109252,496638,Sergiyev Posad,-7.18,-0.54,0.29,6.88,10.0,13.89,17.19,15.33,8.93,4.38,-1.3,-5.46
Sergach,55.53079,45.46611,RU,22361,496802,Sergach,-9.47,-2.36,-0.09,7.45,10.4,14.77,18.38,15.97,10.08,3.89,-2.36,-6.16
Serdobsk,52.45861,44.21689,RU,36652,496934,Serdobsk,-8.29,-2.7,2.13,8.87,12.1,15.23,18.61,16.12,10.83,5.46,-0.13,-6.29
Semiluki,51.6821,39.0302,RU,26257,497206,Semiluki,-4.56,0.45,4.02,9.67,12.63,15.87,19.31,17.21,11.81,7.13,2.62,-3.54
Semikarakorsk,47.51675,40.80577,RU,23583,497218,Semikarakorsk,-2.79,0.11,5.94,11.92,15.44,19.29,24.18,21.67,16.54,9.81,7.15,-0.2
Semënovskoye,55.68333,37.55,RU,50000,497271,Semënovskoye,-6.7,-0.67,0.38,7.2,10.44,14.25,17.4,15.59,9.33,4.94,-0.26,-4.58
Semënov,56.78749,44.49297,RU,24300,497450,Semënov,-10.1,-2.02,-0.8,6.82,9.32,14.37,18.29,16.04,9.34,3.11,-3.22,-6.06
Sel’tso,53.36831,34.10328,RU,18167,497610,Sel’tso,-2.85,0.74,3.47,8.21,12.0,15.02,17.18,16.51,10.13,6.49,2.12,-4.32
Segezha,63.74147,34.32218,RU,33354,497927,Segezha,-12.23,-1.73,-3.98,1.82,4.92,10.7,15.72,14.48,7.4,1.82,-6.32,-5.17
Satka,55.0425,59.04,RU,49384,498418,Satka,-12.89,-8.03,-1.69,3.23,9.07,16.17,17.31,15.02,9.22,0.21,-5.94,-10.4
Sarov,54.93583,43.32352,RU,88000,498525,Sarov,-8.24,-1.66,0.59,8.06,10.62,14.92,18.19,16.07,10.02,4.75,-1.72,-5.98
Saratov,51.54056,46.00861,RU,844858,498677,Saratov,-8.19,-3.26,3.21,9.79,13.37,16.81,20.44,17.42,12.71,6.76,0.96,-5.41
Sarapul,56.47633,53.79782,RU,98830,498687,Sarapul,-11.27,-5.45,-1.52,3.72,9.72,16.64,19.46,16.43,9.47,1.61,-5.19,-8.22
Saransk,54.1838,45.1749,RU,318841,498698,Saransk,-9.2,-2.71,0.6,8.0,11.17,14.92,18.38,15.81,10.25,4.15,-1.81,-6.84
Saraktash,51.78771,56.36091,RU,17413,498708,Saraktash,-13.37,-8.79,-0.42,5.92,13.18,19.92,19.91,17.38,12.87,4.08,-2.13,-8.15
Saint Petersburg,59.93863,30.31413,RU,5351935,498817,Saint Petersburg,-5.95,0.77,0.35,6.34,9.17,13.27,16.51,15.78,8.63,5.17,-0.94,-2.42
Samara,53.20007,50.15,RU,1163399,499099,Samara,-10.83,-5.02,0.08,8.09,12.6,16.94,19.54,16.82,11.63,4.78,-1.44,-8.27
Sal’sk,46.4747,41.54114,RU,61000,499161,Sal’sk,-1.7,1.49,6.38,12.11,15.59,19.97,24.84,21.96,17.49,10.58,8.27,0.74
Salavat,53.38365,55.90773,RU,159893,499292,Salavat,-13.13,-8.26,-0.64,4.95,11.87,18.13,19.01,16.34,11.41,2.96,-3.49,-9.75
Safonovo,55.11091,33.23728,RU,46000,499453,Safonovo,-4.34,0.55,2.2,7.22,11.06,14.09,16.29,15.74,9.3,5.71,1.04,-4.32
Rzhev,56.26241,34.32817,RU,62246,499717,Rzhev,-5.12,0.65,1.71,7.27,10.61,13.95,16.38,15.87,8.94,5.23,0.2,-4.16
Rybnoye,54.72774,39.51731,RU,19159,499975,Rybnoye,-6.26,-0.26,1.88,8.17,11.19,15.03,18.35,16.55,10.4,5.66,0.34,-4.96
Rybinsk,58.0446,38.84259,RU,216724,500004,Rybinsk,-8.48,-0.43,-0.26,6.81,9.41,14.41,17.67,16.07,8.8,4.07,-2.67,-4.81
Rybatskoye,59.8393,30.49873,RU,55076,500019,Rybatskoye,-5.92,1.23,0.98,7.11,9.54,13.7,16.81,15.85,8.54,5.32,-1.22,-2.69
Ryazhsk,53.7038,40.1109,RU,22041,500047,Ryazhsk,-5.95,-0.39,2.33,8.51,11.28,15.12,18.54,16.47,10.76,5.87,0.62,-5.07
Ryazan’,54.6269,39.6916,RU,538962,500096,Ryazan’,-6.3,-0.3,1.95,8.22,11.22,15.05,18.4,16.55,10.45,5.69,0.32,-5.07
Ruzayevka,54.06387,44.9509,RU,49311,500299,Ruzayevka,-9.34,-2.92,0.41,7.75,10.91,14.65,18.09,15.58,10.0,4.01,-1.97,-7.1
Rublëvo,55.78514,37.35481,RU,20000,500843,Rublëvo,-6.25,-0.23,1.22,7.49,10.73,14.43,17.51,15.83,9.47,5.15,-0.09,-4.37
Rtishchevo,52.26041,43.78745,RU,44013,500886,Rtishchevo,-8.1,-2.64,2.2,9.03,12.1,15.21,18.6,16.06,10.87,5.57,0.07,-6.31
Rostov-na-Donu,47.23135,39.72328,RU,1130305,501175,Rostov-na-Donu,-2.37,0.73,5.72,11.69,15.26,19.09,23.35,21.2,16.15,9.73,7.26,0.0
Rostov,57.1914,39.41394,RU,31039,501183,Rostov,-8.17,-0.63,0.01,6.89,9.7,14.26,17.79,15.96,9.18,4.26,-2.27,-5.37
Rostokino,55.83333,37.66667,RU,37000,501187,Rostokino,-6.45,-0.37,1.07,7.45,10.7,14.46,17.62,15.83,9.5,5.07,-0.18,-4.43
Rossosh’,51.1209,38.5116,RU,64323,501215,Rossosh’,-4.16,0.5,4.41,9.99,13.02,16.05,19.56,17.54,12.33,7.4,3.31,-3.3
Rossosh’,50.19828,39.56726,RU,62000,501231,Rossosh’,-4.03,0.14,4.73,10.81,13.94,16.7,20.67,18.23,13.39,7.96,4.06,-2.74
Roslavl’,53.95387,32.86409,RU,56971,501283,Roslavl’,-3.04,0.57,3.0,7.8,11.79,14.49,16.52,16.17,9.69,6.17,1.71,-4.27
Roshal’,55.66853,39.87488,RU,21951,501320,Roshal’,-7.05,-0.42,0.94,7.81,10.78,14.83,18.32,16.29,9.85,5.0,-0.53,-5.31
Rodniki,57.10513,41.73048,RU,27681,501730,Rodniki,-9.3,-1.47,-0.68,6.62,9.12,14.14,18.03,15.92,8.86,3.54,-3.0,-6.2
Revda,56.80097,59.93028,RU,61785,502011,Revda,-14.03,-7.47,-2.03,3.13,8.33,16.2,17.79,15.41,8.26,-0.07,-6.06,-9.72
Reutov,55.76111,37.8575,RU,78370,502018,Reutov,-6.56,-0.43,1.08,7.41,10.62,14.38,17.59,15.8,9.43,4.96,-0.32,-4.53
Razumnoye,50.53439,36.68462,RU,15529,502400,Razumnoye,-2.64,0.99,4.9,10.22,13.21,15.95,19.61,17.78,12.5,7.7,4.05,-3.16
Rayevskiy,54.0658,54.9468,RU,20060,502540,Rayevskiy,-12.54,-7.04,-0.45,6.16,11.78,17.51,19.31,16.56,11.36,3.29,-3.21,-8.7
Rasskazovo,52.66384,41.88915,RU,45957,502793,Rasskazovo,-6.62,-1.0,2.5,9.03,11.87,15.41,18.82,16.41,10.9,5.82,0.6,-5.54
Ramenskoye,55.56694,38.23028,RU,96000,502965,Ramenskoye,-6.37,-0.27,1.35,7.59,10.77,14.59,17.81,16.0,9.73,5.2,-0.03,-4.36
Ramenki,55.7,37.5,RU,130000,502971,Ramenki,-6.61,-0.6,0.47,7.22,10.46,14.23,17.36,15.59,9.32,4.99,-0.21,-4.51
Pyatigorsk,44.04861,43.05944,RU,142865,503550,Pyatigorsk,-3.42,-0.73,4.78,9.39,13.5,17.95,21.13,18.76,15.96,9.68,6.78,-1.2
Pushkino,56.01722,37.86667,RU,102816,503977,Pushkino,-6.67,-0.37,0.89,7.39,10.57,14.36,17.56,15.77,9.36,4.87,-0.66,-4.89
Pushkin,59.71417,30.39642,RU,92889,504003,Pushkin,-6.1,1.07,0.77,6.76,9.38,13.48,16.49,15.49,8.16,5.06,-1.58,-3.06
Pushchino,54.83373,37.61138,RU,20072,504042,Pushchino,-6.03,-0.4,1.52,7.54,10.62,14.4,17.37,15.83,9.68,5.34,0.35,-4.92
Pugachev,52.01333,48.8025,RU,41375,504250,Pugachev,-9.66,-4.32,2.05,9.76,13.63,17.98,21.08,17.57,12.94,6.47,0.18,-5.95
Pskov,57.8136,28.3496,RU,210501,504341,Pskov,-2.99,2.4,2.45,7.93,11.42,15.22,16.41,16.1,9.33,6.23,1.09,-2.4
Protvino,54.86821,37.21583,RU,37329,504576,Protvino,-5.69,-0.08,1.92,7.77,10.91,14.66,17.51,16.06,9.89,5.61,0.67,-4.49
Proletarsk,46.70289,41.72717,RU,19493,504831,Proletarsk,-2.07,0.95,6.33,12.1,15.65,19.9,24.67,21.88,17.41,10.43,8.0,0.46
Prokhladnyy,43.75741,44.0297,RU,60800,504935,Prokhladnyy,-2.33,0.58,6.56,11.42,15.53,20.4,23.45,21.01,17.81,10.75,7.47,-0.25
Priyutovo,53.9,53.93333,RU,20847,505014,Priyutovo,-13.62,-7.67,-1.59,4.33,10.69,16.23,18.22,15.55,10.27,2.3,-4.54,-9.74
Privolzhskiy,51.40944,46.04833,RU,31849,505057,Privolzhskiy,-8.06,-3.36,2.86,9.54,13.71,17.16,20.91,17.81,13.12,6.97,1.2,-5.26
Privolzhsk,57.38698,41.28666,RU,17864,505060,Privolzhsk,-9.33,-1.36,-0.71,6.65,9.16,14.2,18.03,16.02,8.87,3.56,-3.11,-5.94
Priozërsk,61.03928,30.12907,RU,18300,505230,Priozërsk,-7.13,-0.12,-0.93,4.4,8.71,12.5,16.24,16.47,9.33,5.26,-1.13,-1.98
Primorsko-Akhtarsk,46.04817,38.17929,RU,33102,505259,Primorsko-Akhtarsk,0.96,2.84,6.67,12.36,16.36,20.64,24.52,22.33,17.85,11.55,8.83,2.08
Pridonskoy,51.6826,39.0676,RU,16896,505421,Pridonskoy,-4.57,0.48,4.08,9.73,12.69,15.97,19.41,17.28,11.88,7.16,2.66,-3.52
Povorino,51.1945,42.2457,RU,18004,505806,Povorino,-5.9,-0.91,3.74,10.5,13.33,16.55,20.26,17.53,12.41,7.22,2.31,-4.71
Kotlovka,55.65928,37.60404,RU,64000,506043,Kotlovka,-6.75,-0.72,0.33,7.15,10.39,14.2,17.35,15.53,9.28,4.89,-0.31,-4.63
Annino,55.58333,37.6,RU,30000,506117,Annino,-6.45,-0.47,1.0,7.23,10.46,14.21,17.36,15.6,9.34,5.01,-0.18,-4.54
Polyarnyye Zori,67.36611,32.49806,RU,15092,506762,Polyarnyye Zori,-16.34,-3.2,-6.03,-0.66,3.02,8.76,13.38,11.96,5.72,-0.03,-8.63,-6.21
Polyarnyy,69.19889,33.44778,RU,17332,506763,Polyarnyy,-14.79,-3.28,-4.71,1.33,2.52,8.07,12.08,11.46,6.23,0.62,-6.86,-5.15
Pokrovskoye-Streshnëvo,55.80797,37.45814,RU,55000,507338,Pokrovskoye-Streshnëvo,-6.53,-0.49,0.72,7.33,10.59,14.35,17.46,15.7,9.39,5.0,-0.23,-4.51
Pokrov,55.91797,39.17242,RU,15867,507599,Pokrov,-7.05,-0.47,0.81,7.48,10.58,14.57,17.96,16.0,9.57,4.84,-0.66,-5.03
Pokhvistnevo,53.65237,52.12738,RU,28300,507624,Pokhvistnevo,-11.8,-5.46,-0.07,6.97,12.29,17.43,19.8,16.94,11.56,4.21,-2.1,-8.47
Podporozh’ye,60.91124,34.17064,RU,19600,508034,Podporozh’ye,-10.18,-0.34,-1.69,5.45,8.04,12.84,16.64,15.35,7.65,3.51,-4.48,-4.22
Podolsk,55.42419,37.55472,RU,179400,508101,Podolsk,-6.08,-0.21,1.48,7.6,10.78,14.54,17.63,15.94,9.67,5.33,0.16,-4.41
Pochep,52.9331,33.44702,RU,15100,508656,Pochep,-2.44,0.8,3.87,8.29,12.18,14.98,17.09,16.6,10.15,6.61,2.48,-4.09
Ryazanskiy,55.73333,37.76667,RU,101000,508751,Ryazanskiy,-6.57,-0.52,0.82,7.38,10.61,14.42,17.6,15.76,9.5,5.04,-0.18,-4.5
Plavsk,53.70944,37.29194,RU,16763,509052,Plavsk,-5.55,-0.43,2.39,8.07,11.06,14.53,17.51,16.27,10.18,5.8,1.0,-5.08
Pikalëvo,59.51833,34.16639,RU,22072,509598,Pikalëvo,-8.41,-0.11,-0.98,6.01,8.2,13.17,16.1,14.75,7.22,3.54,-3.64,-4.56
Petushki,55.92639,39.46104,RU,15866,509697,Petushki,-7.13,-0.48,0.77,7.56,10.57,14.6,18.06,16.08,9.61,4.83,-0.75,-5.17
Petrozavodsk,61.78491,34.34691,RU,279190,509820,Petrozavodsk,-10.64,-0.7,-2.27,4.0,7.27,11.74,16.17,15.08,7.61,3.02,-4.69,-4.35
Petrovskaya,55.55,37.78333,RU,30000,509981,Petrovskaya,-6.51,-0.49,0.97,7.33,10.55,14.34,17.52,15.71,9.48,5.05,-0.15,-4.52
Petrovsk,52.30639,45.39167,RU,33622,509987,Petrovsk,-8.86,-3.32,2.26,8.95,12.41,15.46,18.91,16.29,11.17,5.61,-0.36,-6.67
Petrodvorets,59.89565,29.80145,RU,61973,510225,Petrodvorets,-5.33,1.0,0.61,6.14,8.45,12.23,15.49,15.18,8.45,5.04,-0.42,-1.92
Peterhof,59.88333,29.9,RU,73199,510291,Peterhof,-5.42,0.97,0.6,6.19,8.5,12.33,15.53,15.16,8.38,5.0,-0.56,-2.07
Pestovo,58.59382,35.80244,RU,15910,510364,Pestovo,-7.74,0.16,0.23,6.55,9.04,13.65,16.58,15.42,7.84,3.97,-2.73,-4.38
Pervouralsk,56.90528,59.94361,RU,133600,510808,Pervouralsk,-14.39,-7.7,-2.33,2.93,8.03,15.97,17.59,15.19,7.95,-0.35,-6.35,-9.93
Perm,58.01046,56.25017,RU,982419,511196,Perm,-12.7,-5.81,-2.02,2.26,7.66,16.16,18.86,16.38,8.28,0.25,-6.03,-8.33
Pereslavl’-Zalesskiy,56.73934,38.85626,RU,40283,511359,Pereslavl’-Zalesskiy,-7.56,-0.44,0.24,6.9,9.86,14.01,17.53,15.68,9.09,4.4,-1.53,-5.34
Novo-Peredelkino,55.64528,37.33583,RU,115536,511510,Novo-Peredelkino,-6.04,-0.12,1.37,7.47,10.67,14.36,17.39,15.82,9.47,5.25,0.06,-4.32
Penza,53.20066,45.00464,RU,523553,511565,Penza,-8.74,-2.73,1.78,8.56,11.92,15.2,18.64,16.12,10.67,5.06,-0.76,-6.52
Pechora,65.14717,57.22439,RU,46113,511794,Pechora,-22.62,-8.85,-7.57,-0.68,0.46,12.79,19.79,12.88,4.39,-4.49,-15.45,-12.91
Pavlovskiy Posad,55.78187,38.65025,RU,60051,512023,Pavlovskiy Posad,-6.64,-0.27,1.12,7.58,10.73,14.63,17.94,16.02,9.71,5.08,-0.25,-4.46
Pavlovskaya,46.1377,39.7832,RU,31133,512051,Pavlovskaya,-0.18,2.25,6.28,11.96,15.44,19.79,23.96,21.47,17.02,10.77,8.68,1.42
Pavlovsk,59.68333,30.43472,RU,16087,512052,Pavlovsk,-5.9,1.27,0.97,6.96,9.58,13.68,16.69,15.69,8.36,5.26,-1.38,-2.86
Pavlovsk,50.45778,40.10806,RU,26565,512053,Pavlovsk,-4.55,-0.19,4.53,10.88,13.8,16.61,20.48,18.09,13.18,7.81,3.71,-3.01
Pashkovskiy,45.02366,39.10436,RU,43634,512382,Pashkovskiy,1.26,3.34,6.83,12.06,15.68,20.53,24.66,21.68,17.81,11.53,9.63,2.7
Pallasovka,50.05,46.88333,RU,17139,513042,Pallasovka,-7.14,-3.47,4.33,11.26,14.29,18.46,22.27,18.73,14.7,7.75,2.56,-3.96
Ozëry,54.85998,38.55062,RU,25900,513378,Ozëry,-6.15,-0.29,1.69,7.88,11.02,14.87,18.04,16.28,10.11,5.51,0.28,-5.01
Ozerki,60.03947,30.31128,RU,95000,513471,Ozerki,-6.05,0.73,0.42,6.5,8.69,12.8,16.18,15.55,8.53,5.0,-0.96,-2.38
Otradnyy,53.37596,51.3452,RU,50127,513883,Otradnyy,-11.16,-5.16,0.04,7.97,12.74,17.52,20.02,17.14,11.84,4.69,-1.56,-8.28
Otradnoye,55.86667,37.6,RU,18000,513896,Otradnoye,-6.41,-0.26,1.11,7.42,10.66,14.41,17.56,15.79,9.45,5.03,-0.26,-4.49
Otradnoye,59.7775,30.81806,RU,21397,513898,Otradnoye,-6.03,1.2,0.9,7.23,9.63,13.93,16.97,15.89,8.57,5.33,-1.29,-2.94
Otradnaya,44.39333,41.52056,RU,22985,513911,Otradnaya,-2.98,0.27,5.05,10.23,13.89,18.18,22.1,19.65,16.66,10.31,7.6,0.8
Ostrov,57.34395,28.35368,RU,24500,514171,Ostrov,-2.56,2.6,2.91,7.79,11.33,14.96,16.25,15.9,9.32,6.26,1.46,-2.54
Ostrogozhsk,50.8664,39.07561,RU,34403,514198,Ostrogozhsk,-4.36,0.33,4.3,10.02,13.04,16.07,19.71,17.52,12.39,7.43,3.35,-3.14
Ostashkov,57.14667,33.10753,RU,19563,514259,Ostashkov,-5.3,0.39,1.0,6.83,10.2,13.87,16.16,15.55,8.57,4.81,-0.36,-4.22
Ostankinskiy,55.82957,37.61604,RU,60000,514284,Ostankinskiy,-6.7,-0.64,0.51,7.23,10.48,14.27,17.41,15.62,9.31,4.88,-0.35,-4.63
Osa,57.283,55.4589,RU,23292,514706,Osa,-11.88,-5.83,-1.74,2.11,7.71,16.91,19.68,17.0,9.33,1.29,-5.44,-8.18
Orsk,51.20487,58.56685,RU,246836,514734,Orsk,-13.31,-8.94,-0.08,7.4,13.61,20.87,20.55,17.99,13.02,4.21,-2.48,-8.31
Orlovskiy,46.87139,42.05917,RU,19325,514796,Orlovskiy,-2.76,0.14,5.81,11.6,15.12,19.32,24.29,21.47,16.99,9.96,7.34,-0.23
Orenburg,51.7727,55.0988,RU,564773,515003,Orenburg,-13.05,-8.23,-0.18,7.67,13.38,19.87,20.15,17.68,13.14,4.64,-1.34,-7.71
Orël,52.96508,36.07849,RU,303696,515012,Orël,-4.13,0.13,3.33,8.32,11.84,15.08,17.78,16.65,10.62,6.47,1.9,-4.5
Orekhovo-Zuyevo,55.80672,38.96178,RU,120000,515024,Orekhovo-Zuyevo,-6.81,-0.36,1.06,7.58,10.73,14.67,18.01,16.05,9.72,5.01,-0.35,-4.74
Orekhovo-Borisovo Severnoye,55.61667,37.68333,RU,128000,515027,Orekhovo-Borisovo Severnoye,-6.3,-0.31,1.16,7.46,10.69,14.48,17.65,15.84,9.61,5.22,0.03,-4.34
Sunzha,43.3195,45.04911,RU,71841,515083,Sunzha,-2.21,0.09,5.84,10.75,14.74,20.06,23.05,20.6,17.76,10.86,7.29,-0.26
Onega,63.9057,38.09944,RU,22693,515246,Onega,-13.01,-1.16,-2.94,2.76,4.62,10.56,16.48,14.12,7.44,1.58,-5.88,-4.64
Omutninsk,58.67001,52.1932,RU,25364,515267,Omutninsk,-12.76,-4.39,-2.11,2.61,7.11,14.75,17.79,15.58,7.88,-0.78,-6.62,-7.57
Olenegorsk,68.1432,33.25287,RU,23670,515698,Olenegorsk,-17.21,-3.95,-6.29,-0.83,2.38,7.93,12.49,11.44,5.31,-0.45,-9.08,-6.78
Tsotsin-Yurt,43.24206,46.00013,RU,15970,515804,Tsotsin-Yurt,-1.48,1.54,6.27,11.05,15.45,20.94,23.71,21.03,18.82,11.64,7.97,0.61
Oktyabr’skiy,54.48147,53.47103,RU,108200,515879,Oktyabr’skiy,-12.24,-5.85,-0.55,5.75,11.11,16.86,19.16,16.34,10.82,3.2,-3.25,-8.43
Oktyabr’sk,53.16722,48.70056,RU,26306,515938,Oktyabr’sk,-9.63,-3.73,0.95,8.72,12.88,16.94,19.94,17.22,12.01,5.54,-0.62,-7.31
Odintsovo,55.67798,37.27773,RU,137041,516215,Odintsovo,-6.32,-0.35,1.12,7.27,10.48,14.17,17.21,15.62,9.24,4.99,-0.23,-4.53
Ochër,57.89035,54.72019,RU,15395,516256,Ochër,-12.19,-5.32,-2.05,2.71,7.88,15.93,18.62,16.07,8.31,0.19,-5.94,-7.98
Ochakovo-Matveyevskoye,55.68432,37.44654,RU,114000,516264,Ochakovo-Matveyevskoye,-6.32,-0.33,0.97,7.37,10.59,14.32,17.41,15.73,9.4,5.12,-0.09,-4.39
Obninsk,55.09681,36.61006,RU,107392,516436,Obninsk,-5.77,-0.19,1.69,7.4,10.62,14.27,17.0,15.8,9.51,5.34,0.44,-4.51
Nytva,57.9437,55.3396,RU,20525,516576,Nytva,-12.25,-5.48,-1.99,2.55,7.91,16.13,18.87,16.29,8.41,0.53,-5.78,-8.06
Nyandoma,61.6656,40.2013,RU,22179,516647,Nyandoma,-13.76,-1.77,-2.86,3.61,5.67,11.9,16.38,13.41,5.62,0.58,-7.57,-5.89
Nurlat,54.42766,50.80511,RU,34451,516716,Nurlat,-11.44,-4.97,-0.66,6.58,11.45,16.34,19.06,16.36,10.59,3.39,-2.67,-8.48
Novyy Oskol,50.76331,37.86415,RU,21035,516931,Novyy Oskol,-3.27,0.74,4.6,10.12,13.11,15.99,19.51,17.6,12.57,7.6,3.74,-3.07
Novyye Kuz’minki,55.7,37.75,RU,143000,517121,Novyye Kuz’minki,-6.47,-0.42,0.92,7.48,10.71,14.52,17.7,15.86,9.6,5.14,-0.08,-4.4
Novyye Cherëmushki,55.7,37.58333,RU,101000,517161,Novyye Cherëmushki,-6.6,-0.57,0.48,7.3,10.54,14.35,17.5,15.69,9.43,5.04,-0.16,-4.48
Novozybkov,52.53711,31.93659,RU,42571,517269,Novozybkov,-1.5,1.51,4.48,8.49,12.58,15.34,17.11,16.83,10.43,7.11,3.25,-3.13
Novovoronezh,51.30719,39.21732,RU,37392,517716,Novovoronezh,-4.51,0.4,4.16,9.9,12.91,16.05,19.63,17.4,12.08,7.3,2.98,-3.24
Novouzensk,50.45917,48.14306,RU,16932,517739,Novouzensk,-8.41,-4.23,3.95,10.8,14.32,18.91,22.51,18.7,14.55,7.43,1.74,-4.63
Novoul’yanovsk,54.14961,48.38907,RU,17139,517766,Novoul’yanovsk,-9.44,-2.94,0.6,8.07,12.24,16.24,19.51,16.9,11.31,4.52,-1.38,-7.06
Novotroitsk,51.20301,58.32665,RU,106186,517836,Novotroitsk,-13.49,-9.14,-0.3,7.11,13.4,20.47,20.31,17.74,12.91,4.07,-2.57,-8.31
Novotitarovskaya,45.23756,38.98059,RU,22630,517842,Novotitarovskaya,1.33,3.38,7.0,12.36,15.92,20.81,25.01,22.0,17.93,11.61,9.62,2.57
Novoshakhtinsk,47.76037,39.93335,RU,99478,517963,Novoshakhtinsk,-3.32,-0.68,4.94,11.05,14.59,18.1,22.44,20.27,15.2,8.78,6.05,-1.19
Novorossiysk,44.72439,37.76752,RU,241856,518255,Novorossiysk,3.1,4.61,7.06,11.5,15.59,19.78,24.83,22.51,18.65,12.92,11.1,5.23
Novopokrovskaya,45.95139,40.70056,RU,19342,518325,Novopokrovskaya,-0.5,2.2,6.4,12.29,15.61,19.96,24.55,21.67,17.44,10.77,8.82,1.3
Novopavlovsk,43.96222,43.63417,RU,24408,518383,Novopavlovsk,-2.79,0.23,6.27,10.75,14.9,19.67,22.83,20.34,17.24,10.35,7.4,-0.57
Novomoskovsk,54.0105,38.2846,RU,130982,518557,Novomoskovsk,-6.42,-0.9,1.68,7.58,10.56,14.26,17.36,15.79,9.84,5.33,0.27,-5.76
Novomichurinsk,54.0384,39.7479,RU,20821,518602,Novomichurinsk,-6.0,-0.31,2.17,8.3,11.17,15.01,18.4,16.52,10.63,5.87,0.59,-5.17
Novokuz’minki,55.71667,37.78333,RU,50000,518657,Novokuz’minki,-6.52,-0.47,0.87,7.42,10.66,14.47,17.65,15.81,9.55,5.09,-0.13,-4.45
Novokuybyshevsk,53.0959,49.9462,RU,111800,518659,Novokuybyshevsk,-10.68,-4.85,0.39,8.35,12.69,16.95,19.61,16.87,11.76,4.96,-1.25,-8.06
Novokubansk,45.117,41.0267,RU,36401,518682,Novokubansk,-0.07,2.4,6.37,12.17,15.48,20.0,24.65,21.71,18.32,11.28,9.08,1.92
Novokhovrino,55.86667,37.5,RU,50000,518740,Novokhovrino,-6.51,-0.39,0.91,7.29,10.53,14.27,17.4,15.65,9.31,4.93,-0.36,-4.6
Novogireyevo,55.75378,37.81885,RU,95000,518879,Novogireyevo,-6.54,-0.43,1.1,7.4,10.63,14.38,17.56,15.78,9.42,4.97,-0.29,-4.53
Novodvinsk,64.4165,40.8122,RU,42900,518909,Novodvinsk,-16.06,-1.79,-3.14,1.85,4.38,11.78,17.39,13.63,5.89,0.24,-7.95,-6.26
Novocherkassk,47.42096,40.09185,RU,166974,518970,Novocherkassk,-2.91,0.07,5.44,11.44,14.99,18.71,23.14,20.93,15.84,9.32,6.8,-0.44
Novocheboksarsk,56.11095,47.47755,RU,128468,518976,Novocheboksarsk,-10.62,-2.93,-1.1,6.07,10.04,14.99,18.94,16.15,9.7,3.02,-3.44,-6.87
Novoanninskiy,50.52891,42.6707,RU,19231,519062,Novoanninskiy,-5.76,-1.18,4.18,11.08,13.69,17.15,21.06,18.18,13.37,7.78,3.04,-4.28
Novoaleksandrovsk,45.4948,41.22075,RU,27610,519106,Novoaleksandrovsk,-0.15,2.39,6.45,12.26,15.51,20.11,24.72,21.66,18.06,11.05,9.01,1.61
Velikiy Novgorod,58.52131,31.27104,RU,222868,519336,Velikiy Novgorod,-4.99,1.47,1.75,8.09,11.07,15.42,17.37,15.95,9.01,5.63,-0.25,-3.02
Novaya Usman’,51.6301,39.4128,RU,22165,519447,Novaya Usman’,-4.75,0.38,4.08,9.86,12.77,16.05,19.53,17.32,11.96,7.17,2.69,-3.48
Novaya Derevnya,59.98748,30.28682,RU,20000,519711,Novaya Derevnya,-5.95,0.83,0.52,6.6,8.79,12.9,16.28,15.65,8.63,5.1,-0.86,-2.28
Noginsk,55.86647,38.4438,RU,115979,520068,Noginsk,-6.59,-0.25,1.13,7.66,10.77,14.65,17.91,16.07,9.64,5.05,-0.33,-4.51
Nizhnyaya Tura,58.6293,59.8118,RU,22600,520204,Nizhnyaya Tura,-17.94,-7.99,-2.8,2.3,6.94,16.01,18.36,15.86,7.34,-1.35,-7.37,-10.27
Nizhny Tagil,57.91944,59.965,RU,381116,520494,Nizhny Tagil,-15.94,-7.36,-2.25,2.79,7.82,16.36,18.42,16.01,7.91,-0.57,-6.29,-9.65
Nizhniy Novgorod,56.32867,44.00205,RU,1259013,520555,Nizhniy Novgorod,-9.53,-1.96,-0.67,7.21,9.66,14.4,18.3,16.13,9.5,3.62,-2.52,-6.35
Nizhniy Lomov,53.53041,43.67663,RU,23835,520574,Nizhniy Lomov,-8.23,-2.24,1.63,8.44,11.3,14.93,18.29,15.92,10.3,4.89,-0.92,-6.52
Nizhnekamsk,55.63657,51.82447,RU,234297,521118,Nizhnekamsk,-11.26,-4.81,-1.09,5.25,10.77,16.4,19.54,16.31,9.92,2.6,-3.97,-8.02
Nikulino,55.66943,37.46598,RU,30000,521416,Nikulino,-6.61,-0.6,0.47,7.22,10.46,14.23,17.36,15.59,9.32,4.99,-0.21,-4.51
Nikol’skoye,55.68333,37.48333,RU,50000,521500,Nikol’skoye,-6.57,-0.55,0.52,7.27,10.51,14.27,17.41,15.64,9.37,5.04,-0.16,-4.46
Nikol’skoye,59.70056,30.78472,RU,19280,521509,Nikol’skoye,-5.93,1.34,1.06,7.34,9.74,14.05,16.97,15.79,8.49,5.35,-1.32,-2.98
Nikol’sk,53.71886,46.07118,RU,24300,521776,Nikol’sk,-9.34,-2.95,0.49,7.72,11.31,14.86,18.37,15.58,10.31,4.22,-1.73,-7.01
Nikolayevsk,50.02824,45.45953,RU,16044,521874,Nikolayevsk,-5.99,-2.78,4.55,11.45,14.36,18.01,22.26,18.91,14.49,8.06,3.11,-3.79
Nikel,69.41285,30.22198,RU,15596,522260,Nikel,-15.66,-3.88,-6.11,0.19,2.68,9.13,12.85,11.95,6.43,0.58,-8.15,-5.34
Nezlobnaya,44.11806,43.40278,RU,18412,522301,Nezlobnaya,-2.29,0.54,6.45,10.93,14.99,19.75,23.02,20.55,17.46,10.64,7.76,-0.24
Nevinnomyssk,44.6333,41.9444,RU,134345,522377,Nevinnomyssk,-2.41,0.97,5.43,10.69,14.17,18.72,22.81,20.33,17.12,10.48,7.68,0.6
Nevel’,56.02094,29.92844,RU,17832,522410,Nevel’,-2.98,1.69,3.0,7.97,11.61,14.88,16.15,15.84,9.41,6.17,1.51,-3.25
Nesterovskaya,43.23861,45.05028,RU,19186,522470,Nesterovskaya,-3.25,-0.57,5.06,10.12,14.11,19.16,21.64,19.53,16.81,10.51,7.08,-0.46
Nerekhta,57.45881,40.57471,RU,25352,522594,Nerekhta,-8.87,-0.92,-0.22,6.86,9.38,14.32,17.92,16.04,8.99,3.86,-2.79,-5.45
Nelidovo,56.22107,32.77738,RU,25349,522775,Nelidovo,-4.75,0.67,1.72,7.34,10.83,14.06,16.1,15.53,8.9,5.29,0.37,-4.24
Neftekamsk,56.092,54.2661,RU,126805,522942,Neftekamsk,-11.13,-5.63,-1.26,4.37,10.28,17.09,19.76,16.73,9.95,2.19,-4.43,-8.4
Neftegorsk,52.802,51.166,RU,19542,522945,Neftegorsk,-11.25,-5.58,0.15,8.32,12.85,17.57,19.94,17.0,12.09,4.9,-1.27,-8.14
Nazran’,43.22597,44.77323,RU,164131,523064,Nazran’,-3.35,-0.96,4.66,9.62,13.64,18.69,21.39,19.16,16.44,10.03,6.57,-0.88
Nar'yan-Mar,67.63869,53.00371,RU,18041,523392,Nar'yan-Mar,-21.89,-8.06,-9.05,-2.87,-0.3,9.48,17.25,10.54,4.03,-3.69,-13.8,-12.14
Nartkala,43.5575,43.85083,RU,33390,523405,Nartkala,-3.18,-0.43,5.87,10.86,14.89,19.54,22.46,20.27,17.05,10.2,6.7,-1.11
Naro-Fominsk,55.38752,36.73307,RU,72632,523426,Naro-Fominsk,-5.68,0.04,1.63,7.51,10.75,14.44,17.23,15.93,9.55,5.43,0.32,-4.27
Nalchik,43.49806,43.61889,RU,239300,523523,Nalchik,-4.25,-1.11,3.4,8.68,13.36,17.64,20.44,18.33,15.46,9.31,5.47,-0.95
Nakhabino,55.84854,37.17789,RU,31715,523553,Nakhabino,-6.26,-0.26,1.19,7.35,10.61,14.26,17.28,15.72,9.29,5.04,-0.21,-4.53
Naberezhnyye Chelny,55.72545,52.41122,RU,509870,523750,Naberezhnyye Chelny,-11.04,-4.85,-1.0,5.13,10.88,16.7,19.72,16.64,10.11,2.67,-3.9,-7.81
Mytishchi,55.91163,37.73076,RU,160542,523812,Mytishchi,-6.51,-0.33,1.08,7.42,10.65,14.39,17.56,15.8,9.43,5.0,-0.32,-4.59
Murom,55.575,42.0426,RU,126931,524294,Murom,-8.04,-1.12,0.45,7.69,10.37,14.62,18.29,16.27,9.84,4.68,-1.24,-5.95
Murmansk,68.97917,33.09251,RU,295374,524305,Murmansk,-15.83,-3.17,-4.84,1.24,2.76,8.49,12.59,11.76,6.31,0.67,-7.29,-5.34
Mtsensk,53.27657,36.57334,RU,47609,524640,Mtsensk,-4.62,-0.05,2.97,8.24,11.44,14.83,17.62,16.46,10.45,6.23,1.57,-4.45
Mozhga,56.44469,52.22763,RU,47270,524699,Mozhga,-11.32,-4.9,-1.41,4.06,9.69,15.97,19.02,16.08,9.32,1.74,-4.96,-7.77
Mozhaysk,55.50194,36.02722,RU,31557,524712,Mozhaysk,-5.67,0.02,1.55,7.28,10.56,14.11,16.75,15.78,9.18,5.21,0.17,-4.53
Mozdok,43.74359,44.65177,RU,40823,524736,Mozdok,-1.34,1.66,7.25,12.03,16.12,21.33,24.48,21.81,18.81,11.57,8.35,0.7
Mostovskoy,44.41222,40.79361,RU,25188,524809,Mostovskoy,-2.62,-0.04,4.89,10.2,13.97,18.06,22.02,19.32,16.34,10.04,7.3,1.27
Moscow,55.75222,37.61556,RU,10381222,524901,Moscow,-6.45,-0.39,0.76,7.48,10.73,14.53,17.66,15.87,9.56,5.14,-0.1,-4.38
Morshansk,53.44354,41.81065,RU,43311,525138,Morshansk,-6.65,-0.76,2.36,8.94,11.53,15.18,18.65,16.42,10.89,5.72,0.19,-5.63
Morozovsk,48.35502,41.82627,RU,29289,525162,Morozovsk,-3.93,-1.3,5.32,11.45,14.61,18.3,22.79,20.58,15.71,9.0,5.59,-1.29
Monino,55.84244,38.19362,RU,19852,525396,Monino,-6.65,-0.42,1.0,7.37,10.56,14.38,17.64,15.79,9.48,4.94,-0.33,-4.51
Monchegorsk,67.93972,32.87389,RU,49868,525404,Monchegorsk,-16.91,-3.95,-6.55,-1.02,2.38,8.2,12.81,11.86,5.61,-0.38,-9.33,-6.97
Mineralnye Vody,44.21028,43.13528,RU,76280,526480,Mineralnye Vody,-1.76,1.03,6.36,10.94,14.86,19.64,23.13,20.7,17.7,10.77,7.84,0.17
Millerovo,48.92265,40.39673,RU,38527,526558,Millerovo,-3.84,-0.79,4.93,11.15,14.36,17.58,21.83,19.53,14.66,8.48,5.03,-1.74
Mikhaylovka,50.06,43.2379,RU,58898,527012,Mikhaylovka,-5.57,-1.58,4.42,11.28,13.99,17.33,21.4,18.5,13.85,8.06,3.35,-3.8
Mikhalkovo,55.68333,37.43333,RU,30000,527057,Mikhalkovo,-6.27,-0.28,1.02,7.42,10.64,14.37,17.45,15.78,9.45,5.17,-0.04,-4.34
Michurinsk,52.8978,40.4907,RU,93499,527191,Michurinsk,-5.97,-0.54,2.69,8.99,11.55,15.25,18.66,16.44,10.95,5.99,0.9,-5.23
Metallostroy,59.80083,30.54778,RU,26361,527361,Metallostroy,-5.92,1.23,0.98,7.11,9.54,13.7,16.81,15.85,8.54,5.32,-1.22,-2.69
Menzelinsk,55.72706,53.10258,RU,16858,527529,Menzelinsk,-10.99,-5.03,-1.01,5.34,10.85,16.89,19.73,16.78,10.2,2.63,-3.8,-7.84
Mendeleyevsk,55.90819,52.29047,RU,22969,527579,Mendeleyevsk,-11.15,-4.98,-1.27,4.43,10.61,16.56,19.64,16.58,9.9,2.48,-4.25,-7.81
Meleuz,52.96467,55.93277,RU,65362,527717,Meleuz,-13.39,-8.66,-0.7,4.66,12.19,18.53,19.09,16.46,11.64,3.18,-3.35,-9.84
Melenki,55.3343,41.6295,RU,15902,527740,Melenki,-7.5,-0.8,0.86,8.14,10.85,15.05,18.53,16.5,10.1,5.04,-0.91,-5.64
Medvezh’yegorsk,62.91713,34.45689,RU,16551,527888,Medvezh’yegorsk,-11.08,-0.82,-2.58,2.89,7.17,11.76,16.54,15.2,7.99,2.73,-5.2,-4.55
Medvedovskaya,45.45151,39.02485,RU,16941,527968,Medvedovskaya,0.99,3.04,6.77,12.2,15.74,20.54,24.56,21.62,17.51,11.36,9.25,2.18
Medvedevo,56.63388,47.80405,RU,16407,528056,Medvedevo,-10.86,-2.91,-1.05,5.85,9.54,14.98,18.74,15.96,9.37,2.44,-3.89,-6.8
Mednogorsk,51.4128,57.595,RU,30676,528109,Mednogorsk,-13.81,-9.39,-0.91,5.16,12.13,19.04,19.25,16.76,12.13,3.34,-3.08,-8.18
Maykop,44.60778,40.10583,RU,141970,528293,Maykop,-0.05,2.55,6.22,11.65,15.04,19.79,24.06,21.42,17.87,11.26,9.23,2.46
Matveyevskoye,55.71112,37.47502,RU,30000,528454,Matveyevskoye,-6.47,-0.45,0.62,7.37,10.61,14.37,17.51,15.74,9.47,5.14,-0.06,-4.36
Marks,51.71111,46.74861,RU,32929,529073,Marks,-8.63,-3.64,3.24,10.16,13.79,17.3,20.79,17.73,13.05,6.96,0.87,-5.6
Mar’ino,55.65,37.71667,RU,243000,529237,Mar’ino,-6.15,-0.16,1.31,7.61,10.84,14.62,17.8,15.99,9.76,5.37,0.18,-4.18
Manturovo,58.32889,44.76406,RU,18817,529505,Manturovo,-11.7,-2.26,-1.55,5.49,8.1,13.79,17.89,15.49,8.48,1.86,-4.89,-5.98
Yaroslavskiy,55.88333,37.71667,RU,91000,530088,Yaroslavskiy,-6.42,-0.25,1.14,7.47,10.7,14.44,17.61,15.85,9.48,5.05,-0.25,-4.49
Maloyaroslavets,55.01457,36.47185,RU,32669,530849,Maloyaroslavets,-5.74,-0.22,1.73,7.35,10.55,14.14,16.86,15.75,9.47,5.31,0.5,-4.55
Malgobek,43.51118,44.58821,RU,43400,531129,Malgobek,-1.94,0.49,6.12,10.96,14.91,19.98,22.88,20.51,17.65,10.91,7.49,-0.04
Malakhovka,55.64776,38.02486,RU,18399,531820,Malakhovka,-6.37,-0.32,1.3,7.51,10.73,14.53,17.73,15.9,9.67,5.18,-0.03,-4.39
Makhachkala,42.97638,47.50236,RU,596356,532096,Makhachkala,0.8,3.2,6.11,10.82,16.11,21.75,24.62,22.62,20.42,13.69,10.33,4.24
Magnitogorsk,53.41861,59.04722,RU,413351,532288,Magnitogorsk,-14.73,-9.93,-1.53,4.13,11.18,17.93,18.34,15.57,10.46,1.84,-4.9,-11.67
Lyudinovo,53.86639,34.44778,RU,41392,532459,Lyudinovo,-3.65,0.54,2.95,7.84,11.53,14.72,16.93,16.17,9.89,6.18,1.64,-4.63
Lyublino,55.67738,37.76005,RU,172000,532535,Lyublino,-6.47,-0.42,0.92,7.48,10.71,14.52,17.7,15.86,9.6,5.14,-0.08,-4.4
Lyubertsy,55.67719,37.89322,RU,154650,532615,Lyubertsy,-6.44,-0.37,1.21,7.49,10.73,14.5,17.71,15.88,9.6,5.12,-0.11,-4.4
Lytkarino,55.58271,37.90516,RU,50619,532657,Lytkarino,-6.5,-0.46,1.11,7.36,10.57,14.35,17.54,15.74,9.48,5.03,-0.18,-4.53
Lys’va,58.10861,57.80528,RU,68660,532675,Lys’va,-14.08,-6.21,-1.93,2.41,6.55,16.06,18.4,16.09,7.81,-0.38,-6.24,-8.86
Lyskovo,56.03282,45.0422,RU,23570,532715,Lyskovo,-9.23,-1.84,-0.1,7.61,10.17,14.75,18.61,16.35,10.01,3.89,-2.43,-5.92
Luzhniki,55.71599,37.55376,RU,30000,533067,Luzhniki,-6.59,-0.55,0.51,7.35,10.59,14.4,17.55,15.73,9.48,5.09,-0.13,-4.48
Lukhovitsy,54.97661,39.0444,RU,32387,533543,Lukhovitsy,-6.23,-0.25,1.69,8.01,11.12,14.96,18.18,16.42,10.18,5.5,0.18,-4.98
Luga,58.73722,29.84528,RU,40114,533690,Luga,-4.65,1.73,1.57,7.63,10.67,14.78,16.56,15.65,8.72,5.75,-0.31,-2.74
Losino-Petrovskiy,55.86959,38.20065,RU,22116,534015,Losino-Petrovskiy,-6.64,-0.35,1.03,7.52,10.69,14.53,17.77,15.94,9.52,4.97,-0.42,-4.64
Lomonosov,59.90612,29.77253,RU,42505,534341,Lomonosov,-5.38,0.95,0.56,6.09,8.4,12.18,15.44,15.13,8.4,4.99,-0.47,-1.97
Lodeynoye Pole,60.726,33.55306,RU,22164,534560,Lodeynoye Pole,-9.39,0.06,-1.34,5.88,8.4,13.39,16.94,15.76,8.05,4.15,-3.62,-3.86
Lobnya,56.00972,37.48194,RU,61772,534595,Lobnya,-6.62,-0.4,0.84,7.22,10.39,14.11,17.24,15.57,9.14,4.77,-0.61,-4.83
Livny,52.42534,37.60689,RU,46779,534701,Livny,-4.9,-0.16,3.22,8.64,11.69,14.87,18.06,16.51,10.8,6.42,1.75,-4.79
Liski,50.98405,39.51545,RU,55939,534838,Liski,-4.53,0.27,4.25,10.12,13.1,16.18,19.86,17.55,12.36,7.43,3.26,-3.18
Lipetsk,52.60311,39.57076,RU,509735,535121,Lipetsk,-5.53,-0.3,3.06,9.0,11.73,15.32,18.71,16.64,11.11,6.2,1.31,-4.78
Likino-Dulevo,55.7083,38.9542,RU,31100,535243,Likino-Dulevo,-6.77,-0.38,1.07,7.67,10.75,14.67,18.0,16.09,9.73,5.01,-0.33,-4.84
Likhobory,55.85,37.56667,RU,50000,535270,Likhobory,-6.36,-0.22,1.17,7.47,10.71,14.45,17.61,15.84,9.5,5.08,-0.21,-4.44
Lianozovo,55.89783,37.5868,RU,86000,535330,Lianozovo,-6.56,-0.42,0.97,7.27,10.51,14.25,17.41,15.64,9.3,4.88,-0.41,-4.64
L’govskiy,51.63069,35.2775,RU,23500,535334,L’govskiy,-2.81,0.61,4.24,9.21,12.73,15.35,18.27,17.07,11.1,7.21,3.28,-3.63
Komendantsky aerodrom,60.00448,30.27523,RU,84052,535729,Komendantsky aerodrom,-5.95,0.83,0.52,6.6,8.79,12.9,16.28,15.65,8.63,5.1,-0.86,-2.28
Lermontov,44.10667,42.97333,RU,23369,535886,Lermontov,-4.22,-1.53,3.98,8.59,12.7,17.15,20.33,17.96,15.16,8.88,5.98,-2.0
Leonovo,55.85,37.65,RU,30000,535966,Leonovo,-6.37,-0.21,1.19,7.52,10.75,14.49,17.66,15.9,9.53,5.1,-0.2,-4.44
Leninskiye Gory,55.7,37.56667,RU,30000,536098,Leninskiye Gory,-6.7,-0.67,0.38,7.2,10.44,14.25,17.4,15.59,9.33,4.94,-0.26,-4.58
Leninsk,48.70233,45.19798,RU,15167,536156,Leninsk,-4.53,-2.03,5.61,12.33,15.31,19.21,23.71,20.73,16.3,9.47,5.06,-1.83
Leninogorsk,54.60256,52.46087,RU,66263,536162,Leninogorsk,-12.46,-5.81,-0.98,5.17,10.62,16.14,18.73,15.84,10.18,2.61,-3.8,-8.77
Tsaritsyno,55.6254,37.65032,RU,123000,536164,Tsaritsyno,-6.45,-0.46,1.01,7.31,10.54,14.32,17.5,15.69,9.46,5.07,-0.12,-4.48
Leningradskaya,46.3214,39.3877,RU,38712,536200,Leningradskaya,-0.25,2.22,6.23,11.8,15.44,19.8,23.79,21.51,16.8,10.71,8.44,1.37
Yubileyny,55.93333,37.83333,RU,32508,536206,Yubileyny,-6.56,-0.36,1.03,7.41,10.61,14.36,17.54,15.78,9.4,4.94,-0.38,-4.61
Lefortovo,55.76667,37.7,RU,91000,536398,Lefortovo,-6.45,-0.37,1.07,7.45,10.7,14.46,17.62,15.83,9.5,5.07,-0.18,-4.43
Lebedyan’,53.01942,39.16639,RU,22970,536518,Lebedyan’,-5.3,-0.28,2.94,8.9,11.65,15.28,18.62,16.79,11.1,6.21,1.26,-4.98
Lazarevskoye,43.90886,39.33137,RU,30000,536625,Lazarevskoye,3.37,5.64,7.3,12.27,16.11,20.36,24.73,22.8,19.58,14.9,12.82,8.04
Lakinsk,56.01931,39.94848,RU,16706,537107,Lakinsk,-7.49,-0.71,0.43,7.33,10.31,14.41,18.05,15.97,9.49,4.63,-1.05,-5.5
Labinsk,44.63417,40.73556,RU,61945,537281,Labinsk,-1.03,2.04,5.98,11.49,14.94,19.38,23.8,21.09,17.83,11.09,8.56,1.97
Dugulubgey,43.6625,43.53694,RU,20965,537345,Dugulubgey,-4.15,-1.11,4.7,9.56,13.92,18.39,21.37,19.15,16.07,9.51,6.31,-1.38
Kuznetsk,53.11675,46.60037,RU,90480,537737,Kuznetsk,-9.6,-3.57,0.69,7.86,11.67,15.13,18.57,15.79,10.61,4.69,-1.44,-7.42
Kuz’minki,55.7,37.8,RU,143000,537832,Kuz’minki,-6.57,-0.52,0.82,7.38,10.61,14.42,17.6,15.76,9.5,5.04,-0.18,-4.5
Kuvandyk,51.4781,57.3552,RU,28706,538138,Kuvandyk,-13.6,-9.15,-0.55,5.31,12.62,19.56,19.79,17.22,12.58,3.71,-2.86,-7.95
Kuskovo,55.73423,37.82616,RU,30000,538321,Kuskovo,-6.52,-0.47,0.87,7.42,10.66,14.47,17.65,15.81,9.55,5.09,-0.13,-4.45
Kushva,58.29056,59.75917,RU,34058,538340,Kushva,-17.72,-8.23,-3.12,1.87,6.6,15.55,17.83,15.37,6.94,-1.65,-7.49,-10.52
Kushchyovskaya,46.5599,39.6321,RU,29915,538416,Kushchyovskaya,-0.92,2.04,6.28,11.97,15.58,19.77,23.82,21.56,16.77,10.61,8.32,1.14
Kusa,55.33833,59.44056,RU,19818,538442,Kusa,-13.0,-8.18,-1.73,3.37,9.18,16.22,17.45,15.18,9.16,0.51,-5.82,-10.39
Kur’yanovo,55.65,37.7,RU,30000,538472,Kur’yanovo,-6.2,-0.21,1.26,7.56,10.79,14.58,17.75,15.94,9.71,5.32,0.13,-4.24
Kursk,51.73733,36.18735,RU,448733,538560,Kursk,-3.66,0.08,3.68,8.95,12.25,14.96,18.02,16.65,10.85,6.7,2.5,-4.38
Kurovskoye,55.58183,38.91994,RU,19173,538601,Kurovskoye,-6.51,-0.19,1.33,7.9,10.98,14.89,18.17,16.34,9.95,5.26,-0.13,-4.63
Kurganinsk,44.88,40.59861,RU,47681,538836,Kurganinsk,0.02,2.54,6.38,11.98,15.31,19.96,24.49,21.58,18.2,11.3,9.11,2.14
Kurchatov,51.6601,35.6521,RU,46600,538908,Kurchatov,-3.15,0.37,4.05,9.17,12.62,15.32,18.26,16.97,11.06,7.07,2.97,-3.94
Kurchaloy,43.20184,46.0881,RU,20903,538913,Kurchaloy,-1.65,1.43,6.01,10.75,15.21,20.71,23.46,20.8,18.66,11.5,7.84,0.61
Kupchino,59.85278,30.35667,RU,54198,539061,Kupchino,-6.08,0.98,0.73,6.86,9.21,13.38,16.63,15.8,8.57,5.19,-1.19,-2.57
Kungur,57.4368,56.9593,RU,66389,539147,Kungur,-12.54,-6.07,-1.58,2.76,8.5,16.7,18.86,16.49,8.91,0.82,-5.84,-8.51
Kumertau,52.76667,55.78333,RU,65321,539283,Kumertau,-13.88,-9.05,-1.23,4.23,11.71,18.04,18.6,15.98,11.22,2.73,-3.73,-10.15
Kulebaki,55.41333,42.5325,RU,37622,539555,Kulebaki,-8.01,-1.15,0.63,8.1,10.64,14.9,18.5,16.41,10.08,4.82,-1.32,-5.75
Kukmor,56.1855,50.8944,RU,16795,539689,Kukmor,-11.35,-4.44,-1.45,3.58,10.03,15.88,19.04,16.23,9.52,2.36,-4.64,-7.65
Kudymkar,59.01306,54.65556,RU,31596,539817,Kudymkar,-13.1,-4.91,-2.29,2.64,7.19,15.53,18.23,15.94,7.69,-0.87,-7.07,-8.03
Kudrovo,59.90349,30.51058,RU,30000,539839,Kudrovo,-6.02,1.06,0.81,7.01,9.33,13.54,16.77,15.91,8.64,5.28,-1.14,-2.61
Kudepsta,43.49547,39.89294,RU,17000,539907,Kudepsta,4.14,6.11,7.93,12.92,16.97,20.66,24.52,22.44,20.2,15.42,13.18,8.31
Kubinka,55.57957,36.70392,RU,25942,540030,Kubinka,-5.98,-0.16,1.29,7.29,10.55,14.21,17.04,15.7,9.24,5.14,-0.06,-4.56
Kstovo,56.14733,44.19787,RU,67242,540103,Kstovo,-9.34,-1.91,-0.28,7.37,9.75,14.39,18.3,16.11,9.61,3.7,-2.38,-6.23
Krymsk,44.92934,37.99117,RU,57555,540251,Krymsk,1.75,3.59,6.67,11.69,15.51,20.06,24.63,21.79,17.73,11.44,9.81,3.03
Kropotkin,45.4375,40.57556,RU,79599,540761,Kropotkin,0.24,2.63,6.5,12.29,15.67,20.22,24.59,21.48,17.89,11.08,9.13,1.88
Kronstadt,59.99541,29.76668,RU,43005,540771,Kronstadt,-5.32,1.07,0.7,6.29,8.6,12.43,15.63,15.26,8.48,5.1,-0.46,-1.97
Krasnyy Sulin,47.89221,40.07037,RU,44133,541404,Krasnyy Sulin,-3.43,-0.88,4.97,11.08,14.57,18.08,22.41,20.28,15.22,8.76,5.99,-1.29
Biryulëvo Zapadnoye,55.58766,37.64282,RU,89000,541406,Biryulëvo Zapadnoye,-6.4,-0.42,1.05,7.29,10.5,14.27,17.41,15.65,9.39,5.06,-0.13,-4.48
Krasnoye Selo,59.73833,30.08944,RU,44323,542000,Krasnoye Selo,-6.05,0.9,0.46,6.41,9.07,13.13,16.06,15.18,7.9,4.84,-1.67,-3.12
Krasnovishersk,60.40783,57.08199,RU,18185,542184,Krasnovishersk,-15.47,-5.66,-3.05,2.15,5.03,15.69,19.02,15.83,7.06,-1.55,-8.8,-9.26
Krasnoufimsk,56.60585,57.76686,RU,43121,542199,Krasnoufimsk,-12.63,-6.66,-1.33,3.49,8.91,16.65,18.42,16.11,9.16,0.52,-5.76,-9.19
Krasnokamsk,58.0796,55.7552,RU,52689,542327,Krasnokamsk,-12.39,-5.39,-1.83,2.75,7.93,16.28,19.04,16.52,8.48,0.35,-5.91,-8.02
Krasnogvardeyskoye,45.84604,41.51885,RU,16169,542334,Krasnogvardeyskoye,-0.58,2.19,6.61,12.41,15.66,20.27,25.17,21.87,18.01,11.0,8.97,1.34
Krasnogorsk,55.82036,37.33017,RU,92932,542374,Krasnogorsk,-6.19,-0.18,1.29,7.48,10.73,14.39,17.45,15.84,9.42,5.15,-0.1,-4.39
Krasnodar,45.04484,38.97603,RU,899541,542420,Krasnodar,1.34,3.38,6.86,12.04,15.68,20.54,24.75,21.76,17.87,11.56,9.65,2.72
Krasnoarmeyskaya,45.36614,38.21171,RU,29009,542461,Krasnoarmeyskaya,1.42,3.3,6.85,12.22,16.15,20.77,24.85,21.82,17.52,11.47,9.21,2.33
Krasnoarmeysk,56.1,38.13333,RU,25688,542463,Krasnoarmeysk,-6.74,-0.3,0.87,7.53,10.63,14.48,17.69,15.91,9.4,4.85,-0.73,-4.87
Krasnoarmeysk,51.02389,45.69694,RU,25841,542464,Krasnoarmeysk,-7.88,-3.42,3.03,9.76,12.91,16.48,20.21,17.15,12.7,6.68,1.34,-5.09
Presnenskiy,55.75,37.55,RU,122000,542634,Presnenskiy,-6.35,-0.29,0.86,7.58,10.83,14.63,17.76,15.97,9.66,5.24,-0.0,-4.28
Koz’modem’yansk,56.3419,46.56353,RU,22700,543018,Koz’modem’yansk,-10.37,-2.69,-0.98,6.11,10.04,14.89,18.88,16.35,9.87,3.26,-3.21,-6.46
Kozhukhovo,55.7,37.66667,RU,50000,543254,Kozhukhovo,-6.43,-0.39,0.63,7.54,10.77,14.63,17.78,15.94,9.7,5.25,0.04,-4.3
Kozeyevo,55.86667,37.61667,RU,50000,543344,Kozeyevo,-6.41,-0.26,1.11,7.42,10.66,14.41,17.56,15.79,9.45,5.03,-0.26,-4.49
Kozel’sk,54.03746,35.77159,RU,19500,543348,Kozel’sk,-4.63,0.28,2.74,7.94,11.15,14.52,17.19,16.17,10.04,5.98,1.33,-4.7
Kovylkino,54.03876,43.91385,RU,21400,543436,Kovylkino,-8.35,-2.15,1.44,8.44,11.16,14.98,18.31,15.99,10.3,4.81,-1.27,-6.5
Kovrov,56.35722,41.31917,RU,154224,543460,Kovrov,-8.41,-1.1,0.03,7.16,9.81,14.4,18.15,16.1,9.4,4.21,-1.76,-6.1
Kovdor,67.56616,30.47576,RU,19518,543508,Kovdor,-16.45,-3.25,-6.0,-0.18,3.53,9.08,12.97,11.68,5.03,-0.48,-9.06,-6.3
Kotovsk,52.59047,41.50251,RU,33077,543605,Kotovsk,-6.22,-0.67,2.82,9.26,12.08,15.63,19.01,16.66,11.15,6.13,0.99,-5.25
Kotovo,50.32113,44.80119,RU,26981,543633,Kotovo,-6.62,-2.97,3.75,10.68,13.44,16.81,20.87,17.77,13.26,7.25,2.33,-4.74
Kotlas,61.25745,46.64963,RU,59180,543704,Kotlas,-15.03,-2.08,-1.9,3.94,6.34,13.85,18.36,15.3,6.92,0.16,-7.72,-6.22
Kotel’nikovo,47.63009,43.14068,RU,19622,543728,Kotel’nikovo,-3.51,-0.72,5.76,11.85,15.27,19.32,24.27,21.56,17.03,10.01,6.65,-0.76
Kotel’niki,55.63546,37.8445,RU,18300,543731,Kotel’niki,-6.61,-0.59,0.87,7.23,10.45,14.24,17.42,15.61,9.38,4.95,-0.25,-4.62
Kotel’nich,58.3089,48.348,RU,27600,543737,Kotel’nich,-12.17,-2.95,-1.59,3.78,7.86,14.6,18.18,15.58,8.37,0.75,-5.56,-6.28
Kostroma,57.76647,40.92686,RU,277280,543878,Kostroma,-9.49,-1.28,-0.95,6.59,9.11,14.22,17.82,15.98,8.72,3.36,-3.33,-5.74
Kostomuksha,64.571,30.57667,RU,30135,543899,Kostomuksha,-13.94,-1.65,-4.04,1.78,6.2,10.86,14.43,13.36,6.03,1.2,-7.73,-4.83
Kosaya Gora,54.11896,37.54459,RU,17836,544293,Kosaya Gora,-6.13,-0.7,1.75,7.49,10.45,14.09,17.06,15.71,9.62,5.29,0.43,-5.54
Koryazhma,61.31433,47.16914,RU,42627,544370,Koryazhma,-15.29,-2.25,-1.94,3.41,6.12,13.75,18.24,15.18,6.89,-0.03,-7.88,-6.39
Korenovsk,45.46899,39.45136,RU,41665,544896,Korenovsk,0.71,2.87,6.7,12.22,15.72,20.5,24.6,21.58,17.45,11.22,9.25,2.08
Konstantinovsk,47.58278,41.09222,RU,18876,545277,Konstantinovsk,-2.9,-0.06,5.83,11.86,15.41,19.26,24.19,21.58,16.57,9.81,7.01,-0.32
Kondopoga,62.20565,34.26138,RU,34360,545626,Kondopoga,-10.9,-0.84,-2.44,3.14,7.48,11.74,16.21,15.03,7.65,2.87,-5.11,-4.54
Konakovo,56.7,36.76667,RU,42239,545673,Konakovo,-6.33,0.24,1.19,7.5,10.45,14.29,17.43,15.96,9.31,4.94,-0.66,-4.47
Kommunar,59.62056,30.39,RU,17358,545788,Kommunar,-5.84,1.2,0.93,7.0,9.66,13.78,16.62,15.59,8.28,5.21,-1.34,-2.96
Kolpino,59.75069,30.58856,RU,138979,546105,Kolpino,-6.03,1.18,0.9,7.11,9.53,13.74,16.82,15.82,8.51,5.28,-1.29,-2.86
Kolomyagi,60.02427,30.28491,RU,39945,546225,Kolomyagi,-6.0,0.78,0.47,6.55,8.74,12.85,16.24,15.6,8.58,5.05,-0.9,-2.33
Kolomna,55.07944,38.77833,RU,147690,546230,Kolomna,-6.46,-0.48,1.4,7.71,10.84,14.7,17.89,16.12,9.93,5.26,-0.04,-5.19
Kolomenskoye,55.66667,37.68333,RU,30000,546244,Kolomenskoye,-6.38,-0.34,0.68,7.59,10.82,14.68,17.83,15.99,9.75,5.29,0.09,-4.25
Kol’chugino,56.29929,39.38304,RU,45912,546521,Kol’chugino,-7.66,-0.74,0.1,6.94,9.91,14.04,17.61,15.63,9.08,4.35,-1.39,-5.34
Kokhma,56.93487,41.0915,RU,28984,546672,Kokhma,-8.72,-1.14,-0.33,6.84,9.5,14.34,18.12,16.04,9.17,3.97,-2.46,-5.95
Klintsy,52.76033,32.23905,RU,66336,547475,Klintsy,-1.95,1.18,4.13,8.31,12.31,15.06,16.91,16.61,10.2,6.8,2.85,-3.47
Klin,56.33333,36.73333,RU,80778,547523,Klin,-6.08,0.26,1.31,7.46,10.54,14.15,17.19,15.86,9.27,5.07,-0.38,-4.41
Klimovsk,55.36352,37.52984,RU,55206,547560,Klimovsk,-6.16,-0.31,1.37,7.48,10.66,14.42,17.47,15.81,9.54,5.22,0.06,-4.52
Kizlyar,43.84712,46.71445,RU,50564,547840,Kizlyar,0.02,2.94,7.24,12.1,17.15,23.2,26.14,23.19,20.64,13.09,9.52,3.23
Kizilyurt,43.1883,46.88511,RU,33411,547849,Kizilyurt,-0.73,2.52,6.74,11.43,15.9,21.57,23.91,21.57,19.49,12.45,8.86,2.24
Kizel,59.04709,57.64767,RU,21807,547875,Kizel,-15.43,-6.62,-3.2,1.68,4.7,15.1,17.74,15.15,6.56,-1.79,-7.62,-9.51
Kislovodsk,43.91333,42.72083,RU,132771,548114,Kislovodsk,-4.14,-1.86,2.71,7.54,11.95,16.14,19.31,16.97,14.43,8.68,5.63,-1.87
Kirzhach,56.15273,38.85509,RU,30566,548278,Kirzhach,-7.2,-0.48,0.52,7.31,10.35,14.36,17.81,15.89,9.31,4.63,-0.99,-5.0
Kirsanov,52.65494,42.72236,RU,17975,548330,Kirsanov,-7.16,-1.54,2.44,9.08,12.03,15.38,18.76,16.32,10.89,5.73,0.3,-5.92
Kirovsk,67.61475,33.67274,RU,29605,548391,Kirovsk,-17.45,-4.37,-7.17,-2.04,0.49,7.31,12.34,10.8,4.64,-1.32,-9.93,-7.5
Kirovsk,59.88101,30.99507,RU,24678,548392,Kirovsk,-6.08,1.03,0.75,7.14,9.64,14.05,17.18,16.15,8.76,5.41,-1.26,-2.84
Kirovo-Chepetsk,58.55386,50.03986,RU,90252,548395,Kirovo-Chepetsk,-12.66,-3.55,-1.84,2.94,7.5,14.58,18.15,15.61,8.12,-0.19,-6.23,-6.86
Kirov,58.59665,49.66007,RU,507155,548408,Kirov,-12.76,-3.57,-1.97,2.96,7.35,14.43,17.98,15.44,7.98,-0.23,-6.33,-6.89
Kirov,54.06686,34.29955,RU,39319,548410,Kirov,-3.97,0.38,2.72,7.67,11.37,14.51,16.74,16.01,9.76,6.02,1.46,-4.78
Kirishi,59.44712,32.02049,RU,56190,548442,Kirishi,-6.16,1.17,1.06,7.58,9.81,14.55,17.25,15.68,8.52,5.13,-1.46,-3.38
Kireyevsk,53.93361,37.92792,RU,25513,548506,Kireyevsk,-6.11,-0.72,1.94,7.73,10.69,14.27,17.36,15.91,9.92,5.49,0.55,-5.61
Kingisepp,59.37331,28.61343,RU,50566,548602,Kingisepp,-4.77,1.5,1.13,7.53,10.08,14.61,16.64,16.13,8.95,5.74,-0.56,-2.18
Kineshma,57.43914,42.12894,RU,92983,548605,Kineshma,-9.52,-1.42,-0.73,6.76,9.22,14.38,18.34,16.26,9.03,3.48,-3.12,-5.87
Kinel’-Cherkassy,53.4706,51.47431,RU,18393,548622,Kinel’-Cherkassy,-11.18,-5.09,0.12,7.76,12.69,17.61,20.09,17.17,11.87,4.65,-1.56,-8.2
Kinel’,53.22571,50.62907,RU,34336,548625,Kinel’,-10.56,-4.7,0.59,8.68,13.07,17.56,20.07,17.26,12.07,5.18,-1.01,-7.88
Kimry,56.86667,37.35,RU,52070,548652,Kimry,-6.83,0.06,0.85,7.33,10.19,14.24,17.54,15.82,9.21,4.72,-1.15,-4.79
Kimovsk,53.97164,38.53186,RU,31947,548658,Kimovsk,-6.39,-0.9,1.68,7.65,10.6,14.32,17.46,15.86,9.91,5.34,0.24,-5.71
Khot'kovo,56.25699,37.99544,RU,20872,549373,Khot'kovo,-7.03,-0.41,0.45,7.04,10.13,14.01,17.29,15.47,9.03,4.49,-1.17,-5.31
Khosta,43.51484,39.86825,RU,20000,549424,Khosta,4.1,6.06,7.88,12.87,16.92,20.61,24.47,22.4,20.15,15.37,13.13,8.25
Khoroshëvo-Mnevniki,55.78363,37.47137,RU,159000,549479,Khoroshëvo-Mnevniki,-6.43,-0.39,0.82,7.43,10.69,14.45,17.56,15.8,9.49,5.1,-0.13,-4.41
Kholmskiy,44.84694,38.385,RU,17494,549741,Kholmskiy,1.3,3.26,6.59,11.64,15.33,20.03,24.28,21.17,17.42,11.14,9.43,2.59
Khimki,55.89704,37.42969,RU,239967,550280,Khimki,-6.45,-0.35,0.94,7.3,10.51,14.21,17.32,15.65,9.27,4.94,-0.34,-4.59
Khasavyurt,43.2509,46.58766,RU,126829,550478,Khasavyurt,-1.23,2.02,6.18,10.84,15.43,21.04,23.66,21.12,19.14,12.04,8.44,1.64
Kharabali,47.41958,47.25678,RU,18223,550671,Kharabali,-4.44,-2.44,5.77,12.16,16.37,21.17,24.69,22.16,17.81,10.02,6.25,-1.97
Khadyzhensk,44.4258,39.5362,RU,21685,550846,Khadyzhensk,0.67,3.29,6.6,11.71,15.19,20.09,24.22,21.4,17.86,11.61,10.01,3.18
Kazan,55.78874,49.12214,RU,1243500,551487,Kazan,-10.69,-3.45,-1.03,4.47,10.86,16.03,19.49,16.75,10.17,3.08,-3.53,-7.21
Katav-Ivanovsk,54.75306,58.19556,RU,19339,551794,Katav-Ivanovsk,-13.27,-8.39,-1.5,2.97,9.1,16.12,17.36,15.0,9.43,-0.1,-6.1,-10.33
Kastanayevo,55.71667,37.5,RU,20000,551835,Kastanayevo,-6.31,-0.3,0.77,7.52,10.76,14.53,17.66,15.89,9.62,5.29,0.09,-4.21
Kaspiysk,42.88165,47.63919,RU,81752,551847,Kaspiysk,1.05,3.09,6.72,11.19,16.13,21.98,24.81,22.87,20.59,13.96,10.7,4.53
Kasimov,54.94111,41.39528,RU,35355,551891,Kasimov,-7.25,-0.85,1.04,8.1,10.83,14.96,18.29,16.35,10.08,5.14,-0.65,-5.81
Kashira,54.84444,38.16694,RU,40084,551964,Kashira,-6.05,-0.3,1.68,7.77,10.92,14.73,17.86,16.14,10.01,5.52,0.4,-4.93
Kashin,57.35917,37.60806,RU,16598,551986,Kashin,-7.44,-0.14,0.46,6.88,9.58,14.08,17.37,15.68,8.9,4.47,-1.89,-4.8
Karachev,53.12255,34.98494,RU,19757,552920,Karachev,-3.6,0.21,3.1,7.9,11.66,14.75,17.19,16.23,10.02,6.27,1.83,-4.53
Karachayevsk,43.77399,41.91419,RU,20264,552924,Karachayevsk,-5.44,-3.51,0.24,5.58,10.97,14.8,18.07,15.89,13.2,7.93,3.81,-0.81
Karabulak,43.30513,44.89949,RU,34511,552951,Karabulak,-2.61,-0.46,5.37,10.32,14.22,19.42,22.31,19.97,17.06,10.37,6.85,-0.72
Karabanovo,56.31667,38.7,RU,15615,552977,Karabanovo,-7.41,-0.66,0.31,6.95,10.06,14.04,17.47,15.57,9.04,4.37,-1.27,-5.33
Kapotnya,55.63806,37.79306,RU,29594,553034,Kapotnya,-6.35,-0.34,1.12,7.48,10.7,14.49,17.68,15.86,9.63,5.2,0.01,-4.37
Kantyshevo,43.22824,44.63322,RU,17363,553092,Kantyshevo,-4.08,-1.5,4.05,9.15,13.13,17.77,20.31,18.21,15.63,9.45,6.02,-1.0
Kanevskaya,46.0799,38.9599,RU,45334,553152,Kanevskaya,0.26,2.5,6.47,12.01,15.64,20.15,24.14,21.7,17.18,11.0,8.68,1.58
Kandalaksha,67.15123,32.41284,RU,38431,553190,Kandalaksha,-13.87,-1.64,-4.11,0.91,4.73,9.74,14.19,12.68,6.63,1.25,-6.49,-4.36
Kanash,55.50962,47.49127,RU,49886,553216,Kanash,-10.85,-3.32,-1.24,6.41,10.11,14.72,18.22,15.56,9.66,2.87,-3.54,-7.19
Kamyzyak,46.10995,48.07364,RU,16191,553248,Kamyzyak,-3.09,-1.36,5.98,11.76,17.17,22.14,25.72,23.12,19.07,10.83,7.68,-0.56
Kamyshin,50.09833,45.41601,RU,128626,553287,Kamyshin,-6.31,-3.13,3.4,10.46,14.07,17.66,21.89,18.65,14.18,7.72,2.76,-4.02
Kamensk-Shakhtinskiy,48.31779,40.25948,RU,75814,553399,Kamensk-Shakhtinskiy,-3.13,-0.41,5.49,11.47,14.94,18.37,22.76,20.47,15.47,9.01,6.06,-1.09
Kaluga,54.5293,36.27542,RU,340851,553915,Kaluga,-5.56,-0.14,2.18,7.58,10.7,14.18,16.97,15.93,9.67,5.48,0.81,-4.71
Kalininsk,51.5,44.4758,RU,18685,554199,Kalininsk,-7.55,-2.59,3.21,10.08,13.02,16.19,19.69,16.87,12.13,6.52,1.17,-5.58
Korolev,55.91417,37.82556,RU,139798,554233,Korolev,-6.56,-0.36,1.03,7.41,10.61,14.36,17.54,15.78,9.4,4.94,-0.38,-4.61
Kaliningrad,54.70649,20.51095,RU,475056,554234,Kaliningrad,2.89,5.35,6.16,8.58,12.79,16.56,16.98,17.74,11.95,9.31,5.18,0.34
Kalach-na-Donu,48.69099,43.52638,RU,27522,554397,Kalach-na-Donu,-4.56,-2.03,5.05,11.48,14.71,18.36,22.98,20.43,15.77,9.03,4.94,-1.73
Kalach,50.41957,41.0244,RU,20449,554410,Kalach,-5.04,-0.7,4.33,11.01,13.82,16.78,20.61,18.14,13.3,7.85,3.46,-3.29
Kachkanar,58.7002,59.4839,RU,43983,554599,Kachkanar,-18.94,-8.85,-3.78,1.09,5.69,14.97,17.42,14.81,6.24,-2.38,-8.29,-11.07
Kabanovo,55.74815,38.93511,RU,23414,554679,Kabanovo,-6.74,-0.37,1.08,7.62,10.72,14.64,17.95,16.05,9.71,5.02,-0.32,-4.79
Izobil’nyy,45.37092,41.70839,RU,39022,554770,Izobil’nyy,-0.9,1.77,5.99,11.8,14.98,19.73,24.3,21.19,17.74,10.65,8.65,1.06
Izmaylovo,55.78677,37.80165,RU,104000,554787,Izmaylovo,-6.54,-0.43,1.1,7.4,10.63,14.38,17.56,15.78,9.42,4.97,-0.29,-4.53
Izhevsk,56.84976,53.20448,RU,648213,554840,Izhevsk,-11.43,-5.2,-1.66,3.61,9.2,16.03,19.02,16.08,8.99,1.39,-5.33,-8.04
Izberbash,42.56955,47.86447,RU,42121,554894,Izberbash,0.78,2.81,6.49,10.42,15.1,20.87,23.8,22.04,19.92,13.44,10.21,4.32
Ivanteyevka,55.97111,37.92083,RU,51085,555111,Ivanteyevka,-6.57,-0.27,0.99,7.49,10.67,14.46,17.66,15.87,9.46,4.97,-0.56,-4.79
Ivanovskoye,55.76667,37.83333,RU,128000,555129,Ivanovskoye,-6.49,-0.39,1.14,7.45,10.68,14.43,17.61,15.83,9.47,5.02,-0.25,-4.48
Ivanovo,56.99719,40.97139,RU,406113,555312,Ivanovo,-8.88,-1.22,-0.67,6.79,9.44,14.3,18.07,16.0,9.11,3.91,-2.69,-6.06
Istra,55.91997,36.86867,RU,33390,555746,Istra,-6.09,-0.04,1.26,7.52,10.71,14.36,17.27,15.89,9.3,5.13,-0.26,-4.62
Ishimbay,53.45446,56.04149,RU,70421,555980,Ishimbay,-12.96,-8.04,-0.56,4.86,11.74,18.08,18.97,16.28,11.29,2.8,-3.77,-9.67
Ipatovo,45.71806,42.90361,RU,29073,556230,Ipatovo,-1.65,1.33,6.6,12.09,15.38,20.54,25.2,22.06,18.12,10.89,8.55,0.8
Inza,53.85672,46.35622,RU,19737,556283,Inza,-9.42,-2.95,0.62,7.99,11.61,15.16,18.71,15.89,10.56,4.21,-1.77,-7.09
Inozemtsevo,44.09264,43.09113,RU,28779,556320,Inozemtsevo,-3.1,-0.5,5.13,9.72,13.71,18.3,21.59,19.24,16.29,9.76,6.89,-1.09
Il’skiy,44.84222,38.56686,RU,22970,556951,Il’skiy,1.45,3.45,6.71,11.62,15.31,19.98,24.26,21.14,17.52,11.32,9.71,2.88
Igra,57.5549,53.0544,RU,22033,557469,Igra,-11.78,-4.84,-1.79,3.12,8.19,15.57,18.41,15.9,8.51,0.61,-5.64,-7.82
Gus’-Khrustal’nyy,55.61113,40.65186,RU,62746,557775,Gus’-Khrustal’nyy,-7.41,-0.69,0.67,7.78,10.62,14.81,18.33,16.28,9.81,4.85,-0.86,-5.68
Gusev,54.59222,22.19972,RU,28690,557882,Gusev,2.05,5.0,5.64,8.44,12.63,16.06,16.41,17.24,11.3,8.59,4.48,-0.4
Gul’kevichi,45.35383,40.69465,RU,34953,558066,Gul’kevichi,0.06,2.46,6.35,12.15,15.51,20.05,24.46,21.38,17.79,10.95,8.99,1.72
Gukovo,48.06212,39.9355,RU,66079,558082,Gukovo,-3.75,-1.16,4.46,10.41,13.9,17.38,21.65,19.33,14.43,8.13,5.41,-1.74
Gudermes,43.35071,46.10925,RU,32769,558118,Gudermes,-0.48,2.47,7.29,12.01,16.35,22.39,25.28,22.29,20.13,12.51,8.72,1.36
Gubkin,51.28167,37.5458,RU,87000,558146,Gubkin,-3.75,0.47,4.14,9.59,12.57,15.43,18.8,17.04,11.77,7.14,3.01,-3.72
Gubakha,58.83862,57.55325,RU,26605,558209,Gubakha,-15.38,-6.75,-3.12,1.67,4.87,15.13,17.76,15.22,6.63,-1.68,-7.46,-9.51
Gryazovets,58.88,40.2525,RU,16133,558236,Gryazovets,-10.61,-1.43,-1.85,5.67,8.05,13.54,16.74,15.19,7.56,2.26,-4.7,-5.45
Gryazi,52.49657,39.93593,RU,47413,558312,Gryazi,-5.38,-0.09,3.27,9.31,11.97,15.54,18.91,16.77,11.36,6.44,1.58,-4.53
Groznyy,43.31195,45.68895,RU,297137,558418,Groznyy,-1.59,1.45,6.41,11.22,15.52,20.86,23.79,21.14,18.76,11.77,8.04,0.74
Gribanovskiy,51.45513,41.97395,RU,17220,558799,Gribanovskiy,-6.09,-1.01,3.36,10.02,12.88,16.09,19.72,17.11,11.85,6.82,1.84,-4.93
Grazhdanka,60.03587,30.40518,RU,71128,559029,Grazhdanka,-6.14,0.77,0.44,6.59,8.81,13.0,16.38,15.67,8.55,5.05,-1.06,-2.44
Goryachiy Klyuch,44.63083,39.13,RU,28078,559317,Goryachiy Klyuch,1.25,3.59,6.92,11.89,15.41,20.31,24.47,21.5,17.92,11.75,10.12,3.11
Goryachevodskiy,44.02361,43.09222,RU,35075,559320,Goryachevodskiy,-3.25,-0.66,4.99,9.57,13.57,18.15,21.44,19.09,16.14,9.61,6.74,-1.24
Gorodishche,48.80454,44.47439,RU,19509,559654,Gorodishche,-4.85,-2.35,5.04,11.58,14.59,18.23,22.79,19.99,15.5,8.87,4.45,-2.26
Gorodets,56.65493,43.47273,RU,31788,559678,Gorodets,-9.56,-1.78,-0.66,7.07,9.64,14.51,18.51,16.33,9.45,3.57,-2.83,-6.06
Gorelovo,59.77234,30.13455,RU,22503,560142,Gorelovo,-5.71,1.06,0.7,6.65,9.09,13.11,16.16,15.43,8.27,5.09,-1.15,-2.62
Gol’yanovo,55.82299,37.81306,RU,158000,560465,Gol’yanovo,-6.49,-0.39,1.14,7.45,10.68,14.43,17.61,15.83,9.47,5.02,-0.25,-4.48
Golitsyno,55.60928,36.98212,RU,16056,560756,Golitsyno,-6.01,-0.13,1.32,7.39,10.62,14.29,17.21,15.76,9.35,5.2,0.01,-4.48
Glazov,58.1393,52.658,RU,100676,561347,Glazov,-12.13,-4.63,-1.98,2.85,7.82,15.24,18.12,15.75,8.3,-0.14,-6.01,-7.76
Giaginskaya,44.86208,40.07195,RU,15169,561515,Giaginskaya,0.49,2.95,6.6,12.16,15.51,20.32,24.61,21.81,18.22,11.51,9.49,2.41
Georgiyevsk,44.15194,43.46972,RU,72649,561627,Georgiyevsk,-2.27,0.58,6.39,10.84,14.94,19.8,23.15,20.62,17.43,10.47,7.64,-0.29
Gelendzhik,44.5622,38.0848,RU,50715,561667,Gelendzhik,2.83,4.51,6.98,11.45,15.41,19.61,24.29,22.06,18.19,12.26,10.78,4.53
Gay,51.4666,58.4552,RU,41619,561731,Gay,-14.02,-9.56,-1.19,5.6,12.22,19.28,19.11,16.42,11.6,2.95,-3.67,-8.99
Gavrilov-Yam,57.30185,39.85331,RU,17351,561762,Gavrilov-Yam,-8.37,-0.62,0.03,6.96,9.61,14.31,17.86,16.03,9.17,4.18,-2.39,-5.28
Gatchina,59.57639,30.12833,RU,89761,561887,Gatchina,-5.92,1.03,0.66,6.69,9.46,13.51,16.32,15.39,8.11,5.04,-1.49,-3.11
Galich,58.37884,42.34633,RU,18594,562161,Galich,-10.65,-1.6,-1.4,5.18,8.6,13.94,17.73,15.79,8.42,2.46,-4.17,-5.56
Gagarin,55.55329,34.99684,RU,28879,562237,Gagarin,-5.24,0.38,1.84,7.53,10.82,14.09,16.6,15.91,9.26,5.36,0.37,-4.44
Furmanov,57.25363,41.10849,RU,38380,562309,Furmanov,-9.02,-1.12,-0.46,6.77,9.29,14.25,18.04,16.03,8.97,3.76,-2.84,-5.73
Fryazino,55.96056,38.04556,RU,52255,562319,Fryazino,-6.79,-0.46,0.82,7.34,10.51,14.3,17.51,15.72,9.29,4.77,-0.73,-4.96
Fryazevo,55.73321,38.46458,RU,53212,562321,Fryazevo,-6.52,-0.27,1.16,7.57,10.69,14.58,17.86,16.0,9.69,5.12,-0.14,-4.44
Frolovo,49.77133,43.66222,RU,40882,562389,Frolovo,-5.69,-2.14,4.32,11.19,14.05,17.24,21.47,18.54,14.06,8.02,3.28,-3.18
Fili,55.74819,37.47969,RU,80000,562820,Fili,-6.57,-0.55,0.52,7.27,10.51,14.27,17.41,15.64,9.37,5.04,-0.16,-4.46
Ezhva,61.81281,50.72834,RU,56000,563379,Ezhva,-16.73,-3.29,-2.59,2.33,4.96,13.55,18.59,15.1,6.12,-1.34,-8.95,-7.73
Engels,51.48389,46.10528,RU,196011,563464,Engels,-7.99,-3.09,3.59,10.19,13.78,17.22,20.86,17.8,13.11,7.1,1.26,-5.17
Enem,44.9264,38.90584,RU,17665,563472,Enem,1.46,3.47,6.9,11.92,15.54,20.34,24.53,21.53,17.82,11.57,9.77,2.84
Elista,46.30778,44.25583,RU,106971,563514,Elista,-3.05,-0.16,6.1,11.75,15.59,20.53,25.82,22.68,18.31,10.55,7.5,-0.43
Elektrougli,55.72445,38.20908,RU,20000,563522,Elektrougli,-6.53,-0.37,1.11,7.41,10.61,14.46,17.71,15.84,9.58,5.05,-0.18,-4.44
Elektrostal’,55.78959,38.44671,RU,144387,563523,Elektrostal’,-6.74,-0.46,0.97,7.35,10.5,14.35,17.64,15.77,9.45,4.89,-0.39,-4.56
Elektrogorsk,55.88431,38.7864,RU,20724,563524,Elektrogorsk,-6.86,-0.38,0.92,7.55,10.65,14.59,17.92,16.02,9.58,4.91,-0.47,-4.78
Ekazhevo,43.21222,44.82306,RU,25549,563551,Ekazhevo,-3.47,-0.85,4.21,9.49,13.58,18.37,20.91,18.78,16.26,10.13,6.68,-0.45
Dzerzhinskiy,55.62945,37.85654,RU,41146,563705,Dzerzhinskiy,-6.45,-0.41,1.16,7.41,10.62,14.4,17.59,15.79,9.53,5.08,-0.13,-4.48
Dzerzhinsk,56.24143,43.45539,RU,233126,563708,Dzerzhinsk,-8.91,-1.43,-0.04,7.58,9.99,14.63,18.51,16.37,9.76,4.08,-1.98,-5.92
Dyurtyuli,55.49106,54.86883,RU,31087,563719,Dyurtyuli,-11.26,-5.6,-0.58,5.43,10.99,17.39,19.89,17.05,10.66,2.82,-3.74,-8.3
Dyat’kovo,53.59782,34.33825,RU,25000,563822,Dyat’kovo,-3.44,0.43,2.99,7.8,11.53,14.67,16.83,16.11,9.81,6.13,1.69,-4.67
Dubovka,49.05825,44.829,RU,15217,564654,Dubovka,-5.13,-2.5,4.88,11.51,14.58,18.17,22.62,19.61,15.08,8.64,4.1,-2.43
Dubna,56.73333,37.16667,RU,60604,564719,Dubna,-6.5,0.2,1.1,7.57,10.46,14.35,17.55,15.94,9.34,4.89,-0.72,-4.55
Dorogomilovo,55.75,37.56667,RU,68000,565197,Dorogomilovo,-6.4,-0.34,0.81,7.53,10.78,14.57,17.71,15.92,9.61,5.18,-0.05,-4.33
Donskoye,45.45518,41.97411,RU,15469,565289,Donskoye,-0.84,1.88,6.4,12.13,15.29,20.21,24.86,21.64,18.02,10.91,8.94,1.17
Donskoy,53.97106,38.33627,RU,31968,565290,Donskoy,-6.37,-0.85,1.73,7.64,10.61,14.3,17.41,15.84,9.89,5.38,0.32,-5.71
Donetsk,48.33962,39.95948,RU,50850,565348,Donetsk,-3.24,-0.45,5.32,11.28,14.71,18.14,22.53,20.11,15.15,8.72,5.91,-1.33
Domodedovo,55.4413,37.75367,RU,53887,565381,Domodedovo,-6.13,-0.21,1.46,7.61,10.77,14.53,17.67,15.96,9.71,5.31,0.13,-4.43
Dolgoprudnyy,55.94958,37.50183,RU,68259,565614,Dolgoprudnyy,-6.57,-0.44,0.86,7.24,10.47,14.22,17.35,15.6,9.26,4.88,-0.41,-4.65
Dobryanka,58.4644,56.4127,RU,33291,565778,Dobryanka,-12.96,-5.46,-2.01,2.36,7.39,16.2,18.99,16.58,8.21,-0.11,-6.26,-8.11
Dmitrov,56.34485,37.52041,RU,61607,565955,Dmitrov,-6.47,0.04,1.04,7.47,10.58,14.32,17.52,15.82,9.37,4.91,-0.64,-4.75
Divnoye,45.90889,43.35472,RU,15700,566155,Divnoye,-1.99,0.81,6.66,12.15,15.64,20.65,25.3,22.36,18.26,10.86,8.28,0.6
Dinskaya,45.21516,39.2265,RU,34573,566181,Dinskaya,1.19,3.29,6.96,12.4,15.96,20.81,24.94,21.96,17.94,11.6,9.65,2.54
Dimitrovgrad,54.21386,49.61838,RU,132226,566199,Dimitrovgrad,-10.27,-3.74,0.07,7.86,12.34,16.75,19.72,17.12,11.38,4.33,-1.76,-7.62
Desnogorsk,54.15077,33.28151,RU,32451,566384,Desnogorsk,-3.61,0.45,2.77,7.62,11.58,14.42,16.54,16.08,9.64,6.08,1.51,-4.41
Derbent,42.06779,48.28987,RU,105965,566532,Derbent,1.68,3.21,6.65,10.2,14.88,20.61,24.21,22.59,20.61,14.24,10.91,5.1
Dedovsk,55.86861,37.12222,RU,27001,566854,Dedovsk,-6.28,-0.21,1.07,7.32,10.51,14.18,17.17,15.69,9.18,4.97,-0.38,-4.68
Davydkovo,55.71815,37.47271,RU,30000,566976,Davydkovo,-6.37,-0.35,0.72,7.47,10.71,14.47,17.61,15.84,9.57,5.24,0.04,-4.26
Davlekanovo,54.22145,55.03434,RU,23952,567006,Davlekanovo,-12.46,-6.99,-0.6,6.15,11.55,17.36,19.16,16.38,11.17,3.07,-3.4,-8.75
Dankov,53.25155,39.15553,RU,22913,567109,Dankov,-5.48,-0.41,2.57,8.51,11.34,15.06,18.35,16.52,10.8,6.0,0.96,-5.19
Danilov,58.1908,40.17171,RU,16808,567183,Danilov,-9.75,-1.22,-1.25,6.2,8.65,13.92,17.1,15.5,8.09,3.02,-3.71,-5.53
Dagestanskiye Ogni,42.11589,48.19204,RU,27835,567290,Dagestanskiye Ogni,0.53,2.44,6.19,9.92,14.54,20.24,23.55,21.82,19.79,13.41,10.12,4.13
Dachnoye,59.84167,30.25583,RU,72822,567311,Dachnoye,-5.81,1.24,0.92,6.96,9.41,13.5,16.6,15.73,8.48,5.29,-1.13,-2.56
Chusovoy,58.3013,57.8131,RU,50205,567434,Chusovoy,-14.35,-6.18,-1.88,2.5,6.59,16.2,18.66,16.37,7.85,-0.34,-6.29,-8.79
Chudovo,59.11667,31.68333,RU,17377,567774,Chudovo,-5.79,1.36,1.37,7.63,10.12,14.74,17.21,15.54,8.58,5.23,-1.01,-3.28
Chistopol’,55.36311,50.64244,RU,62200,567990,Chistopol’,-10.97,-4.27,-1.0,5.11,10.97,16.25,19.37,16.45,10.05,2.96,-3.41,-7.73
Chishmy,54.57648,55.37642,RU,22000,568012,Chishmy,-12.08,-6.46,-0.38,6.16,11.43,17.56,19.49,16.69,11.2,3.04,-3.5,-8.5
Chernyanka,50.93432,37.81664,RU,15261,568587,Chernyanka,-3.39,0.63,4.47,9.96,12.96,15.85,19.34,17.44,12.36,7.44,3.56,-3.21
Chernyakhovsk,54.63345,21.81557,RU,45187,568595,Chernyakhovsk,2.22,5.06,5.77,8.51,12.56,16.03,16.5,17.27,11.37,8.67,4.58,-0.35
Chernushka,56.50722,56.07661,RU,35942,568608,Chernushka,-11.88,-6.19,-1.22,3.49,9.5,17.18,19.37,16.63,9.55,1.53,-5.24,-8.95
Chernogolovka,56.0,38.36667,RU,20483,568808,Chernogolovka,-6.81,-0.39,0.89,7.53,10.62,14.51,17.77,15.93,9.44,4.85,-0.68,-4.8
Cherkessk,44.22333,42.05778,RU,122395,569154,Cherkessk,-3.86,-1.54,3.38,9.24,13.31,17.59,21.02,18.81,15.67,9.69,6.67,-0.14
Cherepovets,59.13333,37.9,RU,315738,569223,Cherepovets,-9.54,-0.83,-1.34,6.07,8.75,13.91,17.04,15.81,7.94,3.36,-3.9,-4.83
Cherëmushki,55.66473,37.56135,RU,106587,569273,Cherëmushki,-6.75,-0.72,0.33,7.15,10.39,14.2,17.35,15.53,9.28,4.89,-0.31,-4.63
Chekhov,55.1477,37.47728,RU,75643,569591,Chekhov,-5.95,-0.23,1.5,7.58,10.69,14.51,17.5,15.89,9.68,5.39,0.31,-4.61
Chegem,43.55862,43.59285,RU,18429,569639,Chegem,-4.62,-1.64,3.78,8.96,13.35,17.72,20.64,18.46,15.42,8.93,5.5,-1.77
Cheboksary,56.13222,47.25194,RU,492331,569696,Cheboksary,-10.55,-2.82,-1.1,6.16,10.07,14.98,18.97,16.22,9.79,3.15,-3.31,-6.68
Chaykovskiy,56.76864,54.11484,RU,86712,569742,Chaykovskiy,-11.02,-5.16,-1.35,3.23,9.47,16.84,19.71,16.79,9.59,1.72,-4.91,-7.81
Chapayevsk,52.9771,49.7086,RU,70147,569955,Chapayevsk,-10.15,-4.28,1.03,9.01,13.19,17.41,20.07,17.3,12.27,5.59,-0.61,-7.51
Buzuluk,52.7807,52.2635,RU,87714,570427,Buzuluk,-11.86,-6.14,-0.07,8.07,12.98,18.01,20.15,17.38,12.37,4.86,-1.37,-8.45
Buynaksk,42.819,47.1192,RU,62689,570479,Buynaksk,-3.98,-0.74,4.23,9.25,13.71,19.32,21.5,19.26,16.99,10.34,6.67,-0.39
Buy,58.48067,41.53699,RU,26486,570508,Buy,-10.4,-1.35,-1.33,6.2,8.73,14.08,17.61,15.78,8.34,2.49,-4.23,-5.53
Buturlinovka,50.8299,40.6067,RU,28581,570563,Buturlinovka,-5.0,-0.44,4.14,10.69,13.47,16.4,20.24,17.81,12.79,7.54,3.18,-3.49
Buinsk,54.97119,48.29184,RU,20266,571155,Buinsk,-10.18,-3.05,-0.31,7.3,11.49,15.78,19.09,16.49,10.6,3.77,-2.33,-7.11
Buguruslan,53.6554,52.442,RU,53511,571159,Buguruslan,-12.15,-5.84,-0.29,6.66,12.08,17.25,19.54,16.74,11.35,3.96,-2.35,-8.68
Bugulma,54.5378,52.7985,RU,91900,571170,Bugulma,-12.9,-6.29,-1.32,4.69,10.29,15.86,18.33,15.49,9.91,2.36,-4.06,-9.03
Budyonnovsk,44.78389,44.16583,RU,67962,571306,Budyonnovsk,-1.98,1.26,6.89,11.93,16.06,21.72,25.37,22.71,19.17,11.24,7.98,0.94
Bryukhovetskaya,45.80603,38.99959,RU,22309,571420,Bryukhovetskaya,0.68,2.8,6.66,12.17,15.74,20.42,24.44,21.7,17.41,11.22,8.99,1.91
Bryansk,53.25209,34.37167,RU,427236,571476,Bryansk,-3.33,0.35,3.16,7.94,11.7,14.75,16.99,16.25,9.88,6.19,1.78,-4.67
Bronnitsy,55.42112,38.26188,RU,18645,571557,Bronnitsy,-6.26,-0.23,1.48,7.68,10.83,14.65,17.86,16.07,9.87,5.32,0.09,-4.47
Brateyevo,55.63755,37.76438,RU,102000,571741,Brateyevo,-6.25,-0.24,1.22,7.58,10.8,14.59,17.78,15.96,9.73,5.3,0.11,-4.27
Borovichi,58.38778,33.91546,RU,56571,572154,Borovichi,-6.48,0.86,0.84,6.89,9.87,14.14,16.74,15.66,8.41,4.63,-1.37,-4.14
Borisoglebsk,51.36713,42.08494,RU,68597,572525,Borisoglebsk,-5.82,-0.75,3.74,10.44,13.33,16.53,20.21,17.51,12.29,7.19,2.23,-4.69
Bor,56.35808,44.07477,RU,60647,572665,Bor,-9.24,-1.61,-0.15,7.56,9.96,14.77,18.71,16.47,9.82,3.85,-2.44,-5.82
Bol’shaya Setun’,55.71667,37.41667,RU,20000,574675,Bol’shaya Setun’,-6.17,-0.18,1.12,7.52,10.74,14.47,17.55,15.88,9.55,5.27,0.06,-4.24
Bologoye,57.88585,34.04876,RU,25142,575349,Bologoye,-6.21,0.59,0.79,6.79,9.89,13.99,16.51,15.62,8.39,4.54,-1.17,-4.33
Boksitogorsk,59.47405,33.84853,RU,17366,575410,Boksitogorsk,-7.93,0.34,-0.41,6.46,8.67,13.7,16.65,15.15,7.73,4.06,-3.11,-4.21
Boguchar,49.93577,40.545,RU,15048,575457,Boguchar,-4.4,-0.36,4.65,10.99,14.06,16.92,20.99,18.46,13.72,8.15,4.09,-2.67
Bogorodskoye,55.81353,37.71617,RU,103000,575505,Bogorodskoye,-6.45,-0.37,1.07,7.45,10.7,14.46,17.62,15.83,9.5,5.07,-0.18,-4.43
Bogorodsk,56.10513,43.51294,RU,36652,575560,Bogorodsk,-8.98,-1.56,-0.1,7.48,9.83,14.42,18.3,16.17,9.62,3.95,-1.99,-6.0
Bogoroditsk,53.77166,38.12408,RU,30216,575591,Bogoroditsk,-6.13,-0.79,1.85,7.63,10.62,14.2,17.31,15.8,9.86,5.4,0.43,-5.62
Bobrov,51.0994,40.0244,RU,20587,575948,Bobrov,-5.06,-0.24,3.83,10.04,12.86,15.95,19.66,17.26,12.09,7.1,2.78,-3.62
Blagoveshchensk,55.035,55.97806,RU,34238,576116,Blagoveshchensk,-12.14,-6.59,-0.38,5.16,11.02,17.52,19.58,16.91,10.95,2.68,-4.09,-8.82
Blagodarnyy,45.09778,43.43639,RU,35995,576172,Blagodarnyy,-1.78,1.11,6.68,11.87,15.41,20.84,24.89,22.06,18.49,10.86,8.14,0.68
Biryulëvo,55.58635,37.67781,RU,144000,576279,Biryulëvo,-6.5,-0.51,0.96,7.26,10.49,14.28,17.45,15.64,9.41,5.02,-0.17,-4.54
Birsk,55.42111,55.54278,RU,41014,576317,Birsk,-12.02,-6.4,-0.89,4.64,10.5,17.11,19.39,16.66,10.36,2.35,-4.49,-8.93
Bibirevo,55.88333,37.6,RU,159000,576432,Bibirevo,-6.46,-0.32,1.07,7.37,10.61,14.35,17.51,15.74,9.4,4.98,-0.31,-4.54
Bezhetsk,57.78506,36.69651,RU,28114,576566,Bezhetsk,-7.52,-0.04,0.45,6.79,9.37,13.73,16.85,15.48,8.47,4.14,-2.18,-4.76
Bezenchuk,52.982,49.4333,RU,23736,576590,Bezenchuk,-10.05,-4.19,1.13,9.06,13.18,17.35,20.11,17.3,12.26,5.67,-0.55,-7.4
Beslan,43.19217,44.54313,RU,35604,576697,Beslan,-3.76,-1.12,4.32,9.4,13.41,17.96,20.52,18.41,15.86,9.73,6.37,-0.59
Berezniki,59.4091,56.8204,RU,167748,577206,Berezniki,-14.35,-5.82,-2.8,1.8,5.76,15.68,18.59,15.92,7.32,-1.14,-7.64,-8.8
Beloretsk,53.96306,58.39806,RU,70468,577881,Beloretsk,-15.1,-10.33,-2.45,2.26,9.18,15.82,16.77,14.14,9.04,0.21,-7.0,-12.03
Belorechensk,44.77127,39.87879,RU,54526,577893,Belorechensk,0.7,3.21,6.75,12.21,15.56,20.44,24.64,21.9,18.29,11.68,9.76,2.69
Beloozyorskiy,55.45978,38.44358,RU,18297,577901,Beloozyorskiy,-6.31,-0.2,1.48,7.73,10.87,14.69,17.94,16.13,9.89,5.31,0.06,-4.37
Belgorod,50.61074,36.58015,RU,345289,578072,Belgorod,-3.02,0.62,4.52,9.84,12.85,15.56,19.19,17.37,12.02,7.32,3.61,-3.61
Belëv,53.81194,36.13194,RU,15300,578091,Belëv,-4.8,0.1,2.72,7.98,11.12,14.52,17.25,16.13,10.07,5.94,1.28,-4.83
Belebey,54.11667,54.11667,RU,62582,578120,Belebey,-13.38,-7.42,-1.45,4.36,10.51,16.21,18.29,15.57,10.24,2.22,-4.72,-9.5
Belaya Kalitva,48.18585,40.77424,RU,47521,578155,Belaya Kalitva,-3.17,-0.5,5.62,11.67,15.07,18.61,23.13,20.94,15.91,9.29,6.25,-0.88
Belaya Glina,46.07802,40.86651,RU,17997,578169,Belaya Glina,-0.79,2.11,6.39,12.28,15.62,20.02,24.73,21.81,17.47,10.74,8.74,1.21
Baymak,52.59333,58.3225,RU,17493,578534,Baymak,-14.69,-9.86,-1.88,3.43,10.66,17.22,17.62,14.84,10.06,1.5,-5.84,-10.99
Bavly,54.39304,53.26023,RU,22982,578638,Bavly,-12.64,-6.25,-0.82,5.33,10.88,16.51,18.86,16.04,10.53,2.91,-3.56,-8.8
Bataysk,47.13975,39.75181,RU,109962,578740,Bataysk,-1.89,1.34,6.19,12.1,15.65,19.59,23.83,21.57,16.65,10.25,7.88,0.6
Barysh,53.65533,47.11229,RU,18547,578931,Barysh,-9.48,-3.09,0.75,8.05,11.89,15.48,18.9,16.11,10.82,4.43,-1.55,-7.2
Balezino,57.9787,53.0138,RU,16618,579432,Balezino,-11.95,-4.65,-1.91,2.89,7.88,15.38,18.16,15.76,8.32,-0.0,-5.87,-7.74
Balashov,51.5502,43.1667,RU,98107,579460,Balashov,-6.77,-1.56,3.23,10.12,13.0,16.19,19.69,16.87,11.95,6.64,1.43,-5.31
Balashikha,55.80945,37.95806,RU,150103,579464,Balashikha,-6.5,-0.32,1.17,7.53,10.74,14.51,17.74,15.93,9.58,5.08,-0.21,-4.44
Balakovo,52.02782,47.8007,RU,199572,579492,Balakovo,-9.13,-4.09,2.17,9.28,13.62,17.58,21.01,17.69,12.9,6.65,0.39,-6.03
Novaya Balakhna,56.48989,43.60114,RU,63083,579514,Novaya Balakhna,-9.22,-1.57,-0.3,7.41,9.93,14.72,18.66,16.5,9.73,3.89,-2.45,-5.94
Balabanovo,55.18161,36.6606,RU,24232,579529,Balabanovo,-5.7,-0.08,1.7,7.51,10.72,14.43,17.2,15.91,9.61,5.44,0.46,-4.37
Baksan,43.68806,43.53694,RU,37519,579574,Baksan,-4.15,-1.11,4.7,9.56,13.92,18.39,21.37,19.15,16.07,9.51,6.31,-1.38
Bakal,54.9417,58.8083,RU,21762,579738,Bakal,-13.93,-8.92,-2.57,2.09,8.06,15.19,16.31,13.99,8.38,-0.93,-6.98,-11.3
Bagayevskaya,47.32411,40.38791,RU,15300,579771,Bagayevskaya,-2.48,0.6,6.08,12.06,15.57,19.42,23.92,21.62,16.55,9.96,7.51,0.15
Babushkin,55.86931,37.72966,RU,86000,579870,Babushkin,-6.57,-0.41,0.99,7.32,10.55,14.29,17.46,15.7,9.33,4.9,-0.4,-4.64
Azov,47.10779,39.41648,RU,82133,580054,Azov,-1.77,1.1,6.01,11.95,15.55,19.47,23.61,21.49,16.56,10.19,7.64,0.48
Avtury,43.16345,46.00152,RU,18370,580218,Avtury,-2.71,0.67,5.71,10.47,14.79,20.02,22.67,20.21,17.86,10.92,7.35,-0.12
Avtovo,59.87167,30.26583,RU,44667,580222,Avtovo,-5.95,0.77,0.35,6.34,9.17,13.27,16.51,15.78,8.63,5.17,-0.94,-2.42
Atkarsk,51.87185,45.00775,RU,27554,580420,Atkarsk,-8.34,-3.07,2.72,9.42,12.67,15.72,19.16,16.51,11.6,5.99,0.31,-6.19
Astrakhan,46.34968,48.04076,RU,533925,580497,Astrakhan,-3.53,-1.73,5.9,11.8,17.05,21.87,25.47,22.91,18.81,10.58,7.35,-0.98
Asha,54.9973,57.2722,RU,33006,580660,Asha,-12.52,-7.35,-0.21,4.11,10.54,17.49,19.17,16.58,10.7,1.85,-4.57,-9.54
Arzgir,45.37278,44.22056,RU,15838,580716,Arzgir,-1.84,1.04,7.13,12.22,16.14,21.5,25.67,22.72,18.93,11.21,8.29,0.85
Arzamas,55.39485,43.83992,RU,109479,580724,Arzamas,-8.88,-1.96,0.02,7.44,10.09,14.46,18.02,15.91,9.75,4.17,-2.1,-6.21
Arsk,56.09151,49.87783,RU,17243,580850,Arsk,-11.42,-4.28,-1.61,3.75,9.95,15.54,18.72,16.08,9.5,2.38,-4.44,-7.76
Armavir,44.9892,41.1234,RU,199548,580922,Armavir,-0.47,2.09,6.06,11.77,15.08,19.6,24.24,21.32,18.0,11.04,8.76,1.68
Arkhangel’sk,64.5401,40.5433,RU,349742,581049,Arkhangel’sk,-15.47,-1.54,-2.98,2.04,4.42,11.72,17.52,13.82,6.22,0.59,-7.39,-5.81
Argun,43.29713,45.87454,RU,28100,581126,Argun,-1.59,1.44,6.37,11.19,15.52,20.97,23.79,21.14,18.78,11.65,7.93,0.5
Ardon,43.1772,44.29702,RU,18313,581179,Ardon,-3.41,-0.65,4.57,9.61,13.65,18.04,20.6,18.5,16.01,9.94,6.62,-0.16
Apsheronsk,44.46472,39.73417,RU,40451,581313,Apsheronsk,0.09,2.74,6.18,11.29,14.75,19.63,23.81,21.08,17.56,11.22,9.45,2.78
Aprelevka,55.55194,37.0801,RU,17780,581321,Aprelevka,-6.19,-0.29,1.18,7.26,10.48,14.15,17.11,15.62,9.23,5.06,-0.13,-4.6
Apatity,67.56414,33.4031,RU,61186,581357,Apatity,-17.4,-3.8,-6.31,-0.94,2.4,8.33,13.13,11.75,5.33,-0.56,-9.27,-7.02
Anna,51.4842,40.4299,RU,19148,581671,Anna,-5.44,-0.34,3.61,9.93,12.7,15.96,19.59,17.11,11.82,6.89,2.29,-4.13
Andreyevskoye,55.55487,37.92566,RU,20000,581928,Andreyevskoye,-6.3,-0.26,1.31,7.56,10.77,14.55,17.74,15.94,9.68,5.23,0.02,-4.33
Anapa,44.89497,37.31623,RU,53600,582182,Anapa,2.75,4.06,6.88,11.48,15.52,19.69,24.35,22.25,18.24,12.46,10.5,4.26
Amin’yevo,55.7,37.46667,RU,30000,582266,Amin’yevo,-6.51,-0.5,0.57,7.32,10.56,14.32,17.46,15.69,9.42,5.09,-0.11,-4.41
Al’met’yevsk,54.90442,52.3154,RU,140437,582432,Al’met’yevsk,-11.81,-5.08,-0.62,5.76,11.04,16.63,19.35,16.32,10.46,3.02,-3.39,-8.33
Aleksin,54.50503,37.0674,RU,66885,582750,Aleksin,-5.65,-0.18,2.08,7.95,10.95,14.63,17.47,16.18,10.01,5.71,0.89,-4.95
Alekseyevka,55.63,37.8,RU,78000,582846,Alekseyevka,-6.35,-0.34,1.12,7.48,10.7,14.49,17.68,15.86,9.63,5.2,0.01,-4.37
Alekseyevka,50.63092,38.6903,RU,39848,582956,Alekseyevka,-3.7,0.55,4.62,10.28,13.28,16.21,19.92,17.8,12.83,7.75,3.84,-2.89
Aleksandrovskoye,44.71417,43.00083,RU,28006,582993,Aleksandrovskoye,-1.53,1.06,6.28,11.2,14.77,19.89,23.72,20.96,17.76,10.79,7.92,0.47
Aleksandrovsk,59.1581,57.5695,RU,15486,583041,Aleksandrovsk,-14.92,-5.93,-2.53,2.4,5.46,15.83,18.49,15.86,7.26,-1.19,-7.22,-8.98
Aleksandrov,56.39516,38.71216,RU,64088,583350,Aleksandrov,-7.52,-0.67,0.17,6.81,9.9,13.9,17.36,15.45,8.95,4.3,-1.4,-5.46
Alatyr’,54.8421,46.5813,RU,42156,583437,Alatyr’,-9.75,-2.82,0.01,7.63,11.07,15.04,18.52,15.9,10.4,3.84,-2.17,-6.87
Levoberezhnyy,55.85,37.48333,RU,52000,583589,Levoberezhnyy,-6.5,-0.37,0.94,7.34,10.57,14.32,17.45,15.7,9.36,4.97,-0.34,-4.59
Aksay,47.25838,39.86675,RU,38871,583673,Aksay,-2.6,0.54,5.59,11.56,15.12,18.89,23.21,21.04,15.98,9.53,7.07,-0.14
Akhtyrskiy,44.8546,38.3031,RU,19468,583785,Akhtyrskiy,1.29,3.16,6.47,11.58,15.28,19.95,24.33,21.27,17.38,11.01,9.39,2.51
Akhtubinsk,48.27955,46.17217,RU,44551,583798,Akhtubinsk,-4.87,-2.42,5.51,12.14,15.56,20.02,24.07,21.01,16.87,9.66,5.27,-2.01
Agryz,56.52034,52.99422,RU,18601,583983,Agryz,-11.12,-4.95,-1.29,4.22,9.94,16.5,19.38,16.43,9.59,1.85,-4.88,-7.8
Afipskiy,44.90005,38.84265,RU,18209,584126,Afipskiy,1.41,3.41,6.83,11.86,15.49,20.27,24.46,21.42,17.71,11.43,9.67,2.75
Adler,43.42896,39.92391,RU,70200,584243,Adler,4.14,6.11,7.93,12.92,16.97,20.66,24.52,22.44,20.2,15.42,13.18,8.31
Achkhoy-Martan,43.18997,45.28373,RU,16779,584298,Achkhoy-Martan,-3.07,-0.07,5.96,10.8,14.69,19.89,22.37,20.18,17.35,10.82,7.35,-0.42
Abinsk,44.86803,38.15728,RU,34668,584441,Abinsk,1.34,3.19,6.45,11.56,15.29,19.94,24.37,21.4,17.45,11.03,9.45,2.56
Abdulino,53.7,53.66667,RU,21195,584471,Abdulino,-13.27,-7.28,-1.05,4.99,11.48,16.89,18.83,16.16,10.89,3.03,-3.66,-9.45
Vasil’yevo,55.83007,48.71729,RU,16800,611182,Vasil’yevo,-10.27,-3.04,-0.78,5.42,10.94,15.9,19.52,16.76,10.23,3.33,-3.19,-6.77
Ryl’sk,51.5655,34.6822,RU,17007,695019,Ryl’sk,-2.62,0.55,4.27,8.97,12.79,15.29,18.04,17.1,10.98,7.13,3.32,-3.62
Neftekumsk,44.75583,44.9925,RU,27716,797781,Neftekumsk,-1.48,1.76,7.23,12.31,16.78,22.54,26.11,22.94,19.56,11.72,8.24,1.54
Alagir,43.04222,44.22222,RU,19665,802078,Alagir,-4.22,-1.27,3.15,8.49,12.57,16.94,19.45,17.34,15.1,9.32,6.02,-0.52
Persianovka,47.52972,39.41833,RU,15730,802714,Persianovka,-2.13,0.76,5.89,11.85,15.44,19.16,23.48,21.3,16.13,9.76,7.19,0.06
Annino,55.58316,37.26019,RU,30000,819552,Annino,-6.14,-0.22,1.27,7.37,10.57,14.26,17.29,15.72,9.37,5.15,-0.04,-4.42
Dagomys,43.66974,39.66863,RU,20000,823674,Dagomys,3.13,5.33,6.92,11.59,15.35,19.55,23.36,21.69,19.67,15.22,12.78,8.27
Pavlovo,55.9686,43.0912,RU,63338,827329,Pavlovo,-8.84,-1.53,0.02,7.62,10.01,14.53,18.32,16.25,9.73,4.12,-1.86,-6.1
Belidzhi,41.89184,48.41247,RU,16078,828055,Belidzhi,1.04,2.68,6.42,10.83,15.3,21.26,24.59,22.68,20.5,13.7,10.2,4.17
Lesnoy,58.63667,59.80222,RU,23834,829005,Lesnoy,-18.09,-8.13,-2.94,2.18,6.84,15.91,18.26,15.76,7.24,-1.49,-7.52,-10.42
Trëkhgornyy,54.815,58.45917,RU,34500,830844,Trëkhgornyy,-13.5,-8.61,-1.76,2.8,8.98,15.91,17.14,14.73,9.2,-0.23,-6.39,-10.69
Mirnyy,62.76409,40.33746,RU,28000,831129,Mirnyy,-14.81,-1.54,-2.78,3.37,5.51,12.13,16.84,13.57,5.9,0.33,-7.81,-6.21
Znamensk,48.5842,45.7338,RU,31922,831130,Znamensk,-4.88,-2.41,5.39,12.05,15.2,19.34,23.57,20.55,16.31,9.33,4.89,-2.09
Zarechnyy,53.13333,46.58333,RU,62139,831165,Zarechnyy,-9.5,-3.47,0.79,7.96,11.77,15.23,18.67,15.89,10.71,4.79,-1.34,-7.32
Kochubeyevskoye,44.64417,41.84528,RU,28491,841006,Kochubeyevskoye,-2.57,0.89,5.22,10.44,14.02,18.48,22.54,20.05,16.93,10.37,7.6,0.62
Vnukovo,55.61194,37.29611,RU,20000,857689,Vnukovo,-6.19,-0.27,1.22,7.32,10.52,14.21,17.24,15.67,9.32,5.1,-0.09,-4.47
Moskovskiy,55.59911,37.35495,RU,15435,857690,Moskovskiy,-6.23,-0.3,1.2,7.3,10.5,14.21,17.29,15.65,9.34,5.09,-0.1,-4.45
Usinsk,65.99389,57.52806,RU,44078,863061,Usinsk,-23.33,-9.74,-8.93,-2.47,-0.48,12.35,19.27,12.0,4.11,-5.03,-16.58,-13.32
Obukhovo,59.84389,30.45111,RU,45664,873901,Obukhovo,-5.92,1.23,0.98,7.11,9.54,13.7,16.81,15.85,8.54,5.32,-1.22,-2.69
Staryy Malgobek,43.54437,44.59592,RU,46334,874045,Staryy Malgobek,-3.5,-1.09,4.35,9.14,13.11,17.96,20.72,18.52,15.87,9.44,5.96,-1.46
Zavodoukovsk,56.5042,66.55153,RU,25682,1485357,Zavodoukovsk,-14.17,-10.44,-2.41,3.24,10.19,18.72,20.46,17.16,10.09,1.77,-5.51,-11.04
Zarinsk,53.7074,84.9493,RU,52209,1485439,Zarinsk,-16.64,-12.62,-2.94,1.85,13.73,17.53,20.37,16.57,10.54,4.22,-7.62,-11.45
Zarechnyy,56.811,61.3254,RU,27758,1485445,Zarechnyy,-14.58,-8.17,-2.21,3.97,8.91,16.89,18.38,15.96,8.62,0.86,-5.68,-9.69
Yuzhnyy,53.25417,83.69361,RU,19515,1485627,Yuzhnyy,-16.12,-12.36,-2.85,2.53,14.27,18.58,20.8,16.68,10.8,4.34,-7.2,-11.01
Yuzhnoural’sk,54.4418,61.2536,RU,39200,1485634,Yuzhnoural’sk,-14.17,-9.72,-1.48,4.97,11.32,18.32,18.64,16.57,10.94,2.43,-4.03,-11.36
Yurga,55.72306,84.88611,RU,84220,1485724,Yurga,-18.67,-13.54,-2.7,1.02,13.18,16.71,19.79,15.99,9.09,2.96,-8.75,-14.21
Yeniseysk,58.44937,92.17968,RU,19920,1485997,Yeniseysk,-22.71,-15.82,-2.13,-0.47,10.88,14.53,19.91,17.09,8.3,2.43,-9.71,-16.0
Yemanzhelinsk,54.75472,61.32083,RU,29849,1486039,Yemanzhelinsk,-14.58,-9.61,-1.69,4.74,10.89,17.89,18.54,16.41,10.64,2.3,-4.19,-11.31
Yekaterinburg,56.8519,60.6122,RU,1495066,1486209,Yekaterinburg,-14.38,-7.76,-2.14,3.78,8.68,16.6,18.26,15.8,8.42,0.42,-5.66,-9.62
Yashkino,55.8736,85.4265,RU,15197,1486298,Yashkino,-18.53,-13.83,-2.96,0.5,12.05,15.73,19.07,15.45,8.39,2.36,-9.13,-14.46
Yarovoye,52.9273,78.58,RU,21195,1486340,Yarovoye,-15.49,-12.06,-3.36,5.1,16.2,21.23,22.54,18.07,12.42,4.19,-6.99,-12.05
Yalutorovsk,56.65358,66.30057,RU,35892,1486468,Yalutorovsk,-14.49,-10.66,-2.64,3.24,10.01,18.59,20.43,17.0,9.89,1.66,-5.55,-11.2
Vorkuta,67.49884,64.05253,RU,80039,1486910,Vorkuta,-27.83,-18.52,-14.62,-5.43,-2.89,8.18,17.78,9.24,2.44,-6.73,-23.1,-17.85
Vorgashor,67.58355,63.79399,RU,18946,1486913,Vorgashor,-27.52,-18.47,-14.68,-5.54,-3.23,8.0,17.45,8.84,2.16,-6.87,-22.96,-17.82
Verkhnyaya Salda,58.04874,60.55949,RU,48992,1487277,Verkhnyaya Salda,-16.23,-7.71,-2.49,2.98,7.82,16.46,18.46,16.06,7.97,-0.67,-6.47,-10.01
Verkhnyaya Pyshma,56.97047,60.58219,RU,59061,1487281,Verkhnyaya Pyshma,-14.61,-7.88,-2.3,3.43,8.38,16.4,18.08,15.64,8.18,0.13,-5.84,-9.76
Verkhniy Ufaley,56.0556,60.2397,RU,33245,1487394,Verkhniy Ufaley,-13.75,-7.96,-2.15,3.29,8.62,16.04,17.55,15.21,8.63,0.55,-5.77,-9.76
Uzhur,55.31246,89.83301,RU,15637,1487882,Uzhur,-18.77,-14.01,-3.88,1.64,12.49,15.43,19.44,15.44,8.63,3.38,-8.57,-13.27
Zelenogorsk,56.1124,94.5985,RU,71354,1488253,Zelenogorsk,-20.05,-13.8,-2.65,1.78,13.41,16.45,21.44,18.13,9.37,3.67,-8.11,-13.31
Uray,60.13044,64.78896,RU,39878,1488429,Uray,-20.77,-11.28,-5.05,1.24,6.93,17.19,20.51,16.66,7.51,-2.59,-10.73,-13.71
Tyumen,57.15222,65.52722,RU,768358,1488754,Tyumen,-15.05,-10.64,-2.81,3.02,9.63,18.41,20.33,16.78,9.45,1.23,-5.87,-11.11
