name,latitude,longitude,country,population,id,city,jan,feb,mar,apr,may,jun,jul,aug,sep,oct,nov,dec
Udomlya,57.87944,34.9925,RU,32373,452949,Udomlya,-11.97,-9.8,-2.83,3.31,11.11,15.21,18.27,16.21,10.4,4.35,-2.71,-6.81
Sosnovka,60.01667,30.35,RU,66227,461698,Sosnovka,-10.28,-9.44,-2.27,2.19,9.04,15.72,17.38,15.8,10.6,3.99,-1.95,-5.09
Sasovo,54.35369,41.91986,RU,29858,461699,Sasovo,-11.42,-7.31,-4.17,5.84,12.49,16.73,21.21,17.58,11.96,5.5,-2.82,-8.63
Zyuzino,55.65608,37.56846,RU,121000,461740,Zyuzino,-11.72,-9.91,-4.71,3.46,11.61,15.37,19.04,16.12,11.02,4.92,-3.45,-7.07
Zyablikovo,55.61667,37.76667,RU,129000,461835,Zyablikovo,-11.2,-9.03,-4.0,4.24,12.03,15.78,19.44,16.48,11.42,5.28,-3.04,-6.74
Zverevo,48.02108,40.12282,RU,24978,461910,Zverevo,-7.26,-2.05,1.24,11.65,15.66,17.63,23.97,19.46,14.81,7.68,2.85,-4.8
Zvenigorod,55.73401,36.85918,RU,16395,461920,Zvenigorod,-11.05,-8.84,-3.45,4.23,12.24,15.71,19.24,16.22,11.21,5.09,-2.84,-6.52
Zlatoust,55.17111,59.65083,RU,191366,462444,Zlatoust,-15.75,-11.23,-4.96,2.0,8.62,12.89,16.1,13.17,10.49,0.87,-8.58,-16.82
Zimovniki,47.1474,42.4721,RU,17678,462522,Zimovniki,-4.72,-0.56,3.24,13.17,17.17,19.78,26.27,21.1,16.33,9.29,4.43,-3.51
Zhulebino,55.7,37.85,RU,150000,462745,Zhulebino,-11.16,-8.92,-3.98,4.28,12.05,15.84,19.49,16.55,11.47,5.29,-3.07,-6.84
Zhukovskiy,55.59528,38.12028,RU,97200,462755,Zhukovskiy,-11.08,-8.74,-3.8,4.42,12.06,15.87,19.52,16.52,11.47,5.31,-3.03,-6.85
Zhukovka,53.53381,33.73075,RU,19690,462822,Zhukovka,-9.99,-8.16,-2.3,5.18,13.02,16.73,19.95,16.47,11.76,5.33,0.09,-4.3
Zhirnovsk,50.98448,44.77347,RU,17887,462984,Zhirnovsk,-10.42,-6.6,-3.75,9.09,14.33,16.98,22.24,18.29,13.09,5.95,-0.93,-10.97
Zhigulevsk,53.39972,49.49528,RU,57094,463082,Zhigulevsk,-13.27,-8.07,-3.75,6.08,14.05,16.85,21.95,18.07,12.97,5.38,-2.17,-13.24
Zherdevka,51.84861,41.46056,RU,16019,463217,Zherdevka,-9.38,-6.05,-3.09,8.79,14.15,17.63,22.41,18.12,12.72,6.38,-0.62,-7.89
Zheleznovodsk,44.13944,43.01972,RU,24632,463340,Zheleznovodsk,-3.39,-0.24,3.25,11.39,13.91,16.06,20.94,18.58,13.44,6.9,4.5,-3.75
Zheleznogorsk,52.331,35.3711,RU,97900,463343,Zheleznogorsk,-9.12,-7.16,-2.41,6.77,13.83,16.72,20.9,16.69,12.02,5.95,0.18,-4.58
Zheleznodorozhnyy,55.744,38.01684,RU,141648,463355,Zheleznodorozhnyy,-11.1,-8.78,-3.87,4.33,12.0,15.8,19.45,16.49,11.42,5.24,-3.08,-6.93
Zernograd,46.84518,40.30834,RU,29268,463637,Zernograd,-3.48,0.47,3.83,13.21,17.14,19.27,26.06,21.11,16.55,9.44,4.94,-2.67
Zelenokumsk,44.40694,43.88056,RU,41306,463824,Zelenokumsk,-1.72,1.2,5.33,13.75,17.01,19.81,26.17,22.48,16.69,9.2,6.14,-1.53
Zelenogradsk,54.95893,20.47668,RU,15644,463828,Zelenogradsk,-6.43,-5.94,0.01,4.65,11.3,15.62,16.77,17.08,13.11,7.83,3.7,0.64
Zelenograd,55.9825,37.18139,RU,215727,463829,Zelenograd,-11.21,-9.07,-3.71,3.89,11.71,15.23,18.88,15.92,10.92,4.76,-3.22,-6.95
Zelenodolsk,55.84376,48.51784,RU,99600,463835,Zelenodolsk,-14.53,-9.82,-5.53,3.39,11.81,15.92,20.26,16.71,11.49,4.33,-5.1,-13.18
Zelenchukskaya,43.85804,41.5894,RU,21117,463885,Zelenchukskaya,-4.53,-0.91,1.94,9.08,11.41,13.73,17.57,15.55,11.39,5.17,3.09,-4.72
Zavolzh’ye,56.64051,43.39446,RU,42900,464101,Zavolzh’ye,-12.03,-8.42,-4.28,4.68,11.53,16.31,20.07,17.2,11.45,5.21,-4.12,-10.25
Zavety Il’icha,56.04284,37.85153,RU,20000,464176,Zavety Il’icha,-11.16,-8.91,-3.69,4.04,11.83,15.58,19.25,16.29,11.27,5.0,-3.3,-7.25
Zarechnyy,53.20356,45.19227,RU,63579,464625,Zarechnyy,-12.19,-7.5,-4.22,6.0,12.49,15.67,20.64,16.83,11.37,4.65,-2.53,-11.4
Zaraysk,54.7605,38.87841,RU,24637,464687,Zaraysk,-10.75,-7.86,-4.0,4.93,12.43,16.5,20.21,16.74,11.69,5.5,-2.64,-6.65
Zapolyarnyy,69.41541,30.81355,RU,17789,464790,Zapolyarnyy,-11.08,-17.1,-5.8,-5.68,2.24,10.92,14.69,12.23,5.96,0.67,-8.01,-8.67
Zamoskvorech’ye,55.73333,37.63333,RU,55000,465057,Zamoskvorech’ye,-11.27,-9.46,-4.26,3.91,12.06,15.82,19.49,16.57,11.47,5.37,-3.0,-6.62
Zainsk,55.3195,52.06942,RU,42044,465543,Zainsk,-15.2,-9.88,-4.49,4.8,12.69,16.2,20.35,16.7,11.93,3.94,-5.53,-14.99
Yur’yev-Pol’skiy,56.50339,39.67911,RU,19906,466215,Yur’yev-Pol’skiy,-11.56,-9.14,-4.36,3.92,11.12,15.33,19.16,16.1,11.23,4.92,-3.86,-8.38
Yoshkar-Ola,56.63877,47.89078,RU,268272,466806,Yoshkar-Ola,-14.07,-9.28,-4.64,4.07,11.45,15.89,20.01,16.62,11.27,4.49,-5.4,-12.55
Yeysk,46.7055,38.2739,RU,87814,466885,Yeysk,-1.3,2.14,4.62,13.3,17.01,19.6,25.91,21.74,17.41,10.65,6.35,-0.31
Yessentukskaya,44.0328,42.8813,RU,19956,466989,Yessentukskaya,-3.48,-0.34,3.19,11.17,13.62,15.77,20.57,18.27,13.23,6.68,4.38,-3.96
Yessentuki,44.04444,42.86056,RU,81015,466990,Yessentuki,-3.29,-0.15,3.31,11.18,13.54,15.69,20.46,18.17,13.22,6.7,4.54,-3.86
Yershov,51.3513,48.2766,RU,23681,467120,Yershov,-12.88,-7.94,-4.08,8.72,15.17,17.89,23.78,18.99,13.86,5.68,-0.87,-13.58
Yemva,62.58999,50.85939,RU,16404,467525,Yemva,-16.1,-11.47,-3.93,-1.02,5.75,12.43,18.49,13.24,10.04,2.52,-9.97,-10.97
Yelizavetinskaya,45.04616,38.79491,RU,19306,467854,Yelizavetinskaya,1.0,4.72,6.46,14.09,16.52,18.98,24.82,21.83,17.71,10.85,7.85,0.33
Yelets,52.62366,38.50169,RU,115688,467978,Yelets,-9.71,-6.73,-3.7,7.3,13.82,17.05,21.31,17.19,12.19,6.29,-0.57,-5.63
Yelan’,50.949,43.73781,RU,15181,468063,Yelan’,-9.67,-5.82,-2.98,9.7,14.61,17.61,22.93,18.73,13.35,6.4,-0.52,-9.65
Yelabuga,55.76127,52.06493,RU,72643,468082,Yelabuga,-15.15,-10.55,-5.0,4.18,12.67,16.46,20.59,16.79,12.15,4.25,-6.04,-15.34
Yegor’yevsk,55.38283,39.03233,RU,85200,468250,Yegor’yevsk,-10.8,-7.96,-3.46,4.94,12.29,16.29,19.96,16.73,11.66,5.4,-2.98,-7.09
Yegorlykskaya,46.56564,40.65621,RU,17978,468307,Yegorlykskaya,-2.96,0.67,4.02,13.37,17.38,19.54,26.36,21.33,16.64,9.55,5.14,-2.39
Yefremov,53.14806,38.09924,RU,45497,468390,Yefremov,-10.14,-7.46,-4.15,6.22,13.25,16.49,20.52,16.67,11.74,5.89,-1.11,-5.76
Yasnyy,51.0333,59.8742,RU,17359,468657,Yasnyy,-16.71,-12.14,-6.22,6.42,12.26,16.82,21.09,18.39,13.93,3.24,-4.39,-16.52
Yasnogorsk,54.48082,37.69854,RU,18022,468671,Yasnogorsk,-11.01,-8.63,-4.64,4.11,11.97,15.71,19.46,16.0,11.14,5.15,-2.53,-6.34
Yasenevo,55.60686,37.51991,RU,180000,468809,Yasenevo,-11.4,-9.15,-4.12,3.92,11.62,15.27,18.94,15.98,10.95,4.83,-3.27,-6.93
Yartsevo,55.06491,32.69693,RU,52706,468866,Yartsevo,-11.07,-8.92,-2.46,3.96,12.67,15.8,18.69,16.04,11.18,4.67,-0.9,-5.18
Yaroslavl,57.62987,39.87368,RU,608722,468902,Yaroslavl,-12.42,-9.87,-4.44,3.17,10.55,14.92,18.89,15.96,11.08,4.83,-4.31,-8.91
Yaransk,57.30331,47.88611,RU,19557,469005,Yaransk,-14.66,-10.4,-5.31,3.09,10.77,15.33,19.35,16.1,10.79,4.09,-6.37,-12.57
Yanaul,56.2751,54.9338,RU,27963,469178,Yanaul,-15.9,-10.58,-4.53,3.08,11.77,15.63,19.49,15.9,12.01,3.62,-7.06,-16.44
Yagry,64.59417,39.81028,RU,40000,469707,Yagry,-10.02,-13.38,-3.85,-1.84,3.84,11.75,17.11,13.2,8.74,2.53,-5.81,-7.11
Yablonovskiy,44.98901,38.94324,RU,33431,469844,Yablonovskiy,0.99,4.77,6.54,14.15,16.58,19.01,24.9,21.99,17.83,10.92,7.91,0.33
Vyshniy Volochëk,57.59125,34.56453,RU,53800,470252,Vyshniy Volochëk,-11.69,-9.74,-2.74,3.36,11.44,15.39,18.27,16.17,10.5,4.45,-2.48,-6.55
Vyselki,45.58128,39.66409,RU,18746,470338,Vyselki,-0.47,3.21,5.84,13.79,16.76,18.88,25.71,21.79,17.28,10.45,6.86,-0.41
Vyksa,55.3175,42.17444,RU,61664,470444,Vyksa,-11.38,-7.25,-3.43,5.76,12.08,16.41,20.49,17.26,11.64,5.46,-3.28,-9.24
Vykhino-Zhulebino,55.70196,37.81178,RU,216000,470451,Vykhino-Zhulebino,-11.26,-9.23,-4.16,4.07,12.03,15.82,19.48,16.55,11.45,5.31,-3.09,-6.8
Vyborg,60.70763,28.75283,RU,78633,470546,Vyborg,-9.39,-10.24,-1.78,1.46,9.12,16.89,17.58,16.19,10.35,3.81,-1.58,-4.03
Vyazniki,56.24057,42.15563,RU,39243,470666,Vyazniki,-11.49,-7.87,-3.74,5.22,11.51,16.21,19.89,16.92,11.16,5.34,-3.72,-9.49
Vyaz’ma,55.20997,34.29695,RU,55500,470676,Vyaz’ma,-11.31,-9.25,-3.56,3.45,12.04,15.39,18.56,15.77,10.86,4.68,-2.09,-5.87
Vyatskiye Polyany,56.22602,51.06557,RU,39534,470734,Vyatskiye Polyany,-15.28,-10.51,-5.2,3.84,12.15,16.1,20.21,16.34,11.59,4.22,-6.3,-14.75
Vsevolozhsk,60.01512,30.67314,RU,48224,471101,Vsevolozhsk,-10.5,-9.49,-2.01,2.5,9.28,16.14,17.76,16.01,10.78,4.3,-1.86,-5.14
Votkinsk,57.04865,53.98717,RU,98633,471430,Votkinsk,-15.84,-10.19,-4.11,2.7,11.27,15.71,19.63,15.57,11.87,3.87,-6.93,-15.29
Vostryakovo,55.66667,37.45,RU,30000,471456,Vostryakovo,-11.51,-9.7,-4.5,3.67,11.78,15.49,19.17,16.27,11.18,5.08,-3.23,-6.83
Vostryakovo,55.39934,37.80829,RU,16509,471457,Vostryakovo,-10.89,-8.43,-3.45,4.67,12.19,15.89,19.56,16.48,11.47,5.34,-2.79,-6.55
Voskresensk,55.31733,38.65264,RU,77086,471656,Voskresensk,-10.87,-8.11,-3.65,4.97,12.29,16.25,19.97,16.79,11.72,5.52,-2.9,-6.83
Voronezh,51.67204,39.1843,RU,1047549,472045,Voronezh,-9.2,-5.88,-2.72,8.76,13.99,17.33,21.72,17.58,12.47,6.42,-0.0,-5.91
Altuf’yevskiy,55.88333,37.58333,RU,54000,472072,Altuf’yevskiy,-11.29,-9.15,-3.99,3.97,11.82,15.52,19.2,16.3,11.22,5.02,-3.24,-7.0
Vorob’yovo,55.71667,37.53333,RU,30000,472079,Vorob’yovo,-11.51,-9.7,-4.5,3.67,11.78,15.49,19.17,16.27,11.18,5.08,-3.23,-6.83
Volzhsky,48.78583,44.77973,RU,323293,472231,Volzhsky,-8.52,-3.15,0.8,11.79,16.93,20.21,26.0,20.37,15.45,8.14,1.98,-6.89
Volzhsk,55.86638,48.3594,RU,58000,472234,Volzhsk,-14.06,-9.36,-4.95,3.93,12.0,16.19,20.55,17.03,11.75,4.63,-4.84,-12.76
Vol’sk,52.04541,47.37993,RU,70500,472278,Vol’sk,-12.58,-7.85,-4.3,7.34,14.47,17.45,23.0,18.38,13.2,5.54,-1.0,-13.43
Volokolamsk,56.03361,35.96944,RU,25000,472433,Volokolamsk,-10.86,-8.65,-2.87,4.33,12.38,15.68,19.11,16.22,11.16,5.15,-2.36,-6.03
Vologda,59.2239,39.88398,RU,312420,472459,Vologda,-12.39,-10.63,-4.17,2.91,9.29,14.62,18.28,15.59,10.39,4.29,-4.31,-8.81
Volkhov,59.9258,32.33819,RU,45673,472722,Volkhov,-11.48,-9.75,-1.9,3.02,9.88,16.11,18.15,16.13,10.75,4.36,-2.23,-5.85
Nagornyy,55.65,37.61667,RU,76000,472732,Nagornyy,-11.3,-9.14,-4.1,4.06,11.84,15.53,19.21,16.26,11.2,5.08,-3.14,-6.78
Volgorechensk,57.43931,41.15553,RU,17700,472750,Volgorechensk,-12.26,-9.32,-4.48,3.49,10.53,15.07,19.12,16.22,10.9,4.83,-4.19,-9.46
Volgograd,48.71939,44.50183,RU,1013533,472757,Volgograd,-8.52,-3.16,0.77,11.71,16.48,19.78,25.69,20.04,15.13,7.93,1.84,-6.78
Volgodonsk,47.51361,42.15139,RU,167731,472761,Volgodonsk,-5.41,-0.9,2.77,12.86,17.2,19.81,25.97,20.85,16.25,9.23,4.22,-3.31
Novovladykino,55.85,37.58333,RU,50000,473127,Novovladykino,-11.15,-9.0,-3.84,4.11,11.97,15.67,19.35,16.45,11.37,5.17,-3.09,-6.85
Vladimir,56.13655,40.39658,RU,357024,473247,Vladimir,-11.5,-8.58,-4.16,4.35,11.34,15.84,19.47,16.28,11.06,5.02,-3.83,-8.61
Vladikavkaz,43.03667,44.66778,RU,306258,473249,Vladikavkaz,-2.09,0.79,3.97,11.39,13.82,15.44,19.38,17.44,13.03,6.98,4.94,-1.99
Vidnoye,55.55239,37.70967,RU,51721,473778,Vidnoye,-11.32,-9.18,-4.16,4.1,11.91,15.65,19.32,16.38,11.3,5.18,-3.14,-6.76
Vichuga,57.21276,41.93012,RU,39071,473788,Vichuga,-12.39,-9.19,-4.66,3.51,10.49,15.27,19.19,16.37,10.68,4.74,-4.49,-9.89
Veshnyaki,55.72393,37.81952,RU,122000,473972,Veshnyaki,-11.41,-9.38,-4.31,3.92,11.88,15.67,19.33,16.4,11.31,5.16,-3.24,-6.95
Vereshchagino,58.07894,54.6557,RU,22451,475777,Vereshchagino,-17.58,-11.01,-4.51,1.42,9.62,14.02,18.25,13.76,10.64,2.4,-8.72,-15.29
Venëv,54.35533,38.26843,RU,15700,475881,Venëv,-10.74,-8.16,-4.46,4.71,12.3,16.15,20.03,16.5,11.61,5.52,-2.32,-6.25
Vel’sk,61.07006,42.0983,RU,23126,475938,Vel’sk,-12.41,-11.65,-4.16,1.86,8.05,14.38,18.09,14.65,10.0,3.8,-6.34,-9.17
Velikiy Ustyug,60.76186,46.31352,RU,32642,476062,Velikiy Ustyug,-13.36,-10.34,-3.59,2.33,8.44,14.5,18.85,14.87,10.61,3.66,-7.77,-9.66
Velikiye Luki,56.34,30.54517,RU,103149,476077,Velikiye Luki,-10.67,-9.13,-1.38,4.54,12.94,16.39,18.45,16.42,11.57,5.08,-0.35,-4.87
Vatutino,55.88441,37.69055,RU,50000,476368,Vatutino,-11.04,-8.83,-3.69,4.22,12.02,15.73,19.4,16.48,11.41,5.19,-3.05,-6.89
Valuyki,50.2035,38.1067,RU,35887,477192,Valuyki,-8.09,-4.6,-0.82,10.74,15.41,18.19,23.61,18.83,13.88,7.54,2.18,-4.38
Valday,57.97826,33.24737,RU,18549,477301,Valday,-11.83,-9.89,-2.42,3.38,11.31,15.51,17.67,15.77,10.3,3.96,-2.3,-6.52
Vagonoremont,55.9,37.55,RU,50000,477377,Vagonoremont,-11.35,-9.2,-4.04,3.91,11.77,15.47,19.15,16.25,11.17,4.97,-3.29,-7.05
Uzlovaya,53.98179,38.17118,RU,58458,477494,Uzlovaya,-10.59,-8.1,-4.46,5.02,12.41,16.06,19.97,16.33,11.53,5.49,-1.97,-6.09
Uvarovo,51.98486,42.26147,RU,28771,477626,Uvarovo,-9.88,-6.52,-3.52,7.94,13.82,17.26,22.12,17.92,12.44,6.03,-1.02,-8.89
Uva,56.99081,52.18517,RU,19143,477656,Uva,-15.6,-10.02,-4.11,3.61,11.65,15.76,20.07,15.79,11.61,3.83,-7.03,-14.78
Ust’-Labinsk,45.21077,39.68914,RU,44088,478044,Ust’-Labinsk,-0.05,4.14,6.36,13.95,16.71,18.83,25.29,21.82,17.68,10.57,7.33,-0.26
Ust’-Katav,54.9366,58.1757,RU,25046,478071,Ust’-Katav,-14.42,-9.34,-3.54,3.38,10.73,14.39,17.91,15.11,11.64,2.19,-6.55,-16.69
Ust’-Dzheguta,44.0834,41.9763,RU,34001,478130,Ust’-Dzheguta,-3.82,-0.03,3.63,11.4,13.57,15.81,20.37,18.1,13.21,6.68,4.19,-4.11
Usman’,52.04662,39.7288,RU,19910,478317,Usman’,-9.3,-6.0,-3.01,8.6,13.93,17.28,21.65,17.58,12.46,6.39,-0.22,-6.2
Uryupinsk,50.8047,42.0138,RU,41644,478544,Uryupinsk,-8.73,-5.05,-2.01,10.29,14.81,18.34,23.51,18.86,13.62,6.86,0.15,-7.66
Urus-Martan,43.13053,45.53791,RU,41480,478581,Urus-Martan,-1.55,1.82,5.11,12.77,15.68,17.58,21.84,19.63,14.95,8.75,6.28,-1.75
Uritsk,59.83889,30.17528,RU,55037,478724,Uritsk,-10.54,-9.08,-1.93,2.82,9.64,16.05,17.52,15.88,10.65,4.16,-1.69,-5.06
Unecha,52.84294,32.68761,RU,29028,479028,Unecha,-9.18,-8.05,-1.92,5.7,13.4,16.84,20.06,16.48,12.04,5.39,0.93,-3.94
Ulyanovsk,54.32824,48.38657,RU,626540,479123,Ulyanovsk,-14.2,-9.61,-5.69,3.78,12.11,15.71,20.91,16.75,11.56,4.24,-3.87,-13.31
Ukhta,63.56705,53.68348,RU,102187,479411,Ukhta,-18.52,-13.07,-4.06,-2.36,4.05,10.64,18.31,12.77,9.78,1.39,-10.02,-11.42
Uglich,57.5275,38.33167,RU,37732,479532,Uglich,-11.74,-9.44,-3.37,3.66,10.92,14.98,18.74,16.0,11.14,4.84,-3.69,-7.87
Ufa,54.74306,55.96779,RU,1120547,479561,Ufa,-15.66,-10.41,-4.49,4.52,12.25,15.9,19.84,16.56,12.35,3.4,-6.13,-17.36
Uchkeken,43.93778,42.51167,RU,15118,479687,Uchkeken,-4.14,-1.23,2.37,9.9,11.93,14.09,18.49,16.26,11.65,5.27,3.31,-4.88
Uchaly,54.35806,59.43611,RU,37788,479703,Uchaly,-15.89,-12.85,-5.67,2.2,9.0,13.6,16.86,13.59,10.54,0.72,-8.85,-17.32
Tyrnyauz,43.38278,42.91833,RU,20104,479933,Tyrnyauz,-5.0,-1.58,0.91,7.76,10.46,12.92,16.92,15.04,11.08,3.81,1.96,-5.92
Tver,56.85836,35.90057,RU,420065,480060,Tver,-11.38,-9.4,-3.1,4.0,11.98,15.59,19.24,16.55,11.0,4.98,-2.47,-6.6
Tuymazy,54.60666,53.7097,RU,68829,480089,Tuymazy,-15.25,-10.16,-4.58,4.78,12.73,16.08,20.17,16.62,12.04,3.81,-5.12,-15.9
Tutayev,57.88529,39.5406,RU,43828,480122,Tutayev,-12.06,-9.63,-3.95,3.38,10.28,14.68,18.61,15.76,10.89,4.71,-4.27,-8.65
Tula,54.19609,37.61822,RU,482873,480562,Tula,-10.54,-8.19,-4.45,4.6,12.62,16.32,20.16,16.62,11.78,5.75,-1.7,-5.66
Tuchkovo,55.60111,36.46806,RU,16826,480685,Tuchkovo,-11.23,-8.98,-3.64,3.93,12.1,15.55,19.01,15.94,10.9,4.89,-2.89,-6.49
Tuapse,44.1053,39.0802,RU,64234,480716,Tuapse,5.27,7.38,8.5,14.46,16.54,19.32,24.75,21.71,17.95,12.14,10.42,4.44
Tsimlyansk,47.64611,42.10194,RU,15341,480876,Tsimlyansk,-5.93,-1.7,1.56,11.72,17.06,19.63,25.5,20.67,16.03,8.8,3.84,-3.46
Trubchevsk,52.58031,33.76574,RU,16100,481350,Trubchevsk,-9.13,-7.6,-1.85,6.31,13.61,16.96,20.47,16.6,12.07,5.63,0.72,-4.09
Troparëvo,55.65625,37.48496,RU,118000,481453,Troparëvo,-11.61,-9.8,-4.6,3.57,11.68,15.39,19.07,16.17,11.08,4.98,-3.33,-6.93
Troitskaya,43.30664,44.98395,RU,23745,481605,Troitskaya,-2.12,1.09,4.76,12.77,15.79,18.05,22.59,20.38,15.15,8.39,5.67,-2.08
Troitsk,55.48498,37.30736,RU,37591,481608,Troitsk,-10.94,-8.63,-3.41,4.49,12.19,15.76,19.37,16.33,11.34,5.23,-2.77,-6.46
Tosno,59.54,30.8775,RU,40198,481964,Tosno,-11.73,-9.61,-1.93,3.14,10.37,16.29,17.7,15.86,10.54,4.22,-1.87,-5.61
Torzhok,57.0436,34.96221,RU,48546,481985,Torzhok,-11.2,-9.21,-2.8,3.84,11.87,15.5,18.78,16.31,10.68,4.76,-2.37,-6.3
Tomilino,55.65619,37.94713,RU,28310,482260,Tomilino,-11.1,-8.87,-3.93,4.33,12.1,15.89,19.54,16.6,11.52,5.34,-3.02,-6.8
Tolyatti,53.5303,49.3461,RU,702879,482283,Tolyatti,-13.89,-8.99,-4.74,4.4,13.46,16.76,21.99,17.95,12.86,4.99,-2.64,-13.65
Timashyovsk,45.61694,38.94528,RU,53940,482965,Timashyovsk,0.05,3.49,5.86,13.9,16.71,19.11,25.51,21.69,17.53,10.82,7.16,0.03
Tikhvin,59.64511,33.52937,RU,62075,483019,Tikhvin,-11.94,-9.93,-2.18,3.11,10.6,15.9,18.11,16.05,10.45,3.97,-2.65,-6.44
Tikhoretsk,45.85472,40.12528,RU,64387,483029,Tikhoretsk,-1.34,2.1,5.21,13.61,16.82,18.87,26.05,21.63,17.03,10.15,6.23,-1.11
Teykovo,56.85796,40.53692,RU,36015,483137,Teykovo,-11.63,-8.78,-3.86,4.06,11.03,15.43,19.31,16.3,11.1,4.93,-4.0,-8.93
Terek,43.48333,44.13611,RU,21180,483495,Terek,-2.97,0.73,5.03,13.35,16.11,18.15,22.67,20.49,15.25,8.18,5.4,-2.69
Tyoply Stan,55.62047,37.49338,RU,125000,483551,Tyoply Stan,-11.45,-9.2,-4.17,3.88,11.57,15.22,18.89,15.94,10.9,4.78,-3.32,-6.98
Temryuk,45.27055,37.38716,RU,36546,483661,Temryuk,1.97,4.34,5.65,12.32,16.09,19.44,24.97,21.92,17.85,11.75,8.38,2.36
Tekstil’shchiki,55.70033,37.74271,RU,100000,483826,Tekstil’shchiki,-11.42,-9.6,-4.39,3.77,11.95,15.76,19.41,16.48,11.37,5.27,-3.16,-6.81
Tbilisskaya,45.36333,40.19,RU,24446,483883,Tbilisskaya,-0.51,3.5,5.9,13.83,16.79,18.74,25.55,21.64,17.34,10.31,6.83,-0.63
Tambov,52.73169,41.44326,RU,293661,484646,Tambov,-10.06,-6.44,-3.36,7.43,13.51,17.09,21.56,17.68,12.27,6.02,-1.13,-7.53
Agidel’,55.9077,53.9355,RU,19217,484856,Agidel’,-15.55,-10.74,-4.96,3.65,12.41,16.19,20.02,16.48,12.19,3.88,-6.65,-16.32
Taganrog,47.23627,38.9053,RU,279056,484907,Taganrog,-3.41,0.67,3.51,12.88,17.02,19.45,25.2,21.12,16.69,9.73,5.46,-1.85
Taganskiy,55.73333,37.66667,RU,116000,484912,Taganskiy,-11.37,-9.55,-4.34,3.82,12.0,15.81,19.46,16.53,11.42,5.32,-3.11,-6.77
Syzran’,53.1585,48.4681,RU,189338,484972,Syzran’,-13.23,-8.7,-4.6,5.85,13.92,16.8,21.99,17.9,12.82,5.29,-2.0,-13.33
Syktyvkar,61.664,50.815,RU,245083,485239,Syktyvkar,-16.1,-11.03,-4.52,-0.29,7.05,12.78,18.28,13.38,10.18,2.75,-9.81,-11.1
Svobody,44.02556,43.05028,RU,17661,485432,Svobody,-3.05,0.1,3.69,11.97,14.58,16.76,21.69,19.31,14.04,7.42,4.9,-3.32
Sviblovo,55.85,37.63333,RU,60000,485630,Sviblovo,-11.15,-9.0,-3.84,4.11,11.97,15.67,19.35,16.45,11.37,5.17,-3.09,-6.85
Svetogorsk,61.11213,28.86321,RU,15733,485639,Svetogorsk,-10.42,-11.68,-2.24,1.21,8.97,17.32,17.57,15.84,9.93,3.51,-2.46,-4.79
Svetlyy,54.67501,20.13473,RU,22119,485660,Svetlyy,-6.24,-5.8,0.0,4.6,11.26,15.68,16.71,17.01,13.2,7.86,3.89,0.8
Svetlograd,45.33528,42.85472,RU,39727,485698,Svetlograd,-2.08,1.36,4.76,13.72,17.43,19.94,27.27,21.76,17.02,9.54,6.28,-1.83
Suvorovskaya,44.1901,42.6595,RU,17261,485871,Suvorovskaya,-2.49,0.39,4.12,12.15,14.63,16.76,21.77,19.4,14.3,7.6,5.15,-3.2
Suvorov,54.1223,36.49657,RU,21059,485888,Suvorov,-10.52,-8.41,-3.98,4.45,12.59,16.09,19.78,16.34,11.52,5.58,-1.31,-5.41
Surovikino,48.60734,42.84621,RU,20677,486071,Surovikino,-7.49,-2.65,1.24,12.03,16.45,19.45,25.78,20.41,15.28,8.27,2.62,-5.19
Surkhakhi,43.1875,44.90194,RU,16215,486110,Surkhakhi,-2.5,0.7,4.08,11.55,14.13,15.96,20.03,18.08,13.5,7.32,5.2,-2.25
Sukhinichi,54.09989,35.34254,RU,16100,486665,Sukhinichi,-10.69,-8.66,-3.66,4.2,12.53,16.02,19.47,16.17,11.36,5.35,-0.93,-5.13
Stupino,54.90083,38.07083,RU,60999,486968,Stupino,-10.86,-8.22,-3.8,4.68,12.27,16.08,19.82,16.45,11.49,5.37,-2.71,-6.49
Strunino,56.37328,38.58321,RU,15483,487095,Strunino,-11.31,-8.89,-3.57,4.07,11.31,15.16,19.01,16.02,11.24,4.85,-3.68,-7.9
Stroitel’,50.78816,36.47751,RU,18636,487147,Stroitel’,-8.66,-6.21,-1.72,8.49,14.28,17.12,22.23,17.11,12.32,6.26,0.99,-4.96
Strogino,55.81838,37.41224,RU,152000,487150,Strogino,-10.93,-8.83,-3.63,4.28,12.22,15.85,19.5,16.6,11.52,5.35,-2.8,-6.52
Sterlitamak,53.62462,55.95015,RU,267231,487495,Sterlitamak,-14.76,-9.94,-4.43,4.99,12.47,16.09,20.44,17.02,12.85,3.47,-5.29,-16.1
Stavropol’,45.0428,41.9734,RU,433931,487846,Stavropol’,-2.92,0.47,3.36,11.75,14.38,16.38,22.7,18.89,14.43,7.25,4.63,-3.1
Staryy Oskol,51.29667,37.84167,RU,226977,487928,Staryy Oskol,-8.76,-5.69,-1.93,9.09,14.48,17.37,22.24,17.77,12.84,6.82,0.98,-5.01
Staroshcherbinovskaya,46.6268,38.6739,RU,18785,488635,Staroshcherbinovskaya,-1.62,1.85,4.69,13.54,17.0,19.34,25.87,21.61,17.34,10.55,6.1,-1.12
Starominskaya,46.53,39.04972,RU,30461,488742,Starominskaya,-1.83,1.61,4.68,13.46,16.8,18.96,25.67,21.31,17.09,10.25,5.82,-1.68
Starodub,52.58501,32.76314,RU,18539,488852,Starodub,-9.11,-7.92,-1.92,5.89,13.39,16.76,20.13,16.5,12.03,5.42,1.03,-3.99
Staraya Russa,57.99439,31.36081,RU,34303,489088,Staraya Russa,-11.52,-9.15,-1.41,4.7,12.44,16.98,18.66,16.71,11.3,5.02,-0.92,-5.34
Staraya Kupavna,55.80799,38.1805,RU,22099,489162,Staraya Kupavna,-11.01,-8.67,-3.77,4.3,11.98,15.83,19.46,16.48,11.44,5.27,-3.11,-7.07
Staraya Derevnya,59.98834,30.24296,RU,35000,489226,Staraya Derevnya,-9.42,-8.55,-1.92,1.98,8.53,15.66,17.54,16.12,10.97,4.22,-1.42,-4.51
Sovetsk,57.58475,48.95844,RU,17869,490067,Sovetsk,-15.01,-10.44,-4.94,2.82,10.97,15.57,19.9,16.47,11.08,4.09,-6.86,-12.75
Sovetsk,55.08392,21.87851,RU,43309,490068,Sovetsk,-8.17,-7.51,-0.28,4.44,12.28,16.52,16.73,17.0,12.44,7.22,3.04,-0.41
Sosnovyy Bor,59.8996,29.08574,RU,68563,490172,Sosnovyy Bor,-8.71,-7.37,-1.32,2.48,8.08,14.07,17.05,16.07,11.09,4.18,-0.57,-3.89
Sosnovaya Polyana,59.83528,30.14667,RU,48271,490377,Sosnovaya Polyana,-10.31,-8.85,-1.84,2.86,9.56,15.98,17.5,15.89,10.69,4.17,-1.58,-4.93
Sosnogorsk,63.60229,53.88175,RU,29343,490391,Sosnogorsk,-18.79,-13.19,-4.21,-2.54,3.9,10.47,18.23,12.64,9.68,1.23,-10.22,-11.58
Sortavala,61.71233,30.70953,RU,20760,490466,Sortavala,-9.11,-10.01,-2.14,0.99,7.47,15.71,17.2,15.75,9.95,3.78,-2.53,-4.57
Sorochinsk,52.4338,53.1583,RU,30731,490554,Sorochinsk,-15.12,-10.13,-4.57,6.88,14.26,17.37,22.35,18.59,13.44,4.62,-2.85,-15.37
Solntsevo,55.63711,37.38115,RU,120000,490971,Solntsevo,-11.01,-8.76,-3.66,4.28,11.99,15.6,19.24,16.27,11.25,5.15,-2.89,-6.56
Solnechnogorsk,56.18333,36.98333,RU,58891,490996,Solnechnogorsk,-11.22,-9.0,-3.42,4.11,11.86,15.29,18.97,15.99,11.05,4.85,-3.06,-6.85
Sol’-Iletsk,51.1631,54.99176,RU,27419,491019,Sol’-Iletsk,-16.36,-10.47,-4.83,8.13,14.9,17.99,23.29,19.37,14.53,4.58,-1.94,-15.02
Solikamsk,59.6316,56.7685,RU,100812,491023,Solikamsk,-18.84,-10.85,-4.13,0.53,7.8,12.68,18.24,13.94,11.18,2.41,-9.32,-14.25
Sokol’niki,55.80202,37.67159,RU,57000,491250,Sokol’niki,-11.3,-9.16,-4.1,4.0,11.9,15.65,19.31,16.4,11.3,5.12,-3.2,-6.97
Sokol,55.8,37.51667,RU,57000,491280,Sokol,-11.36,-9.46,-4.23,3.83,11.94,15.66,19.31,16.42,11.31,5.17,-3.15,-6.82
Sokol,59.46167,40.12056,RU,42174,491281,Sokol,-12.26,-10.67,-3.96,2.78,9.12,14.66,18.29,15.49,10.23,4.19,-4.59,-8.85
Sofrino,56.15,37.93333,RU,15265,491352,Sofrino,-11.2,-8.93,-3.58,4.03,11.74,15.44,19.14,16.17,11.19,4.88,-3.37,-7.37
Sochi,43.59917,39.72569,RU,327608,491422,Sochi,6.9,8.32,9.95,14.61,16.62,19.07,23.49,21.48,18.52,13.69,11.42,6.11
Sobinka,55.98553,40.01111,RU,20458,491480,Sobinka,-11.26,-8.54,-3.96,4.61,11.68,16.06,19.71,16.54,11.43,5.23,-3.61,-8.21
Smolensk,54.77944,32.04371,RU,330025,491687,Smolensk,-11.13,-9.41,-2.61,3.41,12.42,15.6,18.5,15.75,11.05,4.41,-0.48,-5.15
Slobodskoy,58.73222,50.17722,RU,32361,491882,Slobodskoy,-15.44,-10.09,-4.1,1.87,10.03,14.53,19.5,15.69,10.8,3.58,-7.6,-12.38
Slobodka,55.86667,37.58333,RU,20000,491895,Slobodka,-11.25,-9.1,-3.94,4.01,11.87,15.57,19.25,16.35,11.27,5.07,-3.19,-6.95
Slavyansk-na-Kubani,45.2558,38.1256,RU,65196,492094,Slavyansk-na-Kubani,1.03,4.22,6.04,13.84,16.69,19.33,25.57,21.86,17.76,11.21,7.61,0.83
Slantsy,59.11817,28.09137,RU,36209,492162,Slantsy,-11.17,-8.99,-1.59,3.17,10.75,16.49,17.69,16.22,10.86,4.58,-0.85,-4.85
Skopin,53.82486,39.55053,RU,24357,492376,Skopin,-10.27,-7.08,-3.71,6.17,12.88,16.61,20.63,16.96,11.99,5.9,-1.59,-6.15
Skhodnya,55.94806,37.29778,RU,18897,492448,Skhodnya,-11.19,-9.07,-3.74,3.96,11.78,15.36,19.0,16.07,11.03,4.86,-3.17,-6.93
Sim,54.993,57.6982,RU,15632,492944,Sim,-14.56,-9.11,-3.09,3.51,11.63,15.04,18.73,15.74,12.23,2.83,-6.02,-16.35
Sibay,52.71806,58.66583,RU,61590,493160,Sibay,-15.79,-12.58,-5.27,4.39,11.41,15.27,18.93,15.43,11.93,1.55,-7.15,-16.44
Shuya,56.84865,41.38833,RU,60705,493231,Shuya,-11.84,-8.72,-4.21,4.11,11.0,15.71,19.61,16.5,10.91,5.06,-4.07,-9.37
Shushary,59.80917,30.38167,RU,15503,493316,Shushary,-10.91,-9.45,-2.03,2.87,9.78,16.16,17.57,15.85,10.57,4.15,-1.84,-5.27
Shumerlya,55.5005,46.41288,RU,35220,493463,Shumerlya,-13.02,-8.29,-4.4,5.11,11.79,15.9,20.36,16.99,11.49,4.63,-4.11,-11.67
Mikhaylovsk,45.12833,42.02556,RU,59198,493702,Mikhaylovsk,-2.12,1.31,4.14,12.59,15.37,17.32,23.92,19.8,15.34,8.16,5.52,-2.21
Shilovo,54.3204,40.874,RU,16159,494427,Shilovo,-10.76,-7.07,-3.74,6.2,12.76,16.96,21.19,17.58,12.08,5.81,-2.45,-7.41
Sheksna,59.20998,38.51066,RU,21197,495062,Sheksna,-12.32,-10.65,-3.71,2.74,9.76,14.93,18.51,15.92,10.48,4.31,-4.21,-8.25
Shebekino,50.40967,36.9136,RU,45194,495112,Shebekino,-7.97,-5.15,-0.93,9.73,15.14,17.93,23.22,18.15,13.37,7.19,1.98,-4.21
Shchukino,55.8,37.45,RU,102000,495136,Shchukino,-11.31,-9.41,-4.17,3.88,11.99,15.71,19.36,16.47,11.36,5.22,-3.1,-6.77
Shchigry,51.87555,36.90432,RU,19198,495206,Shchigry,-9.09,-6.61,-2.57,7.56,13.94,16.88,21.37,16.99,12.04,6.21,0.21,-5.09
Shcherbinka,55.49972,37.55972,RU,28065,495260,Shcherbinka,-11.15,-8.78,-3.8,4.42,12.04,15.71,19.37,16.38,11.34,5.22,-2.96,-6.62
Shchelkovo,55.92497,37.97218,RU,113000,495344,Shchelkovo,-11.04,-8.78,-3.69,4.21,11.98,15.77,19.42,16.45,11.41,5.16,-3.17,-7.1
Shchëkino,54.00513,37.52194,RU,60700,495394,Shchëkino,-10.73,-8.41,-4.69,4.4,12.24,15.8,19.66,16.16,11.35,5.38,-1.81,-5.86
Shatura,55.57253,39.53682,RU,30069,495518,Shatura,-10.79,-7.89,-3.37,4.91,12.23,16.27,19.91,16.74,11.67,5.36,-3.15,-7.47
Shar’ya,58.36909,45.51558,RU,29800,495619,Shar’ya,-13.4,-9.85,-4.54,2.96,10.1,14.71,18.76,15.93,10.62,4.05,-6.23,-11.1
Shali,43.14806,45.90194,RU,25000,495957,Shali,-1.41,1.8,5.24,12.69,15.88,18.05,22.44,20.23,15.33,9.01,6.2,-1.73
Shakhun’ya,57.67579,46.61136,RU,22400,496012,Shakhun’ya,-13.93,-9.83,-4.67,2.99,10.5,15.16,19.02,15.97,10.58,3.97,-6.3,-11.82
Shakhty,47.70911,40.21443,RU,221312,496015,Shakhty,-6.0,-1.04,2.15,12.49,16.56,18.65,25.09,20.3,15.56,8.46,3.69,-4.12
Severskaya,44.85407,38.67686,RU,22849,496267,Severskaya,1.0,4.68,6.29,13.85,16.17,18.61,24.36,21.48,17.38,10.65,7.77,0.03
Severo-Zadonsk,54.03481,38.40172,RU,16569,496269,Severo-Zadonsk,-10.81,-8.19,-4.7,4.92,12.32,16.03,19.95,16.31,11.48,5.43,-2.12,-6.28
Severoural’sk,60.15328,59.95205,RU,33500,496275,Severoural’sk,-21.37,-12.66,-4.48,-0.73,4.87,10.96,17.03,12.41,10.38,-0.08,-12.85,-14.97
Severomorsk,69.06889,33.41622,RU,53921,496278,Severomorsk,-10.42,-16.93,-5.46,-5.24,2.29,10.4,15.36,12.74,6.54,1.05,-7.72,-8.24
Severodvinsk,64.5635,39.8302,RU,194292,496285,Severodvinsk,-10.02,-13.38,-3.85,-1.84,3.84,11.75,17.11,13.2,8.74,2.53,-5.81,-7.11
Severnyy,55.93583,37.54889,RU,200000,496348,Severnyy,-11.48,-9.45,-4.23,3.74,11.68,15.37,19.04,16.16,11.07,4.9,-3.37,-7.07
Setun’,55.71667,37.41667,RU,20000,496456,Setun’,-11.0,-8.98,-3.77,4.19,12.12,15.76,19.41,16.48,11.42,5.3,-2.84,-6.5
Sestroretsk,60.09801,29.96378,RU,37248,496478,Sestroretsk,-9.31,-8.6,-1.78,2.24,8.83,15.78,17.47,16.0,10.74,3.99,-1.61,-4.54
Sertolovo,60.1444,30.20165,RU,43622,496519,Sertolovo,-9.82,-9.09,-2.05,2.13,8.87,15.73,17.35,15.79,10.53,3.85,-1.95,-4.91
Serpukhov,54.91578,37.41114,RU,128158,496527,Serpukhov,-10.68,-8.23,-3.71,4.69,12.51,16.25,19.86,16.55,11.61,5.65,-2.24,-5.98
Sergiyev Posad,56.3,38.13333,RU,109252,496638,Sergiyev Posad,-11.48,-9.17,-3.79,3.87,11.29,15.0,18.79,15.84,11.0,4.67,-3.68,-7.7
Sergach,55.53079,45.46611,RU,22361,496802,Sergach,-12.78,-8.4,-4.88,4.91,11.6,15.68,19.92,16.65,11.21,4.55,-4.15,-11.43
Serdobsk,52.45861,44.21689,RU,36652,496934,Serdobsk,-11.3,-7.25,-4.2,6.59,13.04,16.28,20.93,17.12,11.72,5.09,-2.02,-11.01
Semiluki,51.6821,39.0302,RU,26257,497206,Semiluki,-8.75,-5.5,-2.28,9.09,14.33,17.66,22.08,17.9,12.81,6.77,0.41,-5.42
Semikarakorsk,47.51675,40.80577,RU,23583,497218,Semikarakorsk,-5.29,-0.51,3.06,13.3,17.42,19.62,26.09,21.08,16.36,9.22,4.36,-3.55
Semënovskoye,55.68333,37.55,RU,50000,497271,Semënovskoye,-11.57,-9.76,-4.56,3.61,11.76,15.52,19.19,16.27,11.17,5.07,-3.3,-6.92
Semënov,56.78749,44.49297,RU,24300,497450,Semënov,-12.49,-8.6,-4.09,4.38,11.18,15.77,19.76,16.7,11.08,4.89,-4.69,-10.98
Sel’tso,53.36831,34.10328,RU,18167,497610,Sel’tso,-9.93,-8.0,-2.3,5.34,13.28,16.97,20.29,16.68,11.86,5.56,0.16,-4.23
Segezha,63.74147,34.32218,RU,33354,497927,Segezha,-10.7,-13.91,-3.95,-0.97,3.23,14.49,18.46,14.65,9.16,2.52,-6.0,-7.57
Satka,55.0425,59.04,RU,49384,498418,Satka,-14.82,-9.77,-4.32,2.73,9.88,13.8,17.15,14.26,11.24,1.53,-7.4,-16.58
Sarov,54.93583,43.32352,RU,88000,498525,Sarov,-11.72,-7.23,-3.76,5.51,12.04,16.3,20.41,17.19,11.57,4.99,-3.34,-10.13
Saratov,51.54056,46.00861,RU,844858,498677,Saratov,-11.4,-7.28,-4.25,7.26,14.33,17.51,22.58,18.38,12.92,5.81,-0.73,-12.22
Sarapul,56.47633,53.79782,RU,98830,498687,Sarapul,-16.01,-10.85,-4.89,2.9,11.6,15.63,19.47,15.74,11.79,3.6,-7.23,-16.28
Saransk,54.1838,45.1749,RU,318841,498698,Saransk,-12.77,-7.91,-4.69,5.6,12.2,15.8,20.7,16.88,11.45,4.56,-3.23,-11.34
Saraktash,51.78771,56.36091,RU,17413,498708,Saraktash,-16.65,-10.85,-5.21,6.92,13.75,16.83,21.77,18.32,13.99,3.71,-4.1,-15.9
Saint Petersburg,59.93863,30.31413,RU,5351935,498817,Saint Petersburg,-10.31,-9.23,-2.17,2.11,8.92,16.05,17.61,16.01,10.75,4.18,-1.71,-4.99
Samara,53.20007,50.15,RU,1163399,499099,Samara,-14.7,-9.43,-4.73,5.84,13.84,16.76,21.78,17.75,12.76,4.66,-2.95,-14.98
Sal’sk,46.4747,41.54114,RU,61000,499161,Sal’sk,-2.94,0.65,4.22,13.71,17.72,19.93,26.89,21.9,17.02,9.93,5.39,-2.27
Salavat,53.38365,55.90773,RU,159893,499292,Salavat,-15.17,-10.48,-4.97,4.93,12.46,16.02,20.56,17.12,12.93,3.45,-5.32,-16.11
Safonovo,55.11091,33.23728,RU,46000,499453,Safonovo,-11.18,-9.02,-2.83,3.78,12.32,15.53,18.56,15.89,11.03,4.7,-1.17,-5.28
Rzhev,56.26241,34.32817,RU,62246,499717,Rzhev,-11.1,-9.02,-2.78,3.88,12.13,15.47,18.61,16.03,10.76,4.67,-2.2,-5.92
Rybnoye,54.72774,39.51731,RU,19159,499975,Rybnoye,-10.51,-7.35,-3.63,5.57,12.63,16.83,20.54,17.12,11.98,5.87,-2.34,-6.62
Rybinsk,58.0446,38.84259,RU,216724,500004,Rybinsk,-11.63,-9.47,-3.38,3.53,10.65,15.04,18.87,16.12,11.18,4.96,-3.67,-7.97
Rybatskoye,59.8393,30.49873,RU,55076,500019,Rybatskoye,-11.01,-9.5,-1.99,2.93,9.87,16.25,17.64,15.89,10.59,4.19,-1.86,-5.3
Ryazhsk,53.7038,40.1109,RU,22041,500047,Ryazhsk,-10.35,-6.97,-3.81,6.44,12.95,16.82,21.06,17.27,12.07,5.96,-1.53,-6.35
Ryazan’,54.6269,39.6916,RU,538962,500096,Ryazan’,-10.57,-7.31,-3.86,5.68,12.68,16.93,20.74,17.24,12.01,5.92,-2.32,-6.67
Ruzayevka,54.06387,44.9509,RU,49311,500299,Ruzayevka,-12.99,-8.22,-5.17,5.28,11.95,15.52,20.39,16.68,11.19,4.36,-3.34,-11.5
Rublëvo,55.78514,37.35481,RU,20000,500843,Rublëvo,-11.08,-8.99,-3.78,4.13,12.06,15.7,19.35,16.45,11.37,5.2,-2.95,-6.67
Rtishchevo,52.26041,43.78745,RU,44013,500886,Rtishchevo,-11.17,-7.32,-4.38,6.53,13.08,16.33,21.05,17.17,11.77,5.2,-1.93,-10.86
Rostov-na-Donu,47.23135,39.72328,RU,1130305,501175,Rostov-na-Donu,-4.56,-0.04,3.17,13.01,16.94,18.96,25.55,20.78,16.14,9.2,4.56,-3.28
Rostov,57.1914,39.41394,RU,31039,501183,Rostov,-11.91,-9.53,-4.15,3.49,10.97,15.1,19.01,16.04,11.26,4.93,-4.09,-8.41
Rostokino,55.83333,37.66667,RU,37000,501187,Rostokino,-11.2,-9.06,-4.0,4.1,12.0,15.75,19.41,16.5,11.4,5.22,-3.1,-6.87
Rossosh’,51.1209,38.5116,RU,64323,501215,Rossosh’,-8.59,-5.23,-1.69,9.83,14.8,17.81,22.72,18.29,13.24,7.06,1.11,-5.14
Rossosh’,50.19828,39.56726,RU,62000,501231,Rossosh’,-7.94,-4.14,-0.76,10.98,15.15,18.27,23.65,19.08,13.88,7.46,1.73,-5.27
Roslavl’,53.95387,32.86409,RU,56971,501283,Roslavl’,-10.27,-8.74,-2.42,4.32,12.72,16.35,19.42,16.16,11.48,4.87,-0.13,-4.53
Roshal’,55.66853,39.87488,RU,21951,501320,Roshal’,-10.87,-7.78,-3.28,5.03,12.23,16.45,20.03,16.82,11.69,5.36,-3.23,-7.77
Rodniki,57.10513,41.73048,RU,27681,501730,Rodniki,-12.35,-9.2,-4.66,3.55,10.54,15.29,19.22,16.3,10.65,4.74,-4.46,-9.81
Revda,56.80097,59.93028,RU,61785,502011,Revda,-16.6,-10.48,-3.98,2.03,9.39,13.73,17.49,13.67,11.34,1.25,-8.35,-15.69
Reutov,55.76111,37.8575,RU,78370,502018,Reutov,-11.09,-8.86,-3.77,4.21,11.94,15.72,19.35,16.41,11.33,5.13,-3.14,-7.05
Razumnoye,50.53439,36.68462,RU,15529,502400,Razumnoye,-7.96,-5.31,-0.98,9.45,15.09,17.91,23.11,17.96,13.18,7.06,1.87,-4.23
Rayevskiy,54.0658,54.9468,RU,20060,502540,Rayevskiy,-15.56,-10.88,-5.1,4.86,12.73,16.52,20.69,17.14,12.61,3.8,-5.2,-16.17
Rasskazovo,52.66384,41.88915,RU,45957,502793,Rasskazovo,-10.23,-6.64,-3.52,7.34,13.34,16.98,21.56,17.63,12.09,5.76,-1.47,-8.28
Ramenskoye,55.56694,38.23028,RU,96000,502965,Ramenskoye,-10.9,-8.43,-3.53,4.62,12.17,15.98,19.64,16.6,11.57,5.38,-2.9,-6.81
Ramenki,55.7,37.5,RU,130000,502971,Ramenki,-11.51,-9.7,-4.5,3.67,11.78,15.49,19.17,16.27,11.18,5.08,-3.23,-6.83
Pyatigorsk,44.04861,43.05944,RU,142865,503550,Pyatigorsk,-3.06,0.25,3.69,11.92,14.39,16.52,21.19,18.9,13.83,7.35,5.05,-3.33
Pushkino,56.01722,37.86667,RU,102816,503977,Pushkino,-11.11,-8.86,-3.64,4.08,11.88,15.63,19.3,16.34,11.32,5.05,-3.25,-7.2
Pushkin,59.71417,30.39642,RU,92889,504003,Pushkin,-11.57,-9.87,-2.33,2.73,9.72,15.93,17.26,15.48,10.19,3.87,-2.2,-5.74
Pushchino,54.83373,37.61138,RU,20072,504042,Pushchino,-10.65,-8.26,-3.72,4.61,12.31,16.05,19.64,16.3,11.41,5.4,-2.4,-6.16
Pugachev,52.01333,48.8025,RU,41375,504250,Pugachev,-12.97,-8.01,-3.78,8.0,15.16,17.96,23.55,18.97,13.88,5.85,-0.71,-13.51
Pskov,57.8136,28.3496,RU,210501,504341,Pskov,-11.62,-9.05,-1.53,4.24,12.1,16.57,17.74,16.47,11.24,4.98,-0.24,-4.88
Protvino,54.86821,37.21583,RU,37329,504576,Protvino,-10.66,-8.27,-3.64,4.66,12.61,16.3,19.86,16.53,11.59,5.64,-2.11,-5.92
Proletarsk,46.70289,41.72717,RU,19493,504831,Proletarsk,-3.55,0.27,3.93,13.66,17.7,19.94,26.78,21.82,17.04,9.79,5.13,-2.56
Prokhladnyy,43.75741,44.0297,RU,60800,504935,Prokhladnyy,-2.67,1.2,5.22,13.5,16.41,18.72,23.55,21.22,15.75,8.57,5.76,-2.35
Priyutovo,53.9,53.93333,RU,20847,505014,Priyutovo,-16.42,-11.19,-5.73,3.73,12.05,15.34,19.71,16.2,11.49,2.86,-5.72,-16.4
Privolzhskiy,51.40944,46.04833,RU,31849,505057,Privolzhskiy,-11.34,-7.29,-4.22,6.85,14.44,17.97,23.1,18.79,13.44,6.06,-0.54,-12.02
Privolzhsk,57.38698,41.28666,RU,17864,505060,Privolzhsk,-12.43,-9.46,-4.65,3.35,10.46,15.03,19.07,16.2,10.83,4.78,-4.28,-9.59
Priozërsk,61.03928,30.12907,RU,18300,505230,Priozërsk,-9.73,-10.63,-2.43,0.84,6.8,14.93,17.27,16.08,10.7,4.44,-1.52,-4.17
Primorsko-Akhtarsk,46.04817,38.17929,RU,33102,505259,Primorsko-Akhtarsk,-0.54,2.77,5.23,13.79,17.22,20.01,25.8,22.02,17.73,11.03,7.13,0.68
Pridonskoy,51.6826,39.0676,RU,16896,505421,Pridonskoy,-8.74,-5.45,-2.25,9.16,14.4,17.74,22.14,17.97,12.87,6.83,0.44,-5.43
Povorino,51.1945,42.2457,RU,18004,505806,Povorino,-9.13,-5.61,-2.68,9.72,14.49,17.99,23.0,18.43,13.06,6.51,-0.39,-8.23
Kotlovka,55.65928,37.60404,RU,64000,506043,Kotlovka,-11.62,-9.81,-4.61,3.56,11.71,15.47,19.14,16.22,11.12,5.02,-3.35,-6.97
Annino,55.58333,37.6,RU,30000,506117,Annino,-11.3,-9.14,-4.1,4.06,11.84,15.53,19.21,16.26,11.2,5.08,-3.14,-6.78
Polyarnyye Zori,67.36611,32.49806,RU,15092,506762,Polyarnyye Zori,-11.44,-17.14,-5.35,-5.28,1.79,11.88,15.22,13.13,6.68,0.74,-7.18,-9.2
Polyarnyy,69.19889,33.44778,RU,17332,506763,Polyarnyy,-9.57,-16.26,-5.21,-4.95,2.53,10.26,15.35,12.87,6.81,1.51,-7.2,-7.55
Pokrovskoye-Streshnëvo,55.80797,37.45814,RU,55000,507338,Pokrovskoye-Streshnëvo,-11.41,-9.51,-4.27,3.78,11.89,15.61,19.26,16.37,11.26,5.12,-3.2,-6.87
Pokrov,55.91797,39.17242,RU,15867,507599,Pokrov,-11.0,-8.33,-3.47,4.56,11.89,15.94,19.61,16.53,11.55,5.2,-3.39,-7.7
Pokhvistnevo,53.65237,52.12738,RU,28300,507624,Pokhvistnevo,-14.95,-9.64,-4.4,5.66,13.69,16.89,21.37,17.77,12.75,4.39,-3.93,-15.14
Podporozh’ye,60.91124,34.17064,RU,19600,508034,Podporozh’ye,-11.67,-11.0,-2.4,1.8,9.0,15.07,18.19,15.57,10.36,3.45,-4.89,-7.55
Podolsk,55.42419,37.55472,RU,179400,508101,Podolsk,-10.92,-8.49,-3.49,4.66,12.26,15.92,19.59,16.52,11.5,5.37,-2.74,-6.46
Pochep,52.9331,33.44702,RU,15100,508656,Pochep,-9.33,-7.88,-1.98,5.87,13.43,16.92,20.28,16.6,12.07,5.49,0.57,-4.1
Ryazanskiy,55.73333,37.76667,RU,101000,508751,Ryazanskiy,-11.36,-9.33,-4.26,3.97,11.93,15.72,19.38,16.45,11.36,5.21,-3.19,-6.9
Plavsk,53.70944,37.29194,RU,16763,509052,Plavsk,-10.27,-8.01,-4.2,5.25,13.0,16.29,20.2,16.63,11.83,5.86,-1.14,-5.38
Pikalëvo,59.51833,34.16639,RU,22072,509598,Pikalëvo,-12.3,-10.36,-2.92,2.32,10.01,15.0,17.38,15.39,9.76,3.22,-3.97,-7.28
Petushki,55.92639,39.46104,RU,15866,509697,Petushki,-10.97,-8.18,-3.43,4.64,11.91,16.05,19.7,16.58,11.58,5.21,-3.38,-7.81
Petrozavodsk,61.78491,34.34691,RU,279190,509820,Petrozavodsk,-11.31,-11.99,-2.9,0.81,6.67,14.7,17.86,15.36,10.15,3.4,-4.64,-7.54
Petrovskaya,55.55,37.78333,RU,30000,509981,Petrovskaya,-11.3,-9.13,-4.1,4.14,11.93,15.68,19.34,16.38,11.32,5.18,-3.14,-6.84
Petrovsk,52.30639,45.39167,RU,33622,509987,Petrovsk,-11.75,-7.61,-4.27,6.66,13.18,16.15,21.12,17.18,11.78,4.8,-2.0,-12.06
Petrodvorets,59.89565,29.80145,RU,61973,510225,Petrodvorets,-9.04,-7.78,-1.53,2.52,8.6,15.06,17.24,15.95,10.91,4.07,-1.13,-4.28
Peterhof,59.88333,29.9,RU,73199,510291,Peterhof,-9.26,-7.98,-1.63,2.52,8.67,15.14,17.23,15.89,10.83,4.02,-1.26,-4.43
Pestovo,58.59382,35.80244,RU,15910,510364,Pestovo,-11.98,-9.88,-2.97,3.26,10.77,15.35,18.34,16.23,10.37,4.25,-2.96,-7.09
Pervouralsk,56.90528,59.94361,RU,133600,510808,Pervouralsk,-17.03,-10.78,-4.25,1.73,9.12,13.49,17.27,13.4,11.09,1.0,-8.7,-15.98
Perm,58.01046,56.25017,RU,982419,511196,Perm,-17.61,-11.0,-4.4,1.65,9.86,14.77,19.22,14.31,11.43,2.84,-8.33,-15.73
Pereslavl’-Zalesskiy,56.73934,38.85626,RU,40283,511359,Pereslavl’-Zalesskiy,-11.42,-8.98,-3.67,4.02,11.12,15.04,18.95,15.95,11.26,4.88,-3.76,-8.04
Novo-Peredelkino,55.64528,37.33583,RU,115536,511510,Novo-Peredelkino,-10.87,-8.63,-3.42,4.41,12.15,15.71,19.33,16.34,11.33,5.23,-2.76,-6.44
Penza,53.20066,45.00464,RU,523553,511565,Penza,-11.94,-7.28,-4.09,6.25,12.78,16.02,20.91,17.11,11.66,4.92,-2.31,-11.1
Pechora,65.14717,57.22439,RU,46113,511794,Pechora,-22.37,-15.21,-5.19,-5.07,0.18,7.69,16.63,11.03,9.3,-1.99,-11.44,-12.78
Pavlovskiy Posad,55.78187,38.65025,RU,60051,512023,Pavlovskiy Posad,-10.81,-8.31,-3.45,4.62,12.06,15.99,19.64,16.59,11.59,5.39,-3.04,-7.18
Pavlovskaya,46.1377,39.7832,RU,31133,512051,Pavlovskaya,-1.44,1.94,5.19,13.67,16.97,19.08,26.27,21.77,17.16,10.29,6.23,-1.25
Pavlovsk,59.68333,30.43472,RU,16087,512052,Pavlovsk,-11.37,-9.67,-2.13,2.93,9.92,16.13,17.46,15.68,10.39,4.07,-2.0,-5.54
Pavlovsk,50.45778,40.10806,RU,26565,512053,Pavlovsk,-8.21,-4.45,-1.18,10.78,15.07,18.44,23.73,18.98,13.67,7.27,1.22,-5.74
Pashkovskiy,45.02366,39.10436,RU,43634,512382,Pashkovskiy,0.69,4.63,6.51,14.08,16.59,18.93,24.72,21.88,17.74,10.77,7.8,0.18
Pallasovka,50.05,46.88333,RU,17139,513042,Pallasovka,-11.12,-5.97,-2.05,10.58,16.24,19.47,24.79,20.12,14.76,7.1,0.45,-11.33
Ozëry,54.85998,38.55062,RU,25900,513378,Ozëry,-10.62,-7.81,-3.62,5.08,12.56,16.53,20.3,16.89,11.84,5.66,-2.52,-6.44
Ozerki,60.03947,30.31128,RU,95000,513471,Ozerki,-9.95,-9.09,-2.12,2.23,9.02,15.69,17.43,15.92,10.74,4.06,-1.75,-4.87
Otradnyy,53.37596,51.3452,RU,50127,513883,Otradnyy,-14.75,-9.29,-4.36,6.28,14.03,17.18,21.9,18.14,13.12,4.77,-3.32,-14.97
Otradnoye,55.86667,37.6,RU,18000,513896,Otradnoye,-11.15,-9.0,-3.84,4.11,11.97,15.67,19.35,16.45,11.37,5.17,-3.09,-6.85
Otradnoye,59.7775,30.81806,RU,21397,513898,Otradnoye,-11.19,-9.61,-1.93,2.92,9.9,16.38,17.79,15.96,10.63,4.25,-1.97,-5.42
Otradnaya,44.39333,41.52056,RU,22985,513911,Otradnaya,-2.03,1.8,4.56,12.51,14.75,16.93,22.1,19.49,15.0,8.06,5.71,-2.96
Ostrov,57.34395,28.35368,RU,24500,514171,Ostrov,-11.32,-9.15,-1.36,4.65,12.34,16.36,17.81,16.42,11.24,4.98,-0.12,-4.76
Ostrogozhsk,50.8664,39.07561,RU,34403,514198,Ostrogozhsk,-8.47,-4.93,-1.61,10.15,14.69,17.93,22.82,18.34,13.2,7.01,1.13,-5.36
Ostashkov,57.14667,33.10753,RU,19563,514259,Ostashkov,-11.0,-9.46,-2.59,3.13,11.69,15.38,17.76,15.71,10.3,4.16,-2.24,-6.07
Ostankinskiy,55.82957,37.61604,RU,60000,514284,Ostankinskiy,-11.54,-9.66,-4.44,3.66,11.77,15.54,19.2,16.3,11.18,5.04,-3.34,-7.03
Osa,57.283,55.4589,RU,23292,514706,Osa,-16.72,-11.0,-4.78,1.57,9.55,15.37,19.91,15.28,12.07,3.61,-7.3,-15.66
Orsk,51.20487,58.56685,RU,246836,514734,Orsk,-16.63,-11.81,-5.93,7.21,13.2,17.43,21.87,18.8,14.09,3.41,-3.5,-15.89
Orlovskiy,46.87139,42.05917,RU,19325,514796,Orlovskiy,-4.39,-0.4,3.31,13.19,17.24,19.64,26.38,21.26,16.56,9.26,4.5,-3.29
Orenburg,51.7727,55.0988,RU,564773,515003,Orenburg,-16.55,-10.7,-5.07,7.15,14.2,17.49,22.72,18.83,14.28,4.26,-2.79,-15.87
Orël,52.96508,36.07849,RU,303696,515012,Orël,-9.59,-7.29,-2.93,6.19,13.77,16.72,20.88,16.85,12.03,6.15,-0.21,-4.66
Orekhovo-Zuyevo,55.80672,38.96178,RU,120000,515024,Orekhovo-Zuyevo,-10.87,-8.26,-3.42,4.72,12.06,16.04,19.7,16.62,11.63,5.35,-3.16,-7.41
Orekhovo-Borisovo Severnoye,55.61667,37.68333,RU,128000,515027,Orekhovo-Borisovo Severnoye,-11.17,-9.03,-4.01,4.25,12.06,15.8,19.47,16.52,11.46,5.34,-2.99,-6.61
Sunzha,43.3195,45.04911,RU,71841,515083,Sunzha,-1.97,1.24,4.91,12.92,15.94,18.2,22.74,20.53,15.31,8.54,5.82,-1.93
Onega,63.9057,38.09944,RU,22693,515246,Onega,-10.35,-13.22,-3.49,-0.67,4.89,12.67,17.1,13.74,8.97,2.59,-5.36,-6.92
Omutninsk,58.67001,52.1932,RU,25364,515267,Omutninsk,-16.56,-10.53,-4.2,1.45,9.7,14.23,18.62,14.87,10.87,3.27,-8.15,-13.6
Olenegorsk,68.1432,33.25287,RU,23670,515698,Olenegorsk,-11.36,-18.61,-6.15,-6.27,1.4,11.24,15.14,12.57,6.1,0.12,-7.65,-9.85
Tsotsin-Yurt,43.24206,46.00013,RU,15970,515804,Tsotsin-Yurt,-0.58,2.18,5.7,13.09,16.46,18.73,23.39,21.21,16.09,9.76,6.81,-1.02
Oktyabr’skiy,54.48147,53.47103,RU,108200,515879,Oktyabr’skiy,-15.28,-10.05,-4.53,4.78,12.66,15.93,20.13,16.58,11.99,3.78,-4.96,-15.76
Oktyabr’sk,53.16722,48.70056,RU,26306,515938,Oktyabr’sk,-13.31,-8.6,-4.51,5.63,13.95,16.82,21.95,17.89,12.84,5.32,-1.97,-13.45
Odintsovo,55.67798,37.27773,RU,137041,516215,Odintsovo,-11.11,-8.94,-3.68,4.1,11.9,15.49,19.1,16.15,11.12,4.98,-3.03,-6.74
Ochër,57.89035,54.72019,RU,15395,516256,Ochër,-17.2,-11.04,-4.46,1.89,10.19,14.67,18.79,14.25,11.11,2.8,-8.3,-15.21
Ochakovo-Matveyevskoye,55.68432,37.44654,RU,114000,516264,Ochakovo-Matveyevskoye,-11.15,-9.13,-3.92,4.04,11.96,15.61,19.26,16.33,11.27,5.16,-2.99,-6.65
Obninsk,55.09681,36.61006,RU,107392,516436,Obninsk,-11.07,-8.81,-3.92,4.05,12.33,15.93,19.46,16.16,11.19,5.27,-2.36,-6.18
Nytva,57.9437,55.3396,RU,20525,516576,Nytva,-17.2,-10.78,-4.18,1.77,10.26,14.92,19.23,14.35,11.34,3.0,-8.08,-15.34
Nyandoma,61.6656,40.2013,RU,22179,516647,Nyandoma,-12.82,-12.71,-4.32,0.72,7.34,13.59,17.25,13.67,9.08,2.85,-6.71,-9.42
Nurlat,54.42766,50.80511,RU,34451,516716,Nurlat,-15.08,-9.81,-5.05,4.95,12.84,15.92,20.68,16.99,11.75,3.8,-4.55,-14.85
Novyy Oskol,50.76331,37.86415,RU,21035,516931,Novyy Oskol,-8.32,-5.06,-1.22,9.88,14.81,17.73,22.89,18.25,13.26,7.21,1.62,-4.56
Novyye Kuz’minki,55.7,37.75,RU,143000,517121,Novyye Kuz’minki,-11.26,-9.23,-4.16,4.07,12.03,15.82,19.48,16.55,11.45,5.31,-3.09,-6.8
Novyye Cherëmushki,55.7,37.58333,RU,101000,517161,Novyye Cherëmushki,-11.47,-9.66,-4.46,3.71,11.86,15.62,19.29,16.37,11.27,5.17,-3.2,-6.82
Novozybkov,52.53711,31.93659,RU,42571,517269,Novozybkov,-8.79,-7.98,-1.63,6.07,13.77,17.03,20.3,16.83,12.32,5.62,1.69,-3.53
Novovoronezh,51.30719,39.21732,RU,37392,517716,Novovoronezh,-8.55,-5.15,-1.95,9.75,14.54,17.9,22.37,18.16,13.01,6.89,0.75,-5.46
Novouzensk,50.45917,48.14306,RU,16932,517739,Novouzensk,-12.17,-6.87,-2.99,10.35,16.25,19.15,25.2,20.22,14.94,6.58,-0.15,-12.4
Novoul’yanovsk,54.14961,48.38907,RU,17139,517766,Novoul’yanovsk,-13.3,-8.56,-4.64,5.01,13.09,16.29,21.43,17.38,12.19,4.89,-3.01,-12.44
Novotroitsk,51.20301,58.32665,RU,106186,517836,Novotroitsk,-16.64,-11.99,-5.96,7.16,13.17,17.29,21.74,18.58,13.85,3.17,-3.76,-15.89
Novotitarovskaya,45.23756,38.98059,RU,22630,517842,Novotitarovskaya,0.71,4.45,6.48,14.21,16.83,19.27,25.51,22.24,18.0,11.05,7.76,0.4
Novoshakhtinsk,47.76037,39.93335,RU,99478,517963,Novoshakhtinsk,-6.44,-1.31,1.85,12.2,16.23,18.23,24.57,20.01,15.32,8.17,3.42,-4.32
Novorossiysk,44.72439,37.76752,RU,241856,518255,Novorossiysk,4.45,6.34,7.2,13.34,16.31,19.46,25.09,22.34,18.58,12.55,9.73,3.82
Novopokrovskaya,45.95139,40.70056,RU,19342,518325,Novopokrovskaya,-1.51,1.93,5.18,13.95,17.42,19.34,26.65,21.7,17.11,10.25,6.15,-1.49
Novopavlovsk,43.96222,43.63417,RU,24408,518383,Novopavlovsk,-2.88,0.64,4.58,12.94,15.69,18.02,23.01,20.64,15.18,8.24,5.54,-2.6
Novomoskovsk,54.0105,38.2846,RU,130982,518557,Novomoskovsk,-10.73,-8.17,-4.61,4.94,12.33,16.02,19.93,16.29,11.47,5.43,-2.07,-6.22
Novomichurinsk,54.0384,39.7479,RU,20821,518602,Novomichurinsk,-10.35,-7.11,-3.87,6.05,12.76,16.67,20.77,17.14,12.06,5.99,-1.73,-6.2
Novokuz’minki,55.71667,37.78333,RU,50000,518657,Novokuz’minki,-11.31,-9.28,-4.21,4.02,11.98,15.77,19.43,16.5,11.41,5.26,-3.14,-6.85
Novokuybyshevsk,53.0959,49.9462,RU,111800,518659,Novokuybyshevsk,-14.51,-9.25,-4.61,6.26,13.95,16.88,21.96,17.91,12.86,4.82,-2.56,-14.69
Novokubansk,45.117,41.0267,RU,36401,518682,Novokubansk,-0.4,3.43,6.05,14.15,17.07,18.88,25.6,22.04,17.45,10.17,7.03,-0.93
Novokhovrino,55.86667,37.5,RU,50000,518740,Novokhovrino,-11.34,-9.3,-4.08,3.89,11.83,15.52,19.2,16.31,11.22,5.05,-3.22,-6.91
Novogireyevo,55.75378,37.81885,RU,95000,518879,Novogireyevo,-11.18,-8.96,-3.91,4.14,11.94,15.69,19.34,16.42,11.33,5.13,-3.16,-7.0
Novodvinsk,64.4165,40.8122,RU,42900,518909,Novodvinsk,-11.38,-14.42,-3.74,-1.56,4.58,13.42,18.29,13.54,8.96,2.55,-7.03,-8.28
Novocherkassk,47.42096,40.09185,RU,166974,518970,Novocherkassk,-5.33,-0.58,2.69,12.73,16.82,18.87,25.42,20.56,15.71,8.76,4.07,-3.85
Novocheboksarsk,56.11095,47.47755,RU,128468,518976,Novocheboksarsk,-13.92,-9.51,-5.24,3.45,11.41,15.81,20.09,16.76,11.28,4.45,-5.12,-12.61
Novoanninskiy,50.52891,42.6707,RU,19231,519062,Novoanninskiy,-8.84,-4.91,-1.82,10.35,14.92,18.29,23.92,19.2,13.8,6.96,0.38,-7.91
Novoaleksandrovsk,45.4948,41.22075,RU,27610,519106,Novoaleksandrovsk,-0.77,2.91,5.64,14.12,17.27,19.07,26.36,21.67,17.33,10.17,6.64,-1.05
Velikiy Novgorod,58.52131,31.27104,RU,222868,519336,Velikiy Novgorod,-11.89,-9.4,-1.83,3.6,11.99,16.84,18.44,16.43,11.01,4.67,-1.33,-5.47
Novaya Usman’,51.6301,39.4128,RU,22165,519447,Novaya Usman’,-8.83,-5.51,-2.42,9.4,14.49,17.77,22.22,18.08,12.93,6.83,0.4,-5.68
Novaya Derevnya,59.98748,30.28682,RU,20000,519711,Novaya Derevnya,-9.85,-8.99,-2.02,2.33,9.12,15.79,17.53,16.02,10.84,4.16,-1.65,-4.77
Noginsk,55.86647,38.4438,RU,115979,520068,Noginsk,-10.82,-8.44,-3.35,4.47,12.1,15.97,19.62,16.56,11.58,5.3,-3.06,-7.16
Nizhnyaya Tura,58.6293,59.8118,RU,22600,520204,Nizhnyaya Tura,-19.38,-10.89,-3.7,1.02,8.01,12.94,17.49,13.56,11.13,1.24,-10.02,-14.97
Nizhny Tagil,57.91944,59.965,RU,381116,520494,Nizhny Tagil,-18.54,-10.73,-3.71,1.85,9.09,13.8,17.82,13.78,11.45,1.59,-9.25,-15.27
Nizhniy Novgorod,56.32867,44.00205,RU,1259013,520555,Nizhniy Novgorod,-12.62,-8.64,-4.62,4.47,11.2,15.74,19.59,16.64,11.08,4.92,-4.47,-10.83
Nizhniy Lomov,53.53041,43.67663,RU,23835,520574,Nizhniy Lomov,-11.74,-7.46,-4.49,5.93,12.52,16.04,20.56,17.05,11.67,4.96,-2.38,-10.3
Nizhnekamsk,55.63657,51.82447,RU,234297,521118,Nizhnekamsk,-15.33,-10.41,-4.98,4.28,12.35,16.08,20.31,16.51,11.71,3.92,-6.03,-15.15
Nikulino,55.66943,37.46598,RU,30000,521416,Nikulino,-11.51,-9.7,-4.5,3.67,11.78,15.49,19.17,16.27,11.18,5.08,-3.23,-6.83
Nikol’skoye,55.68333,37.48333,RU,50000,521500,Nikol’skoye,-11.46,-9.64,-4.46,3.72,11.82,15.54,19.22,16.32,11.23,5.13,-3.18,-6.78
Nikol’skoye,59.70056,30.78472,RU,19280,521509,Nikol’skoye,-11.42,-9.6,-1.9,3.1,10.16,16.42,17.75,15.91,10.57,4.22,-1.97,-5.51
Nikol’sk,53.71886,46.07118,RU,24300,521776,Nikol’sk,-12.53,-7.61,-4.02,5.65,12.09,15.26,20.49,16.43,11.17,4.43,-2.87,-11.56
Nikolayevsk,50.02824,45.45953,RU,16044,521874,Nikolayevsk,-9.9,-5.35,-2.1,10.28,15.98,18.87,24.52,19.86,14.53,7.3,0.83,-9.56
Nikel,69.41285,30.22198,RU,15596,522260,Nikel,-11.36,-17.38,-5.54,-5.15,2.88,11.56,15.11,12.74,6.26,1.07,-7.95,-8.82
Nezlobnaya,44.11806,43.40278,RU,18412,522301,Nezlobnaya,-2.35,0.9,4.77,13.14,15.89,18.22,23.26,20.82,15.36,8.52,5.81,-2.26
Nevinnomyssk,44.6333,41.9444,RU,134345,522377,Nevinnomyssk,-1.58,1.63,4.75,12.87,15.35,17.51,23.28,20.34,15.61,8.28,5.79,-2.53
Nevel’,56.02094,29.92844,RU,17832,522410,Nevel’,-10.59,-9.42,-1.64,4.14,12.95,16.31,18.14,16.24,11.46,4.88,-0.19,-4.97
Nesterovskaya,43.23861,45.05028,RU,19186,522470,Nesterovskaya,-1.8,1.4,4.89,12.5,15.35,17.3,21.48,19.42,14.63,8.26,5.99,-1.63
Nerekhta,57.45881,40.57471,RU,25352,522594,Nerekhta,-12.0,-9.19,-4.08,3.76,10.62,15.06,19.08,16.16,11.11,4.96,-3.91,-8.97
Nelidovo,56.22107,32.77738,RU,25349,522775,Nelidovo,-11.1,-9.16,-2.56,3.89,12.35,15.46,18.25,15.93,10.75,4.49,-1.98,-5.74
Neftekamsk,56.092,54.2661,RU,126805,522942,Neftekamsk,-15.68,-10.74,-4.85,3.37,12.05,15.8,19.65,16.21,12.1,3.77,-6.91,-16.41
Neftegorsk,52.802,51.166,RU,19542,522945,Neftegorsk,-14.87,-9.66,-4.69,6.84,14.19,17.31,22.23,18.25,13.28,4.87,-2.36,-14.98
Nazran’,43.22597,44.77323,RU,164131,523064,Nazran’,-2.39,0.9,4.37,12.1,14.89,16.89,21.12,19.09,14.23,7.69,5.35,-2.13
Nar'yan-Mar,67.63869,53.00371,RU,18041,523392,Nar'yan-Mar,-18.71,-19.32,-7.33,-8.63,-1.73,4.67,13.61,10.03,7.9,-1.84,-9.96,-10.86
Nartkala,43.5575,43.85083,RU,33390,523405,Nartkala,-3.72,0.32,4.58,12.98,15.78,17.99,22.51,20.33,15.0,7.91,5.04,-3.22
Naro-Fominsk,55.38752,36.73307,RU,72632,523426,Naro-Fominsk,-10.85,-8.54,-3.39,4.35,12.46,15.96,19.49,16.33,11.31,5.33,-2.48,-6.13
Nalchik,43.49806,43.61889,RU,239300,523523,Nalchik,-3.71,-0.21,3.29,11.58,14.22,16.3,20.52,18.18,13.67,6.97,4.58,-3.57
Nakhabino,55.84854,37.17789,RU,31715,523553,Nakhabino,-11.1,-8.98,-3.63,4.11,12.03,15.59,19.18,16.25,11.19,5.03,-3.0,-6.73
Naberezhnyye Chelny,55.72545,52.41122,RU,509870,523750,Naberezhnyye Chelny,-15.11,-10.44,-4.96,4.11,12.61,16.27,20.35,16.66,12.01,4.09,-6.07,-15.38
Mytishchi,55.91163,37.73076,RU,160542,523812,Mytishchi,-11.14,-8.93,-3.79,4.16,11.97,15.68,19.35,16.43,11.36,5.14,-3.14,-6.99
Murom,55.575,42.0426,RU,126931,524294,Murom,-11.56,-7.69,-3.75,5.39,11.69,16.15,20.16,16.96,11.22,5.31,-3.56,-9.41
Murmansk,68.97917,33.09251,RU,295374,524305,Murmansk,-10.43,-16.99,-4.96,-4.81,2.71,11.14,15.8,13.14,6.86,1.34,-7.5,-8.07
Mtsensk,53.27657,36.57334,RU,47609,524640,Mtsensk,-9.84,-7.54,-3.48,5.74,13.46,16.54,20.59,16.73,11.92,6.13,-0.45,-4.86
Mozhga,56.44469,52.22763,RU,47270,524699,Mozhga,-15.55,-10.63,-4.75,3.42,11.67,15.61,19.86,15.88,11.46,3.69,-6.88,-15.49
Mozhaysk,55.50194,36.02722,RU,31557,524712,Mozhaysk,-11.17,-8.95,-3.57,3.83,12.2,15.64,18.96,15.89,10.92,4.93,-2.7,-6.31
Mozdok,43.74359,44.65177,RU,40823,524736,Mozdok,-1.06,2.53,6.1,14.18,17.22,19.61,24.74,22.09,16.62,9.5,6.71,-0.96
Mostovskoy,44.41222,40.79361,RU,25188,524809,Mostovskoy,-2.17,2.09,5.09,12.32,14.54,16.65,21.44,18.97,14.77,8.13,5.81,-3.27
Moscow,55.75222,37.61556,RU,10381222,524901,Moscow,-11.29,-9.41,-4.19,3.91,12.02,15.79,19.45,16.55,11.42,5.29,-3.09,-6.78
Morshansk,53.44354,41.81065,RU,43311,525138,Morshansk,-10.8,-6.93,-4.03,6.68,12.95,16.75,21.34,17.63,12.16,5.82,-1.68,-7.88
Morozovsk,48.35502,41.82627,RU,29289,525162,Morozovsk,-7.13,-1.93,1.8,12.3,16.3,18.91,25.51,20.31,15.31,8.32,3.03,-4.57
Monino,55.84244,38.19362,RU,19852,525396,Monino,-11.06,-8.73,-3.82,4.21,11.88,15.73,19.36,16.38,11.34,5.18,-3.18,-7.12
Monchegorsk,67.93972,32.87389,RU,49868,525404,Monchegorsk,-11.63,-18.6,-6.1,-6.21,1.59,11.31,15.31,12.96,6.38,0.3,-7.56,-9.88
Mineralnye Vody,44.21028,43.13528,RU,76280,526480,Mineralnye Vody,-1.83,0.92,4.91,13.15,15.93,18.23,23.79,21.12,15.6,8.68,5.88,-2.09
Millerovo,48.92265,40.39673,RU,38527,526558,Millerovo,-7.62,-3.01,0.98,11.78,15.65,18.06,24.38,19.59,14.82,7.78,2.68,-4.97
Mikhaylovka,50.06,43.2379,RU,58898,527012,Mikhaylovka,-8.88,-4.59,-1.39,10.64,15.33,18.51,24.41,19.49,14.05,7.17,0.72,-7.79
Mikhalkovo,55.68333,37.43333,RU,30000,527057,Mikhalkovo,-11.1,-9.08,-3.87,4.09,12.02,15.66,19.31,16.38,11.32,5.2,-2.94,-6.6
Michurinsk,52.8978,40.4907,RU,93499,527191,Michurinsk,-10.29,-6.81,-3.88,7.08,13.21,16.93,21.23,17.38,12.11,5.99,-1.14,-6.84
Metallostroy,59.80083,30.54778,RU,26361,527361,Metallostroy,-11.01,-9.5,-1.99,2.93,9.87,16.25,17.64,15.89,10.59,4.19,-1.86,-5.3
Menzelinsk,55.72706,53.10258,RU,16858,527529,Menzelinsk,-15.05,-10.25,-4.65,3.95,12.61,16.29,20.24,16.69,12.15,4.08,-6.06,-15.5
Mendeleyevsk,55.90819,52.29047,RU,22969,527579,Mendeleyevsk,-15.39,-10.79,-5.33,3.31,12.33,16.11,20.21,16.47,11.88,3.99,-6.31,-15.68
Meleuz,52.96467,55.93277,RU,65362,527717,Meleuz,-15.56,-10.83,-5.26,4.97,12.83,16.1,20.83,17.33,13.16,3.49,-5.26,-16.33
Melenki,55.3343,41.6295,RU,15902,527740,Melenki,-11.1,-7.25,-3.4,5.63,12.21,16.52,20.58,17.25,11.59,5.5,-3.18,-8.74
Medvezh’yegorsk,62.91713,34.45689,RU,16551,527888,Medvezh’yegorsk,-10.58,-12.87,-3.07,0.36,5.63,15.55,18.74,15.39,9.91,3.39,-4.88,-7.24
Medvedovskaya,45.45151,39.02485,RU,16941,527968,Medvedovskaya,0.23,3.77,6.08,13.98,16.73,19.11,25.45,21.78,17.61,10.85,7.33,0.11
Medvedevo,56.63388,47.80405,RU,16407,528056,Medvedevo,-14.01,-9.28,-4.67,4.08,11.37,15.8,19.91,16.51,11.16,4.39,-5.45,-12.54
Mednogorsk,51.4128,57.595,RU,30676,528109,Mednogorsk,-16.76,-11.56,-5.75,6.15,12.6,16.11,20.8,17.56,13.16,2.66,-4.87,-16.12
Maykop,44.60778,40.10583,RU,141970,528293,Maykop,-0.22,4.2,6.54,13.68,15.81,17.85,23.24,20.48,16.53,9.87,7.43,-1.31
Matveyevskoye,55.71112,37.47502,RU,30000,528454,Matveyevskoye,-11.36,-9.54,-4.36,3.82,11.92,15.64,19.32,16.42,11.33,5.23,-3.08,-6.68
Marks,51.71111,46.74861,RU,32929,529073,Marks,-12.0,-7.4,-4.18,7.9,14.82,17.93,23.11,18.7,13.36,6.05,-0.48,-12.81
Mar’ino,55.65,37.71667,RU,243000,529237,Mar’ino,-11.02,-8.88,-3.86,4.4,12.21,15.95,19.62,16.68,11.6,5.48,-2.84,-6.46
Manturovo,58.32889,44.76406,RU,18817,529505,Manturovo,-13.15,-9.64,-4.35,3.08,10.21,14.86,18.87,15.93,10.68,4.15,-5.75,-10.98
Yaroslavskiy,55.88333,37.71667,RU,91000,530088,Yaroslavskiy,-11.04,-8.83,-3.69,4.22,12.02,15.73,19.4,16.48,11.41,5.19,-3.05,-6.89
Maloyaroslavets,55.01457,36.47185,RU,32669,530849,Maloyaroslavets,-11.08,-8.89,-4.05,3.92,12.22,15.86,19.36,16.04,11.12,5.24,-2.24,-6.12
Malgobek,43.51118,44.58821,RU,43400,531129,Malgobek,-1.74,1.67,5.29,13.25,16.15,18.25,22.8,20.64,15.45,8.55,5.98,-1.62
Malakhovka,55.64776,38.02486,RU,18399,531820,Malakhovka,-11.06,-8.71,-3.81,4.46,12.11,15.89,19.55,16.56,11.51,5.35,-2.99,-6.77
Makhachkala,42.97638,47.50236,RU,596356,532096,Makhachkala,2.44,4.32,5.98,12.12,17.06,20.0,24.54,22.88,18.27,12.13,9.35,3.38
Magnitogorsk,53.41861,59.04722,RU,413351,532288,Magnitogorsk,-16.68,-13.28,-5.46,3.85,10.84,15.22,18.77,15.19,11.78,1.74,-7.65,-17.31
Lyudinovo,53.86639,34.44778,RU,41392,532459,Lyudinovo,-10.15,-8.16,-2.54,4.97,12.89,16.56,19.74,16.39,11.55,5.35,-0.39,-4.62
Lyublino,55.67738,37.76005,RU,172000,532535,Lyublino,-11.26,-9.23,-4.16,4.07,12.03,15.82,19.48,16.55,11.45,5.31,-3.09,-6.8
Lyubertsy,55.67719,37.89322,RU,154650,532615,Lyubertsy,-11.16,-8.92,-3.98,4.28,12.05,15.84,19.49,16.55,11.47,5.29,-3.07,-6.84
Lytkarino,55.58271,37.90516,RU,50619,532657,Lytkarino,-11.2,-8.86,-3.91,4.3,11.96,15.72,19.37,16.39,11.34,5.17,-3.1,-6.89
Lys’va,58.10861,57.80528,RU,68660,532675,Lys’va,-18.18,-10.49,-3.87,1.6,9.56,14.25,18.55,13.98,11.35,2.29,-8.75,-16.07
Lyskovo,56.03282,45.0422,RU,23570,532715,Lyskovo,-12.23,-8.08,-4.22,4.96,11.66,16.05,20.16,16.94,11.37,4.97,-4.05,-10.79
Luzhniki,55.71599,37.55376,RU,30000,533067,Luzhniki,-11.47,-9.66,-4.46,3.75,11.91,15.67,19.34,16.42,11.32,5.22,-3.19,-6.82
Lukhovitsy,54.97661,39.0444,RU,32387,533543,Lukhovitsy,-10.62,-7.68,-3.55,5.18,12.63,16.7,20.41,17.05,11.9,5.67,-2.6,-6.67
Luga,58.73722,29.84528,RU,40114,533690,Luga,-11.99,-9.22,-1.73,3.58,11.55,16.38,17.66,15.98,10.83,4.47,-1.33,-5.56
Losino-Petrovskiy,55.86959,38.20065,RU,22116,534015,Losino-Petrovskiy,-10.99,-8.69,-3.63,4.28,12.02,15.86,19.51,16.48,11.47,5.2,-3.17,-7.16
Lomonosov,59.90612,29.77253,RU,42505,534341,Lomonosov,-9.09,-7.83,-1.58,2.47,8.55,15.01,17.19,15.9,10.86,4.02,-1.18,-4.33
Lodeynoye Pole,60.726,33.55306,RU,22164,534560,Lodeynoye Pole,-11.41,-10.38,-2.05,2.29,9.49,15.62,18.32,15.9,10.66,3.87,-3.83,-6.84
Lobnya,56.00972,37.48194,RU,61772,534595,Lobnya,-11.23,-9.04,-3.78,3.92,11.75,15.36,19.04,16.11,11.09,4.87,-3.26,-7.08
Livny,52.42534,37.60689,RU,46779,534701,Livny,-9.54,-6.74,-3.36,7.1,13.86,16.89,21.12,17.05,12.01,6.27,-0.36,-5.31
Liski,50.98405,39.51545,RU,55939,534838,Liski,-8.49,-4.91,-1.69,10.21,14.7,18.03,22.7,18.39,13.15,6.99,0.91,-5.55
Lipetsk,52.60311,39.57076,RU,509735,535121,Lipetsk,-9.93,-6.72,-3.85,7.39,13.53,16.98,21.31,17.35,12.24,6.16,-0.75,-6.32
Likino-Dulevo,55.7083,38.9542,RU,31100,535243,Likino-Dulevo,-10.87,-8.18,-3.4,4.71,12.19,16.1,19.73,16.57,11.59,5.31,-3.12,-7.35
Likhobory,55.85,37.56667,RU,50000,535270,Likhobory,-11.09,-8.95,-3.79,4.17,12.02,15.72,19.4,16.5,11.42,5.22,-3.04,-6.8
Lianozovo,55.89783,37.5868,RU,86000,535330,Lianozovo,-11.29,-9.15,-3.99,3.97,11.82,15.52,19.2,16.3,11.22,5.02,-3.24,-7.0
L’govskiy,51.63069,35.2775,RU,23500,535334,L’govskiy,-8.46,-6.88,-1.72,8.04,14.36,17.15,21.66,17.04,12.45,6.49,1.18,-4.11
Komendantsky aerodrom,60.00448,30.27523,RU,84052,535729,Komendantsky aerodrom,-9.85,-8.99,-2.02,2.33,9.12,15.79,17.53,16.02,10.84,4.16,-1.65,-4.77
Lermontov,44.10667,42.97333,RU,23369,535886,Lermontov,-3.86,-0.55,2.89,11.12,13.59,15.72,20.39,18.1,13.03,6.55,4.25,-4.13
Leonovo,55.85,37.65,RU,30000,535966,Leonovo,-10.99,-8.78,-3.64,4.27,12.07,15.78,19.45,16.53,11.47,5.24,-3.0,-6.84
Leninskiye Gory,55.7,37.56667,RU,30000,536098,Leninskiye Gory,-11.57,-9.76,-4.56,3.61,11.76,15.52,19.19,16.27,11.17,5.07,-3.3,-6.92
Leninsk,48.70233,45.19798,RU,15167,536156,Leninsk,-8.19,-2.67,1.47,12.28,17.63,20.79,26.33,20.67,15.84,8.52,2.45,-6.6
Leninogorsk,54.60256,52.46087,RU,66263,536162,Leninogorsk,-15.49,-9.99,-4.69,4.47,12.34,15.51,19.87,16.32,11.52,3.3,-5.21,-15.3
Tsaritsyno,55.6254,37.65032,RU,123000,536164,Tsaritsyno,-11.32,-9.18,-4.16,4.1,11.91,15.65,19.32,16.38,11.3,5.18,-3.14,-6.76
Leningradskaya,46.3214,39.3877,RU,38712,536200,Leningradskaya,-1.47,1.92,4.99,13.64,16.9,19.08,26.0,21.53,17.18,10.31,6.11,-1.36
Yubileyny,55.93333,37.83333,RU,32508,536206,Yubileyny,-11.08,-8.86,-3.69,4.16,11.93,15.66,19.32,16.38,11.33,5.1,-3.16,-7.04
Lefortovo,55.76667,37.7,RU,91000,536398,Lefortovo,-11.2,-9.06,-4.0,4.1,12.0,15.75,19.41,16.5,11.4,5.22,-3.1,-6.87
Lebedyan’,53.01942,39.16639,RU,22970,536518,Lebedyan’,-9.87,-6.87,-4.03,6.84,13.67,17.08,21.28,17.39,12.32,6.36,-0.75,-5.81
Lazarevskoye,43.90886,39.33137,RU,30000,536625,Lazarevskoye,7.01,8.45,9.8,15.14,16.98,19.5,24.6,22.01,18.74,13.46,11.54,5.84
Lakinsk,56.01931,39.94848,RU,16706,537107,Lakinsk,-11.23,-8.44,-3.8,4.53,11.6,15.94,19.59,16.43,11.35,5.1,-3.63,-8.22
Labinsk,44.63417,40.73556,RU,61945,537281,Labinsk,-0.75,3.34,5.98,13.46,15.64,17.75,23.12,20.41,16.3,9.4,6.85,-2.08
Dugulubgey,43.6625,43.53694,RU,20965,537345,Dugulubgey,-3.99,-0.23,3.61,12.04,14.68,16.94,21.45,19.09,14.06,7.0,4.76,-3.56
Kuznetsk,53.11675,46.60037,RU,90480,537737,Kuznetsk,-12.57,-8.17,-4.35,5.71,12.43,15.41,20.68,16.52,11.24,4.28,-2.7,-12.41
Kuz’minki,55.7,37.8,RU,143000,537832,Kuz’minki,-11.36,-9.33,-4.26,3.97,11.93,15.72,19.38,16.45,11.36,5.21,-3.19,-6.9
Kuvandyk,51.4781,57.3552,RU,28706,538138,Kuvandyk,-16.71,-11.36,-5.4,6.48,13.18,16.55,21.27,18.0,13.66,2.99,-4.82,-15.88
Kuskovo,55.73423,37.82616,RU,30000,538321,Kuskovo,-11.31,-9.28,-4.21,4.02,11.98,15.77,19.43,16.5,11.41,5.26,-3.14,-6.85
Kushva,58.29056,59.75917,RU,34058,538340,Kushva,-19.73,-11.39,-4.27,0.84,8.02,12.84,17.11,13.11,10.7,0.83,-10.29,-15.8
Kushchyovskaya,46.5599,39.6321,RU,29915,538416,Kushchyovskaya,-2.15,1.47,4.7,13.65,17.29,19.34,26.31,21.43,17.15,10.17,5.79,-1.81
Kusa,55.33833,59.44056,RU,19818,538442,Kusa,-15.4,-10.37,-4.48,2.78,9.85,13.93,17.11,14.12,11.41,1.66,-7.86,-16.79
Kur’yanovo,55.65,37.7,RU,30000,538472,Kur’yanovo,-11.07,-8.93,-3.91,4.35,12.16,15.9,19.57,16.62,11.56,5.44,-2.88,-6.51
Kursk,51.73733,36.18735,RU,448733,538560,Kursk,-9.04,-6.94,-2.34,7.64,14.03,16.96,21.46,16.94,12.06,6.2,0.45,-4.9
Kurovskoye,55.58183,38.91994,RU,19173,538601,Kurovskoye,-10.71,-7.99,-3.2,4.96,12.46,16.39,20.04,16.81,11.82,5.49,-2.9,-7.07
Kurganinsk,44.88,40.59861,RU,47681,538836,Kurganinsk,-0.27,3.73,6.28,13.89,16.44,18.42,24.62,21.38,17.17,10.09,7.16,-1.26
Kurchatov,51.6601,35.6521,RU,46600,538908,Kurchatov,-8.67,-6.85,-1.94,7.79,14.32,17.15,21.63,17.07,12.37,6.45,0.89,-4.39
Kurchaloy,43.20184,46.0881,RU,20903,538913,Kurchaloy,-0.55,2.08,5.54,12.81,16.21,18.47,23.13,21.0,15.91,9.62,6.73,-1.09
Kupchino,59.85278,30.35667,RU,54198,539061,Kupchino,-10.69,-9.61,-2.25,2.53,9.57,16.09,17.58,15.92,10.66,4.16,-1.9,-5.2
Kungur,57.4368,56.9593,RU,66389,539147,Kungur,-17.32,-11.12,-4.47,2.26,10.35,15.3,19.8,14.9,11.81,2.98,-8.06,-16.42
Kumertau,52.76667,55.78333,RU,65321,539283,Kumertau,-16.02,-11.18,-5.57,4.68,12.39,15.62,20.52,16.97,12.72,3.0,-5.65,-16.6
Kulebaki,55.41333,42.5325,RU,37622,539555,Kulebaki,-11.48,-7.24,-3.4,5.78,11.99,16.39,20.42,17.22,11.57,5.38,-3.37,-9.51
Kukmor,56.1855,50.8944,RU,16795,539689,Kukmor,-15.53,-10.82,-5.7,3.49,11.94,15.85,19.98,16.18,11.41,4.12,-6.45,-14.85
Kudymkar,59.01306,54.65556,RU,31596,539817,Kudymkar,-17.53,-10.67,-4.0,1.3,9.23,13.39,18.32,13.89,10.93,2.74,-8.81,-13.99
Kudrovo,59.90349,30.51058,RU,30000,539839,Kudrovo,-10.69,-9.53,-2.1,2.66,9.66,16.21,17.69,15.99,10.71,4.24,-1.85,-5.16
Kudepsta,43.49547,39.89294,RU,17000,539907,Kudepsta,7.41,8.99,11.05,16.24,17.76,20.28,24.88,22.22,18.93,13.64,11.66,6.57
Kubinka,55.57957,36.70392,RU,25942,540030,Kubinka,-11.13,-8.88,-3.57,4.09,12.19,15.66,19.17,16.1,11.06,5.02,-2.84,-6.45
Kstovo,56.14733,44.19787,RU,67242,540103,Kstovo,-12.39,-8.32,-4.48,4.88,11.22,15.73,19.66,16.62,11.09,4.85,-4.35,-10.77
Krymsk,44.92934,37.99117,RU,57555,540251,Krymsk,2.12,4.91,6.31,13.81,16.29,18.95,24.64,21.58,17.62,11.35,8.14,1.3
Kropotkin,45.4375,40.57556,RU,79599,540761,Kropotkin,-0.45,3.48,5.97,14.11,17.13,18.95,25.78,21.65,17.38,10.33,6.89,-0.62
Kronstadt,59.99541,29.76668,RU,43005,540771,Kronstadt,-9.16,-7.88,-1.53,2.62,8.77,15.24,17.33,15.99,10.93,4.12,-1.16,-4.33
Krasnyy Sulin,47.89221,40.07037,RU,44133,541404,Krasnyy Sulin,-6.72,-1.52,1.69,12.19,16.23,18.24,24.59,20.03,15.35,8.15,3.31,-4.38
Biryulëvo Zapadnoye,55.58766,37.64282,RU,89000,541406,Biryulëvo Zapadnoye,-11.25,-9.09,-4.05,4.12,11.89,15.59,19.26,16.31,11.25,5.13,-3.09,-6.72
Krasnoye Selo,59.73833,30.08944,RU,44323,542000,Krasnoye Selo,-11.37,-9.7,-2.43,2.52,9.36,15.6,16.97,15.25,10.04,3.67,-2.27,-5.76
Krasnovishersk,60.40783,57.08199,RU,18185,542184,Krasnovishersk,-19.51,-11.05,-4.35,0.23,6.25,11.9,18.06,13.57,10.91,1.99,-9.85,-14.03
Krasnoufimsk,56.60585,57.76686,RU,43121,542199,Krasnoufimsk,-16.28,-10.21,-4.1,2.6,10.47,14.84,18.65,14.71,11.64,2.35,-7.99,-16.6
Krasnokamsk,58.0796,55.7552,RU,52689,542327,Krasnokamsk,-17.32,-10.56,-3.83,1.97,10.18,14.94,19.54,14.53,11.6,3.07,-8.09,-15.21
Krasnogvardeyskoye,45.84604,41.51885,RU,16169,542334,Krasnogvardeyskoye,-1.25,2.17,5.31,14.14,17.74,19.73,27.45,22.05,17.53,10.32,6.32,-1.44
Krasnogorsk,55.82036,37.33017,RU,92932,542374,Krasnogorsk,-11.0,-8.87,-3.6,4.2,12.1,15.7,19.32,16.4,11.33,5.17,-2.91,-6.64
Krasnodar,45.04484,38.97603,RU,899541,542420,Krasnodar,0.82,4.69,6.51,14.09,16.57,18.96,24.88,22.04,17.83,10.85,7.83,0.22
Krasnoarmeyskaya,45.36614,38.21171,RU,29009,542461,Krasnoarmeyskaya,0.79,4.05,6.01,13.96,16.83,19.42,25.68,21.84,17.76,11.19,7.51,0.71
Krasnoarmeysk,56.1,38.13333,RU,25688,542463,Krasnoarmeysk,-11.01,-8.71,-3.4,4.2,12.0,15.72,19.41,16.38,11.45,5.07,-3.24,-7.31
Krasnoarmeysk,51.02389,45.69694,RU,25841,542464,Krasnoarmeysk,-10.97,-7.04,-4.17,7.89,14.0,17.09,22.24,18.16,12.88,5.75,-0.77,-11.63
Presnenskiy,55.75,37.55,RU,122000,542634,Presnenskiy,-11.19,-9.31,-4.09,4.01,12.12,15.89,19.55,16.65,11.52,5.39,-2.99,-6.68
Koz’modem’yansk,56.3419,46.56353,RU,22700,543018,Koz’modem’yansk,-13.37,-9.21,-5.0,3.64,11.56,15.99,20.21,16.89,11.44,4.64,-4.71,-11.89
Kozhukhovo,55.7,37.66667,RU,50000,543254,Kozhukhovo,-11.27,-9.45,-4.24,3.92,12.1,15.91,19.56,16.63,11.52,5.42,-3.01,-6.67
Kozeyevo,55.86667,37.61667,RU,50000,543344,Kozeyevo,-11.15,-9.0,-3.84,4.11,11.97,15.67,19.35,16.45,11.37,5.17,-3.09,-6.85
Kozel’sk,54.03746,35.77159,RU,19500,543348,Kozel’sk,-10.45,-8.38,-3.65,4.52,12.8,16.25,19.88,16.43,11.63,5.68,-0.82,-5.07
Kovylkino,54.03876,43.91385,RU,21400,543436,Kovylkino,-11.97,-7.41,-4.35,5.91,12.44,16.24,20.69,17.25,11.73,4.96,-2.75,-10.4
Kovrov,56.35722,41.31917,RU,154224,543460,Kovrov,-11.72,-8.46,-4.03,4.64,11.2,15.84,19.53,16.45,10.92,5.06,-4.01,-9.29
Kovdor,67.56616,30.47576,RU,19518,543508,Kovdor,-12.01,-17.28,-5.51,-5.08,2.13,12.65,14.98,12.39,5.57,0.01,-8.08,-9.35
Kotovsk,52.59047,41.50251,RU,33077,543605,Kotovsk,-9.91,-6.41,-3.26,7.68,13.58,17.18,21.69,17.72,12.3,6.02,-1.09,-7.71
Kotovo,50.32113,44.80119,RU,26981,543633,Kotovo,-10.17,-5.91,-2.89,9.74,14.8,17.52,23.35,18.8,13.54,6.41,-0.13,-9.99
Kotlas,61.25745,46.64963,RU,59180,543704,Kotlas,-13.6,-10.75,-3.69,1.96,7.96,14.56,18.93,14.37,10.53,3.53,-8.35,-9.72
Kotel’nikovo,47.63009,43.14068,RU,19622,543728,Kotel’nikovo,-6.06,-1.13,2.79,12.94,17.18,20.16,26.42,20.99,16.34,9.23,4.0,-4.02
Kotel’niki,55.63546,37.8445,RU,18300,543731,Kotel’niki,-11.4,-9.23,-4.2,4.04,11.83,15.58,19.24,16.28,11.22,5.08,-3.24,-6.94
Kotel’nich,58.3089,48.348,RU,27600,543737,Kotel’nich,-14.5,-10.14,-4.53,2.49,10.27,14.92,19.52,16.15,10.74,3.86,-6.79,-11.79
Kostroma,57.76647,40.92686,RU,277280,543878,Kostroma,-12.57,-9.7,-4.66,3.01,10.33,14.86,18.94,16.02,10.87,4.76,-4.19,-9.4
Kostomuksha,64.571,30.57667,RU,30135,543899,Kostomuksha,-11.2,-15.22,-3.87,-1.9,4.06,15.07,16.72,13.97,7.77,1.08,-6.67,-8.0
Kosaya Gora,54.11896,37.54459,RU,17836,544293,Kosaya Gora,-10.61,-8.39,-4.45,4.52,12.22,15.81,19.64,16.11,11.34,5.32,-1.93,-5.93
Koryazhma,61.31433,47.16914,RU,42627,544370,Koryazhma,-13.91,-10.6,-3.69,1.75,7.89,14.37,18.84,14.32,10.52,3.35,-8.62,-9.86
Korenovsk,45.46899,39.45136,RU,41665,544896,Korenovsk,-0.06,3.63,6.13,13.94,16.81,19.0,25.53,21.86,17.5,10.65,7.18,-0.09
Konstantinovsk,47.58278,41.09222,RU,18876,545277,Konstantinovsk,-5.5,-0.71,2.91,13.22,17.31,19.57,25.95,20.74,16.14,9.15,4.23,-3.52
Kondopoga,62.20565,34.26138,RU,34360,545626,Kondopoga,-11.2,-12.58,-3.1,0.44,6.23,15.36,18.21,15.31,9.93,3.37,-4.84,-7.68
Konakovo,56.7,36.76667,RU,42239,545673,Konakovo,-11.15,-8.95,-3.05,4.15,11.9,15.53,19.18,16.3,11.25,5.12,-2.71,-6.71
Kommunar,59.62056,30.39,RU,17358,545788,Kommunar,-11.54,-9.65,-2.14,2.92,10.04,16.14,17.42,15.64,10.35,4.02,-1.99,-5.62
Kolpino,59.75069,30.58856,RU,138979,546105,Kolpino,-11.12,-9.59,-2.02,2.88,9.85,16.26,17.65,15.87,10.56,4.17,-1.95,-5.39
Kolomyagi,60.02427,30.28491,RU,39945,546225,Kolomyagi,-9.9,-9.04,-2.07,2.28,9.07,15.73,17.48,15.97,10.79,4.12,-1.7,-4.81
Kolomna,55.07944,38.77833,RU,147690,546230,Kolomna,-10.93,-8.09,-3.83,4.86,12.34,16.35,20.06,16.77,11.66,5.44,-2.91,-6.86
Kolomenskoye,55.66667,37.68333,RU,30000,546244,Kolomenskoye,-11.22,-9.4,-4.19,3.97,12.15,15.96,19.61,16.68,11.57,5.47,-2.96,-6.61
Kol’chugino,56.29929,39.38304,RU,45912,546521,Kol’chugino,-11.34,-8.79,-3.87,4.01,11.19,15.31,19.13,16.04,11.17,4.81,-3.79,-8.28
Kokhma,56.93487,41.0915,RU,28984,546672,Kokhma,-12.04,-9.11,-4.48,3.74,10.86,15.49,19.4,16.33,10.89,4.98,-4.17,-9.29
Klintsy,52.76033,32.23905,RU,66336,547475,Klintsy,-9.26,-8.32,-1.93,5.7,13.48,16.96,20.04,16.56,12.09,5.4,1.17,-3.83
Klin,56.33333,36.73333,RU,80778,547523,Klin,-11.03,-8.81,-3.01,4.43,12.08,15.5,19.12,16.17,11.22,5.08,-2.66,-6.54
Klimovsk,55.36352,37.52984,RU,55206,547560,Klimovsk,-11.03,-8.62,-3.61,4.51,12.14,15.79,19.44,16.38,11.36,5.25,-2.84,-6.55
Kizlyar,43.84712,46.71445,RU,50564,547840,Kizlyar,1.03,3.29,6.43,13.48,17.85,21.04,26.38,23.37,17.89,11.48,8.33,1.96
Kizilyurt,43.1883,46.88511,RU,33411,547849,Kizilyurt,0.92,3.22,6.4,13.11,16.71,19.25,23.65,21.72,16.86,10.78,8.02,0.42
Kizel,59.04709,57.64767,RU,21807,547875,Kizel,-19.37,-11.3,-4.72,0.25,6.79,12.15,17.08,12.91,10.22,1.44,-10.06,-15.97
Kislovodsk,43.91333,42.72083,RU,132771,548114,Kislovodsk,-3.39,-0.47,2.8,10.53,12.67,14.81,19.34,17.08,12.42,6.04,4.14,-4.18
Kirzhach,56.15273,38.85509,RU,30566,548278,Kirzhach,-11.1,-8.61,-3.46,4.25,11.64,15.6,19.38,16.32,11.45,5.03,-3.51,-7.83
Kirsanov,52.65494,42.72236,RU,17975,548330,Kirsanov,-10.74,-7.0,-3.99,6.85,13.34,16.79,21.22,17.6,12.16,5.62,-1.68,-9.21
Kirovsk,67.61475,33.67274,RU,29605,548391,Kirovsk,-12.14,-18.94,-6.91,-6.83,0.68,9.68,14.2,12.0,5.58,-0.58,-8.09,-10.52
Kirovsk,59.88101,30.99507,RU,24678,548392,Kirovsk,-10.97,-9.59,-1.9,2.71,9.57,16.48,18.02,16.13,10.84,4.43,-1.85,-5.35
Kirovo-Chepetsk,58.55386,50.03986,RU,90252,548395,Kirovo-Chepetsk,-15.45,-10.23,-4.31,1.87,10.1,14.66,19.65,15.79,10.72,3.51,-7.61,-12.49
Kirov,58.59665,49.66007,RU,507155,548408,Kirov,-15.44,-10.36,-4.5,1.84,9.93,14.54,19.61,15.72,10.56,3.34,-7.59,-12.47
Kirov,54.06686,34.29955,RU,39319,548410,Kirov,-10.65,-8.62,-2.95,4.55,12.67,16.4,19.47,16.27,11.4,5.18,-0.64,-4.89
Kirishi,59.44712,32.02049,RU,56190,548442,Kirishi,-12.02,-9.74,-1.89,3.41,10.92,16.46,18.11,16.05,10.7,4.41,-1.86,-5.86
Kireyevsk,53.93361,37.92792,RU,25513,548506,Kireyevsk,-10.58,-8.16,-4.58,4.92,12.52,16.04,19.94,16.36,11.56,5.57,-1.72,-5.87
Kingisepp,59.37331,28.61343,RU,50566,548602,Kingisepp,-11.18,-9.12,-1.72,2.99,10.54,16.69,17.53,16.15,10.7,4.36,-1.18,-5.04
Kineshma,57.43914,42.12894,RU,92983,548605,Kineshma,-12.23,-9.13,-4.48,3.48,10.6,15.37,19.37,16.51,10.92,4.85,-4.29,-9.85
Kinel’-Cherkassy,53.4706,51.47431,RU,18393,548622,Kinel’-Cherkassy,-14.63,-9.19,-4.19,6.23,14.02,17.15,21.77,18.09,13.07,4.75,-3.43,-14.81
Kinel’,53.22571,50.62907,RU,34336,548625,Kinel’,-14.46,-9.26,-4.47,6.65,14.34,17.39,22.43,18.38,13.36,5.13,-2.49,-14.69
Kimry,56.86667,37.35,RU,52070,548652,Kimry,-11.45,-9.12,-3.19,4.16,11.57,15.31,19.05,16.23,11.24,5.1,-3.04,-7.18
Kimovsk,53.97164,38.53186,RU,31947,548658,Kimovsk,-10.74,-8.1,-4.55,5.11,12.37,16.12,20.01,16.35,11.53,5.47,-2.09,-6.29
Khot'kovo,56.25699,37.99544,RU,20872,549373,Khot'kovo,-11.34,-8.97,-3.59,4.03,11.45,15.12,18.91,15.94,11.1,4.76,-3.53,-7.54
Khosta,43.51484,39.86825,RU,20000,549424,Khosta,7.36,8.94,11.0,16.19,17.71,20.23,24.83,22.17,18.88,13.59,11.61,6.52
Khoroshëvo-Mnevniki,55.78363,37.47137,RU,159000,549479,Khoroshëvo-Mnevniki,-11.31,-9.41,-4.17,3.88,11.99,15.71,19.36,16.47,11.36,5.22,-3.1,-6.77
Kholmskiy,44.84694,38.385,RU,17494,549741,Kholmskiy,1.19,4.66,6.21,13.81,16.12,18.61,24.26,21.32,17.3,10.68,7.77,0.3
Khimki,55.89704,37.42969,RU,239967,550280,Khimki,-11.22,-9.16,-3.87,3.96,11.85,15.47,19.14,16.24,11.18,5.01,-3.14,-6.87
Khasavyurt,43.2509,46.58766,RU,126829,550478,Khasavyurt,0.35,2.73,5.93,12.8,16.35,18.69,23.35,21.32,16.37,10.2,7.47,-0.33
Kharabali,47.41958,47.25678,RU,18223,550671,Kharabali,-6.46,-1.72,2.32,12.4,18.55,21.18,26.7,22.03,16.68,9.67,3.64,-5.37
Khadyzhensk,44.4258,39.5362,RU,21685,550846,Khadyzhensk,0.99,5.12,6.97,13.9,16.03,18.18,23.55,20.87,16.86,10.25,8.23,0.04
Kazan,55.78874,49.12214,RU,1243500,551487,Kazan,-15.02,-10.06,-5.58,3.28,12.26,16.24,20.66,16.94,11.76,4.43,-5.24,-13.62
Katav-Ivanovsk,54.75306,58.19556,RU,19339,551794,Katav-Ivanovsk,-14.84,-9.84,-3.95,2.68,10.14,13.91,17.4,14.51,11.12,1.29,-7.02,-17.03
Kastanayevo,55.71667,37.5,RU,20000,551835,Kastanayevo,-11.21,-9.4,-4.2,3.97,12.08,15.79,19.47,16.57,11.48,5.38,-2.93,-6.53
Kaspiysk,42.88165,47.63919,RU,81752,551847,Kaspiysk,2.56,4.28,6.4,12.3,17.26,20.34,24.94,23.1,18.55,12.29,9.68,4.24
Kasimov,54.94111,41.39528,RU,35355,551891,Kasimov,-11.12,-7.28,-3.77,5.56,12.17,16.42,20.55,17.27,11.64,5.47,-3.07,-8.44
Kashira,54.84444,38.16694,RU,40084,551964,Kashira,-10.54,-7.9,-3.59,4.95,12.52,16.37,20.1,16.71,11.74,5.64,-2.39,-6.2
Kashin,57.35917,37.60806,RU,16598,551986,Kashin,-11.85,-9.82,-3.6,3.47,11.03,14.98,18.71,16.06,11.02,4.88,-3.39,-7.5
Karachev,53.12255,34.98494,RU,19757,552920,Karachev,-9.76,-7.7,-2.7,5.62,13.26,16.53,20.31,16.38,11.64,5.56,-0.2,-4.59
Karachayevsk,43.77399,41.91419,RU,20264,552924,Karachayevsk,-4.34,-0.78,2.14,9.23,11.54,13.91,17.75,15.77,11.63,5.36,3.25,-4.49
Karabulak,43.30513,44.89949,RU,34511,552951,Karabulak,-2.46,0.79,4.49,12.55,15.48,17.62,22.03,19.94,14.76,7.93,5.36,-2.26
Karabanovo,56.31667,38.7,RU,15615,552977,Karabanovo,-11.39,-8.96,-3.71,3.98,11.31,15.2,19.04,16.03,11.18,4.79,-3.75,-8.03
Kapotnya,55.63806,37.79306,RU,29594,553034,Kapotnya,-11.15,-8.98,-3.95,4.29,12.08,15.83,19.49,16.53,11.47,5.33,-2.99,-6.69
Kantyshevo,43.22824,44.63322,RU,17363,553092,Kantyshevo,-2.25,0.81,4.23,11.89,14.45,16.07,20.21,18.18,13.51,7.21,4.93,-2.22
Kanevskaya,46.0799,38.9599,RU,45334,553152,Kanevskaya,-0.89,2.43,5.29,13.78,16.87,19.2,25.69,21.6,17.29,10.62,6.51,-0.62
Kandalaksha,67.15123,32.41284,RU,38431,553190,Kandalaksha,-9.52,-14.64,-3.83,-3.67,2.91,13.18,15.94,13.94,7.71,1.95,-5.43,-6.9
Kanash,55.50962,47.49127,RU,49886,553216,Kanash,-14.35,-10.01,-6.06,3.63,11.13,15.19,19.69,16.13,10.8,3.98,-5.21,-13.09
Kamyzyak,46.10995,48.07364,RU,16191,553248,Kamyzyak,-3.73,-0.1,3.11,12.49,18.96,21.71,26.72,22.96,16.88,10.33,5.71,-2.52
Kamyshin,50.09833,45.41601,RU,128626,553287,Kamyshin,-10.13,-5.76,-2.81,8.36,15.14,18.46,24.06,19.55,14.33,7.0,0.55,-9.88
Kamensk-Shakhtinskiy,48.31779,40.25948,RU,75814,553399,Kamensk-Shakhtinskiy,-6.84,-1.59,1.91,12.44,16.34,18.56,25.01,20.25,15.64,8.46,3.52,-4.2
Kaluga,54.5293,36.27542,RU,340851,553915,Kaluga,-10.89,-8.81,-4.14,3.94,12.4,16.04,19.42,16.15,11.32,5.35,-1.71,-5.7
Kalininsk,51.5,44.4758,RU,18685,554199,Kalininsk,-10.41,-6.73,-3.88,8.21,13.98,16.85,21.85,17.84,12.63,5.85,-1.09,-11.02
Korolev,55.91417,37.82556,RU,139798,554233,Korolev,-11.08,-8.86,-3.69,4.16,11.93,15.66,19.32,16.38,11.33,5.1,-3.16,-7.04
Kaliningrad,54.70649,20.51095,RU,475056,554234,Kaliningrad,-7.13,-6.61,-0.03,4.76,11.98,16.29,16.82,16.87,12.89,7.86,3.73,0.53
Kalach-na-Donu,48.69099,43.52638,RU,27522,554397,Kalach-na-Donu,-7.74,-2.83,1.04,11.89,16.44,19.49,25.74,20.28,15.26,8.26,2.36,-5.61
Kalach,50.41957,41.0244,RU,20449,554410,Kalach,-8.29,-4.51,-1.25,10.7,14.96,18.31,23.82,19.08,13.75,7.16,0.86,-6.31
Kachkanar,58.7002,59.4839,RU,43983,554599,Kachkanar,-20.2,-11.96,-4.7,0.1,6.53,11.88,16.49,12.51,10.06,0.23,-11.09,-15.9
Kabanovo,55.74815,38.93511,RU,23414,554679,Kabanovo,-10.88,-8.23,-3.44,4.68,12.14,16.06,19.69,16.55,11.57,5.31,-3.12,-7.31
Izobil’nyy,45.37092,41.70839,RU,39022,554770,Izobil’nyy,-1.29,2.3,5.06,13.74,16.92,18.77,26.26,21.24,16.81,9.53,6.29,-1.5
Izmaylovo,55.78677,37.80165,RU,104000,554787,Izmaylovo,-11.18,-8.96,-3.91,4.14,11.94,15.69,19.34,16.42,11.33,5.13,-3.16,-7.0
Izhevsk,56.84976,53.20448,RU,648213,554840,Izhevsk,-16.1,-10.84,-4.72,3.0,11.31,15.43,19.34,15.31,11.38,3.38,-7.52,-15.95
Izberbash,42.56955,47.86447,RU,42121,554894,Izberbash,2.33,4.07,6.56,11.63,16.4,19.49,23.85,22.31,17.83,11.89,9.36,3.89
Ivanteyevka,55.97111,37.92083,RU,51085,555111,Ivanteyevka,-11.01,-8.76,-3.54,4.18,11.98,15.73,19.4,16.44,11.42,5.15,-3.15,-7.1
Ivanovskoye,55.76667,37.83333,RU,128000,555129,Ivanovskoye,-11.13,-8.91,-3.86,4.19,11.99,15.74,19.39,16.47,11.38,5.17,-3.11,-6.95
Ivanovo,56.99719,40.97139,RU,406113,555312,Ivanovo,-12.29,-9.42,-4.68,3.44,10.77,15.33,19.28,16.25,10.9,4.91,-4.27,-9.38
Istra,55.91997,36.86867,RU,33390,555746,Istra,-11.01,-8.88,-3.37,4.25,12.28,15.71,19.26,16.25,11.26,5.04,-2.88,-6.58
Ishimbay,53.45446,56.04149,RU,70421,555980,Ishimbay,-14.85,-10.04,-4.54,4.92,12.42,15.99,20.41,16.98,12.82,3.39,-5.31,-16.04
Ipatovo,45.71806,42.90361,RU,29073,556230,Ipatovo,-2.55,0.96,4.59,13.88,17.9,20.4,27.51,22.05,17.1,9.78,6.11,-2.18
Inza,53.85672,46.35622,RU,19737,556283,Inza,-12.79,-7.87,-4.16,5.72,12.34,15.65,20.9,16.7,11.47,4.53,-3.03,-11.79
Inozemtsevo,44.09264,43.09113,RU,28779,556320,Inozemtsevo,-2.95,0.2,3.79,12.07,14.68,16.86,21.79,19.41,14.14,7.52,5.0,-3.22
Il’skiy,44.84222,38.56686,RU,22970,556951,Il’skiy,1.63,4.96,6.43,13.91,16.1,18.53,24.08,21.28,17.32,10.74,8.05,0.31
Igra,57.5549,53.0544,RU,22033,557469,Igra,-16.5,-10.34,-4.24,2.51,10.78,15.15,19.13,14.77,11.1,3.17,-7.82,-14.86
Gus’-Khrustal’nyy,55.61113,40.65186,RU,62746,557775,Gus’-Khrustal’nyy,-11.05,-7.59,-3.44,5.24,12.08,16.45,20.18,16.91,11.45,5.3,-3.32,-8.31
Gusev,54.59222,22.19972,RU,28690,557882,Gusev,-8.11,-7.42,-0.17,4.81,12.51,16.41,16.89,16.8,12.38,7.3,3.0,-0.5
Gul’kevichi,45.35383,40.69465,RU,34953,558066,Gul’kevichi,-0.6,3.29,5.81,13.99,17.02,18.83,25.7,21.51,17.22,10.17,6.74,-0.79
Gukovo,48.06212,39.9355,RU,66079,558082,Gukovo,-7.32,-2.07,1.23,11.53,15.45,17.43,23.71,19.27,14.65,7.6,2.81,-4.78
Gudermes,43.35071,46.10925,RU,32769,558118,Gudermes,-0.06,2.73,6.43,13.74,17.47,19.77,24.97,22.55,17.1,10.62,7.43,-0.72
Gubkin,51.28167,37.5458,RU,87000,558146,Gubkin,-8.78,-5.86,-1.94,8.83,14.37,17.25,22.07,17.63,12.72,6.74,0.96,-4.95
Gubakha,58.83862,57.55325,RU,26605,558209,Gubakha,-19.31,-11.35,-4.69,0.37,7.14,12.43,17.19,12.98,10.24,1.45,-9.95,-16.17
Gryazovets,58.88,40.2525,RU,16133,558236,Gryazovets,-12.52,-10.25,-4.14,2.69,9.16,14.21,17.95,15.28,10.11,3.93,-4.52,-9.29
Gryazi,52.49657,39.93593,RU,47413,558312,Gryazi,-9.69,-6.42,-3.54,7.85,13.75,17.17,21.46,17.58,12.43,6.36,-0.49,-6.29
Groznyy,43.31195,45.68895,RU,297137,558418,Groznyy,-0.64,2.36,5.82,13.37,16.71,18.89,23.56,21.16,16.16,9.9,6.87,-1.17
Gribanovskiy,51.45513,41.97395,RU,17220,558799,Gribanovskiy,-9.39,-6.02,-3.11,8.99,14.03,17.43,22.33,17.97,12.57,6.2,-0.76,-8.42
Grazhdanka,60.03587,30.40518,RU,71128,559029,Grazhdanka,-10.18,-9.34,-2.17,2.29,9.14,15.82,17.48,15.9,10.7,4.09,-1.85,-4.99
Goryachiy Klyuch,44.63083,39.13,RU,28078,559317,Goryachiy Klyuch,1.2,5.16,6.88,14.08,16.25,18.59,23.96,21.37,17.46,10.74,8.29,0.05
Goryachevodskiy,44.02361,43.09222,RU,35075,559320,Goryachevodskiy,-3.1,0.05,3.64,11.92,14.53,16.72,21.64,19.26,13.99,7.37,4.85,-3.37
Gorodishche,48.80454,44.47439,RU,19509,559654,Gorodishche,-8.54,-3.25,0.68,11.6,16.44,19.78,25.73,20.04,15.1,7.9,1.8,-6.83
Gorodets,56.65493,43.47273,RU,31788,559678,Gorodets,-12.32,-8.72,-4.53,4.26,11.21,16.01,19.79,16.96,11.22,5.0,-4.34,-10.48
Gorelovo,59.77234,30.13455,RU,22503,560142,Gorelovo,-10.51,-9.05,-2.04,2.66,9.36,15.78,17.3,15.69,10.49,3.97,-1.78,-5.13
Gol’yanovo,55.82299,37.81306,RU,158000,560465,Gol’yanovo,-11.13,-8.91,-3.86,4.19,11.99,15.74,19.39,16.47,11.38,5.17,-3.11,-6.95
Golitsyno,55.60928,36.98212,RU,16056,560756,Golitsyno,-10.99,-8.73,-3.46,4.29,12.21,15.68,19.26,16.21,11.21,5.12,-2.8,-6.45
Glazov,58.1393,52.658,RU,100676,561347,Glazov,-16.65,-10.58,-4.38,1.94,10.28,14.89,18.98,14.88,11.0,3.25,-8.12,-14.37
Giaginskaya,44.86208,40.07195,RU,15169,561515,Giaginskaya,0.02,4.26,6.67,14.1,16.5,18.57,24.44,21.29,17.4,10.42,7.48,-0.82
Georgiyevsk,44.15194,43.46972,RU,72649,561627,Georgiyevsk,-2.35,0.67,4.6,12.97,15.8,18.24,23.51,20.95,15.4,8.42,5.63,-2.3
Gelendzhik,44.5622,38.0848,RU,50715,561667,Gelendzhik,3.85,5.85,6.94,13.42,16.09,19.31,24.54,21.76,18.0,12.03,9.19,3.18
Gay,51.4666,58.4552,RU,41619,561731,Gay,-16.8,-12.26,-6.27,5.64,11.93,16.19,20.32,17.24,12.6,2.21,-5.48,-16.46
Gavrilov-Yam,57.30185,39.85331,RU,17351,561762,Gavrilov-Yam,-11.82,-9.16,-3.85,3.93,10.88,15.12,19.11,16.18,11.27,5.02,-3.88,-8.53
Gatchina,59.57639,30.12833,RU,89761,561887,Gatchina,-11.5,-9.66,-2.27,2.72,9.78,15.91,17.19,15.46,10.19,3.86,-2.18,-5.72
Galich,58.37884,42.34633,RU,18594,562161,Galich,-12.39,-9.43,-4.13,2.35,9.79,14.72,18.86,15.92,10.7,4.46,-4.31,-9.84
Gagarin,55.55329,34.99684,RU,28879,562237,Gagarin,-11.14,-8.84,-2.92,3.99,12.37,15.73,18.88,16.04,11.09,4.92,-2.32,-5.95
Furmanov,57.25363,41.10849,RU,38380,562309,Furmanov,-12.07,-9.12,-4.27,3.63,10.63,15.14,19.15,16.21,10.92,4.88,-4.17,-9.3
Fryazino,55.96056,38.04556,RU,52255,562319,Fryazino,-11.15,-8.88,-3.63,4.06,11.82,15.59,19.26,16.27,11.26,4.97,-3.33,-7.33
Fryazevo,55.73321,38.46458,RU,53212,562321,Fryazevo,-10.82,-8.39,-3.53,4.55,12.09,15.97,19.64,16.55,11.55,5.36,-2.97,-6.98
Frolovo,49.77133,43.66222,RU,40882,562389,Frolovo,-9.16,-4.67,-1.35,10.74,15.54,18.63,24.67,19.47,14.15,7.12,0.75,-7.89
Fili,55.74819,37.47969,RU,80000,562820,Fili,-11.46,-9.64,-4.46,3.72,11.82,15.54,19.22,16.32,11.23,5.13,-3.18,-6.78
Ezhva,61.81281,50.72834,RU,56000,563379,Ezhva,-15.72,-10.61,-3.96,-0.14,6.92,12.76,18.25,13.35,10.17,2.79,-9.69,-10.92
Engels,51.48389,46.10528,RU,196011,563464,Engels,-11.27,-7.09,-4.06,7.7,14.76,17.97,23.06,18.82,13.31,6.15,-0.42,-12.06
Enem,44.9264,38.90584,RU,17665,563472,Enem,1.1,4.9,6.58,14.06,16.4,18.81,24.54,21.82,17.69,10.87,8.01,0.17
Elista,46.30778,44.25583,RU,106971,563514,Elista,-4.27,-0.72,3.46,13.35,18.01,20.83,27.05,22.0,16.3,9.66,5.03,-3.98
Elektrougli,55.72445,38.20908,RU,20000,563522,Elektrougli,-11.05,-8.76,-3.84,4.34,11.97,15.82,19.47,16.48,11.42,5.28,-3.09,-6.96
Elektrostal’,55.78959,38.44671,RU,144387,563523,Elektrostal’,-11.03,-8.63,-3.74,4.29,11.82,15.72,19.35,16.34,11.32,5.15,-3.21,-7.24
Elektrogorsk,55.88431,38.7864,RU,20724,563524,Elektrogorsk,-10.93,-8.39,-3.44,4.46,12.01,15.95,19.61,16.52,11.56,5.24,-3.23,-7.45
Ekazhevo,43.21222,44.82306,RU,25549,563551,Ekazhevo,-1.73,1.37,4.75,12.28,14.85,16.61,20.69,18.73,14.11,7.89,5.71,-1.6
Dzerzhinskiy,55.62945,37.85654,RU,41146,563705,Dzerzhinskiy,-11.15,-8.81,-3.86,4.35,12.01,15.76,19.42,16.44,11.39,5.22,-3.05,-6.84
Dzerzhinsk,56.24143,43.45539,RU,233126,563708,Dzerzhinsk,-11.96,-8.04,-4.16,5.09,11.44,16.08,19.93,16.98,11.35,5.25,-4.0,-10.18
Dyurtyuli,55.49106,54.86883,RU,31087,563719,Dyurtyuli,-15.12,-9.83,-4.17,4.42,12.73,16.38,20.14,16.77,12.39,4.0,-6.05,-16.22
Dyat’kovo,53.59782,34.33825,RU,25000,563822,Dyat’kovo,-10.05,-8.09,-2.52,5.1,12.83,16.56,19.8,16.3,11.48,5.27,-0.27,-4.58
Dubovka,49.05825,44.829,RU,15217,564654,Dubovka,-8.96,-4.1,-0.33,11.14,16.41,19.66,25.6,20.0,15.0,7.73,1.61,-7.65
Dubna,56.73333,37.16667,RU,60604,564719,Dubna,-11.18,-8.85,-3.01,4.38,11.88,15.49,19.21,16.31,11.36,5.15,-2.81,-6.89
Dorogomilovo,55.75,37.56667,RU,68000,565197,Dorogomilovo,-11.24,-9.36,-4.14,3.96,12.07,15.84,19.5,16.6,11.48,5.34,-3.04,-6.73
Donskoye,45.45518,41.97411,RU,15469,565289,Donskoye,-1.35,2.13,5.12,13.96,17.43,19.5,27.07,21.67,17.13,9.8,6.44,-1.44
Donskoy,53.97106,38.33627,RU,31968,565290,Donskoy,-10.68,-8.12,-4.56,4.99,12.38,16.07,19.99,16.34,11.52,5.48,-2.02,-6.17
Donetsk,48.33962,39.95948,RU,50850,565348,Donetsk,-7.15,-1.8,1.71,12.24,16.08,18.3,24.64,20.07,15.42,8.26,3.35,-4.36
Domodedovo,55.4413,37.75367,RU,53887,565381,Domodedovo,-10.84,-8.39,-3.4,4.72,12.24,15.95,19.62,16.53,11.52,5.38,-2.74,-6.5
Dolgoprudnyy,55.94958,37.50183,RU,68259,565614,Dolgoprudnyy,-11.38,-9.35,-4.13,3.84,11.78,15.47,19.14,16.26,11.17,5.0,-3.27,-6.97
Dobryanka,58.4644,56.4127,RU,33291,565778,Dobryanka,-17.69,-10.73,-4.13,1.35,9.44,14.25,18.94,14.47,11.52,2.94,-8.36,-14.91
Dmitrov,56.34485,37.52041,RU,61607,565955,Dmitrov,-11.11,-8.74,-3.24,4.45,11.9,15.45,19.23,16.26,11.37,5.11,-3.01,-6.94
Divnoye,45.90889,43.35472,RU,15700,566155,Divnoye,-3.21,0.31,4.22,13.77,18.03,20.76,27.27,22.34,16.98,9.93,5.84,-2.64
Dinskaya,45.21516,39.2265,RU,34573,566181,Dinskaya,0.5,4.37,6.48,14.19,16.88,19.23,25.35,22.13,17.93,10.99,7.72,0.31
Dimitrovgrad,54.21386,49.61838,RU,132226,566199,Dimitrovgrad,-14.01,-8.75,-4.34,5.29,13.49,16.65,21.79,17.77,12.56,4.72,-3.42,-13.54
Desnogorsk,54.15077,33.28151,RU,32451,566384,Desnogorsk,-10.49,-8.72,-2.59,4.17,12.68,16.2,19.22,16.09,11.34,4.87,-0.44,-4.74
Derbent,42.06779,48.28987,RU,105965,566532,Derbent,3.12,4.56,6.81,11.18,16.12,19.6,24.05,22.71,18.55,12.54,10.21,4.94
Dedovsk,55.86861,37.12222,RU,27001,566854,Dedovsk,-11.07,-8.96,-3.54,4.08,12.0,15.5,19.1,16.12,11.12,4.94,-3.02,-6.74
Davydkovo,55.71815,37.47271,RU,30000,566976,Davydkovo,-11.26,-9.44,-4.26,3.92,12.02,15.74,19.42,16.52,11.43,5.33,-2.98,-6.58
Davlekanovo,54.22145,55.03434,RU,23952,567006,Davlekanovo,-15.39,-10.62,-4.88,4.88,12.58,16.34,20.41,16.95,12.46,3.68,-5.41,-16.27
Dankov,53.25155,39.15553,RU,22913,567109,Dankov,-9.95,-6.97,-3.85,6.55,13.34,16.88,20.94,17.1,12.11,6.14,-1.08,-5.89
Danilov,58.1908,40.17171,RU,16808,567183,Danilov,-12.27,-9.78,-4.21,2.9,9.81,14.45,18.33,15.53,10.49,4.33,-4.3,-9.22
Dagestanskiye Ogni,42.11589,48.19204,RU,27835,567290,Dagestanskiye Ogni,2.35,3.99,6.42,11.15,15.73,19.06,23.39,21.95,17.71,11.79,9.42,3.99
Dachnoye,59.84167,30.25583,RU,72822,567311,Dachnoye,-10.75,-9.31,-2.0,2.86,9.73,16.1,17.54,15.86,10.6,4.16,-1.76,-5.17
Chusovoy,58.3013,57.8131,RU,50205,567434,Chusovoy,-18.5,-10.61,-3.86,1.56,9.46,14.23,18.59,14.19,11.44,2.34,-8.9,-15.96
Chudovo,59.11667,31.68333,RU,17377,567774,Chudovo,-12.11,-9.59,-1.85,3.54,11.26,16.47,18.01,15.99,10.69,4.41,-1.68,-5.73
Chistopol’,55.36311,50.64244,RU,62200,567990,Chistopol’,-15.02,-9.87,-5.02,3.49,12.58,16.16,20.55,16.62,11.64,4.07,-5.18,-14.28
Chishmy,54.57648,55.37642,RU,22000,568012,Chishmy,-15.12,-9.87,-4.06,5.12,12.74,16.43,20.34,17.06,12.69,3.92,-5.49,-16.46
Chernyanka,50.93432,37.81664,RU,15261,568587,Chernyanka,-8.46,-5.26,-1.39,9.65,14.67,17.57,22.66,18.06,13.11,7.07,1.42,-4.71
Chernyakhovsk,54.63345,21.81557,RU,45187,568595,Chernyakhovsk,-8.09,-7.43,-0.14,4.76,12.37,16.24,16.75,16.69,12.38,7.39,3.13,-0.24
Chernushka,56.50722,56.07661,RU,35942,568608,Chernushka,-16.33,-10.44,-4.25,2.72,11.26,15.47,19.5,15.45,11.93,3.24,-7.51,-16.81
Chernogolovka,56.0,38.36667,RU,20483,568808,Chernogolovka,-11.0,-8.63,-3.45,4.26,11.93,15.8,19.46,16.4,11.45,5.11,-3.27,-7.41
Cherkessk,44.22333,42.05778,RU,122395,569154,Cherkessk,-3.19,0.6,4.24,12.0,14.17,16.41,20.97,18.7,13.81,7.29,4.8,-3.47
Cherepovets,59.13333,37.9,RU,315738,569223,Cherepovets,-12.08,-10.43,-3.71,2.23,9.76,15.17,18.68,16.03,10.54,4.3,-4.06,-7.94
Cherëmushki,55.66473,37.56135,RU,106587,569273,Cherëmushki,-11.62,-9.81,-4.61,3.56,11.71,15.47,19.14,16.22,11.12,5.02,-3.35,-6.97
Chekhov,55.1477,37.47728,RU,75643,569591,Chekhov,-10.72,-8.27,-3.47,4.64,12.3,15.97,19.63,16.41,11.44,5.43,-2.51,-6.23
Chegem,43.55862,43.59285,RU,18429,569639,Chegem,-4.48,-0.82,3.04,11.45,14.12,16.31,20.74,18.34,13.48,6.52,4.1,-4.15
Cheboksary,56.13222,47.25194,RU,492331,569696,Cheboksary,-13.73,-9.43,-5.25,3.51,11.46,15.84,20.15,16.85,11.38,4.57,-4.97,-12.4
Chaykovskiy,56.76864,54.11484,RU,86712,569742,Chaykovskiy,-15.89,-10.26,-4.38,2.34,11.46,15.77,19.69,15.74,11.99,3.87,-6.77,-15.5
Chapayevsk,52.9771,49.7086,RU,70147,569955,Chapayevsk,-13.99,-8.73,-4.25,6.97,14.49,17.43,22.55,18.52,13.38,5.4,-1.75,-14.08
Buzuluk,52.7807,52.2635,RU,87714,570427,Buzuluk,-14.93,-9.69,-4.34,6.78,14.14,17.46,22.29,18.45,13.29,4.71,-2.82,-15.28
Buynaksk,42.819,47.1192,RU,62689,570479,Buynaksk,-1.11,1.02,4.24,11.71,14.71,17.1,21.17,19.33,14.62,8.49,5.81,-2.43
Buy,58.48067,41.53699,RU,26486,570508,Buy,-12.42,-9.64,-4.11,2.89,9.86,14.7,18.72,15.85,10.66,4.43,-4.23,-9.57
Buturlinovka,50.8299,40.6067,RU,28581,570563,Buturlinovka,-8.43,-4.77,-1.66,10.41,14.76,18.27,23.32,18.67,13.37,6.91,0.59,-6.4
Buinsk,54.97119,48.29184,RU,20266,571155,Buinsk,-14.13,-9.56,-5.54,4.22,12.11,15.96,20.85,16.93,11.73,4.55,-4.31,-13.01
Buguruslan,53.6554,52.442,RU,53511,571159,Buguruslan,-15.23,-9.93,-4.64,5.4,13.45,16.69,21.13,17.56,12.53,4.15,-4.19,-15.42
Bugulma,54.5378,52.7985,RU,91900,571170,Bugulma,-15.83,-10.59,-5.17,4.03,11.94,15.09,19.45,15.91,11.19,2.97,-5.63,-15.94
Budyonnovsk,44.78389,44.16583,RU,67962,571306,Budyonnovsk,-2.32,0.68,4.9,13.74,17.53,20.83,27.31,22.45,16.83,9.44,6.11,-1.76
Bryukhovetskaya,45.80603,38.99959,RU,22309,571420,Bryukhovetskaya,-0.31,3.05,5.72,13.95,16.85,19.21,25.73,21.75,17.51,10.84,6.96,-0.16
Bryansk,53.25209,34.37167,RU,427236,571476,Bryansk,-9.82,-7.93,-2.47,5.58,13.13,16.71,20.17,16.41,11.59,5.34,-0.19,-4.57
Bronnitsy,55.42112,38.26188,RU,18645,571557,Bronnitsy,-10.83,-8.19,-3.42,4.86,12.24,16.09,19.78,16.65,11.65,5.47,-2.77,-6.67
Brateyevo,55.63755,37.76438,RU,102000,571741,Brateyevo,-11.05,-8.88,-3.85,4.39,12.18,15.93,19.59,16.63,11.57,5.43,-2.89,-6.59
Borovichi,58.38778,33.91546,RU,56571,572154,Borovichi,-12.11,-9.97,-2.4,3.65,11.44,15.84,18.19,16.37,10.62,4.36,-2.34,-6.45
Borisoglebsk,51.36713,42.08494,RU,68597,572525,Borisoglebsk,-9.09,-5.67,-2.74,9.5,14.46,17.94,22.87,18.39,12.98,6.54,-0.42,-8.19
Bor,56.35808,44.07477,RU,60647,572665,Bor,-12.04,-8.09,-4.1,5.01,11.59,16.13,20.0,17.01,11.42,5.24,-4.15,-10.42
Bol’shaya Setun’,55.71667,37.41667,RU,20000,574675,Bol’shaya Setun’,-11.0,-8.98,-3.77,4.19,12.12,15.76,19.41,16.48,11.42,5.3,-2.84,-6.5
Bologoye,57.88585,34.04876,RU,25142,575349,Bologoye,-11.82,-9.8,-2.53,3.44,11.41,15.58,18.09,16.09,10.43,4.21,-2.54,-6.53
Boksitogorsk,59.47405,33.84853,RU,17366,575410,Boksitogorsk,-12.16,-10.13,-2.46,2.76,10.41,15.48,17.83,15.8,10.21,3.69,-3.41,-6.79
Boguchar,49.93577,40.545,RU,15048,575457,Boguchar,-7.85,-3.92,-0.48,11.09,15.17,18.29,23.96,19.28,14.05,7.46,1.55,-5.56
Bogorodskoye,55.81353,37.71617,RU,103000,575505,Bogorodskoye,-11.2,-9.06,-4.0,4.1,12.0,15.75,19.41,16.5,11.4,5.22,-3.1,-6.87
Bogorodsk,56.10513,43.51294,RU,36652,575560,Bogorodsk,-11.93,-7.95,-4.15,5.15,11.27,15.87,19.76,16.77,11.17,5.06,-4.09,-10.28
Bogoroditsk,53.77166,38.12408,RU,30216,575591,Bogoroditsk,-10.5,-8.07,-4.41,5.29,12.52,16.05,19.9,16.24,11.48,5.5,-1.79,-6.01
Bobrov,51.0994,40.0244,RU,20587,575948,Bobrov,-8.81,-5.24,-2.18,9.93,14.31,17.75,22.39,18.1,12.85,6.61,0.36,-6.23
Blagoveshchensk,55.035,55.97806,RU,34238,576116,Blagoveshchensk,-15.12,-9.79,-3.96,4.55,12.46,16.01,20.03,16.74,12.62,3.82,-5.85,-16.79
Blagodarnyy,45.09778,43.43639,RU,35995,576172,Blagodarnyy,-2.59,0.69,4.64,13.56,17.23,20.02,27.06,22.11,16.73,9.26,6.08,-1.91
Biryulëvo,55.58635,37.67781,RU,144000,576279,Biryulëvo,-11.37,-9.23,-4.21,4.05,11.86,15.6,19.27,16.32,11.26,5.14,-3.19,-6.81
Birsk,55.42111,55.54278,RU,41014,576317,Birsk,-15.64,-10.31,-4.48,3.87,12.14,15.78,19.71,16.38,12.1,3.53,-6.41,-16.99
Bibirevo,55.88333,37.6,RU,159000,576432,Bibirevo,-11.19,-9.05,-3.89,4.07,11.92,15.62,19.3,16.4,11.32,5.12,-3.14,-6.9
Bezhetsk,57.78506,36.69651,RU,28114,576566,Bezhetsk,-12.06,-9.85,-3.26,3.58,10.9,14.93,18.41,16.11,10.69,4.5,-3.03,-7.42
Bezenchuk,52.982,49.4333,RU,23736,576590,Bezenchuk,-13.88,-8.69,-4.36,6.91,14.5,17.44,22.59,18.56,13.31,5.44,-1.63,-13.93
Beslan,43.19217,44.54313,RU,35604,576697,Beslan,-2.09,1.06,4.53,12.19,14.69,16.3,20.47,18.38,13.79,7.52,5.23,-2.12
Berezniki,59.4091,56.8204,RU,167748,577206,Berezniki,-18.98,-11.23,-4.63,0.21,7.49,12.51,17.94,13.7,10.87,2.2,-9.45,-14.71
Beloretsk,53.96306,58.39806,RU,70468,577881,Beloretsk,-16.68,-12.49,-5.45,2.21,9.4,13.56,16.97,13.72,10.46,0.26,-8.0,-17.46
Belorechensk,44.77127,39.87879,RU,54526,577893,Belorechensk,0.3,4.53,6.92,14.21,16.49,18.61,24.17,21.26,17.44,10.53,7.78,-0.62
Beloozyorskiy,55.45978,38.44358,RU,18297,577901,Beloozyorskiy,-10.8,-8.18,-3.33,4.87,12.28,16.13,19.83,16.7,11.69,5.48,-2.78,-6.75
Belgorod,50.61074,36.58015,RU,345289,578072,Belgorod,-8.37,-5.8,-1.37,9.0,14.73,17.59,22.76,17.56,12.77,6.66,1.44,-4.6
Belëv,53.81194,36.13194,RU,15300,578091,Belëv,-10.39,-8.23,-3.78,4.69,12.82,16.17,20.03,16.46,11.63,5.74,-0.8,-5.1
Belebey,54.11667,54.11667,RU,62582,578120,Belebey,-16.09,-10.92,-5.35,3.78,11.95,15.3,19.55,16.07,11.46,2.84,-5.79,-16.15
Belaya Kalitva,48.18585,40.77424,RU,47521,578155,Belaya Kalitva,-6.62,-1.36,2.17,12.71,16.68,19.0,25.55,20.53,15.86,8.71,3.66,-4.03
Belaya Glina,46.07802,40.86651,RU,17997,578169,Belaya Glina,-1.72,1.7,5.04,13.94,17.59,19.59,26.86,21.82,17.18,10.23,5.99,-1.64
Baymak,52.59333,58.3225,RU,17493,578534,Baymak,-16.05,-13.0,-5.69,3.81,10.74,14.3,18.21,14.77,11.22,1.09,-7.18,-16.6
Bavly,54.39304,53.26023,RU,22982,578638,Bavly,-15.71,-10.47,-4.94,4.44,12.38,15.59,19.9,16.32,11.71,3.44,-5.22,-16.07
Bataysk,47.13975,39.75181,RU,109962,578740,Bataysk,-3.79,0.6,3.89,13.48,17.35,19.35,26.05,21.22,16.6,9.76,5.14,-2.67
Barysh,53.65533,47.11229,RU,18547,578931,Barysh,-12.8,-8.24,-4.32,5.66,12.59,15.72,20.85,16.69,11.55,4.54,-2.93,-12.27
Balezino,57.9787,53.0138,RU,16618,579432,Balezino,-16.58,-10.48,-4.31,2.02,10.35,14.96,18.96,14.74,11.02,3.21,-8.01,-14.46
Balashov,51.5502,43.1667,RU,98107,579460,Balashov,-9.8,-6.31,-3.37,8.55,14.11,17.38,22.25,18.1,12.68,6.07,-0.91,-9.65
Balashikha,55.80945,37.95806,RU,150103,579464,Balashikha,-10.99,-8.72,-3.69,4.33,12.06,15.86,19.49,16.54,11.47,5.27,-3.06,-6.99
Balakovo,52.02782,47.8007,RU,199572,579492,Balakovo,-12.42,-7.7,-4.02,7.12,14.77,17.85,23.46,18.86,13.75,5.93,-0.6,-13.18
Novaya Balakhna,56.48989,43.60114,RU,63083,579514,Novaya Balakhna,-12.17,-8.4,-4.31,4.74,11.46,16.16,19.97,17.1,11.41,5.24,-4.14,-10.31
Balabanovo,55.18161,36.6606,RU,24232,579529,Balabanovo,-10.93,-8.63,-3.68,4.24,12.48,16.03,19.58,16.33,11.31,5.39,-2.45,-6.14
Baksan,43.68806,43.53694,RU,37519,579574,Baksan,-3.99,-0.23,3.61,12.04,14.68,16.94,21.45,19.09,14.06,7.0,4.76,-3.56
Bakal,54.9417,58.8083,RU,21762,579738,Bakal,-15.54,-10.43,-4.84,1.81,8.87,12.82,16.25,13.3,10.25,0.29,-8.01,-17.34
Bagayevskaya,47.32411,40.38791,RU,15300,579771,Bagayevskaya,-4.74,-0.05,3.4,13.42,17.55,19.65,26.18,21.28,16.47,9.42,4.69,-3.26
Babushkin,55.86931,37.72966,RU,86000,579870,Babushkin,-11.19,-8.98,-3.84,4.07,11.87,15.58,19.25,16.33,11.26,5.04,-3.2,-7.04
Azov,47.10779,39.41648,RU,82133,580054,Azov,-3.93,0.37,3.54,13.2,17.08,19.19,25.58,21.03,16.54,9.65,5.08,-2.61
Avtury,43.16345,46.00152,RU,18370,580218,Avtury,-1.29,1.84,5.28,12.68,15.81,17.98,22.32,20.22,15.3,8.99,6.28,-1.58
Avtovo,59.87167,30.26583,RU,44667,580222,Avtovo,-10.31,-9.23,-2.17,2.11,8.92,16.05,17.61,16.01,10.75,4.18,-1.71,-4.99
Atkarsk,51.87185,45.00775,RU,27554,580420,Atkarsk,-11.11,-7.27,-4.07,7.29,13.56,16.53,21.44,17.49,12.19,5.27,-1.56,-11.72
Astrakhan,46.34968,48.04076,RU,533925,580497,Astrakhan,-4.3,-0.5,3.0,12.5,18.89,21.56,26.76,22.77,16.87,10.16,5.27,-3.16
Asha,54.9973,57.2722,RU,33006,580660,Asha,-14.72,-9.2,-3.31,3.81,12.07,15.42,19.2,16.25,12.53,3.24,-5.86,-16.77
Arzgir,45.37278,44.22056,RU,15838,580716,Arzgir,-2.93,0.59,4.52,13.83,18.2,21.29,27.49,22.56,16.94,9.95,6.29,-2.14
Arzamas,55.39485,43.83992,RU,109479,580724,Arzamas,-12.22,-7.86,-4.34,5.18,11.32,15.65,19.7,16.55,11.14,4.7,-3.93,-10.67
Arsk,56.09151,49.87783,RU,17243,580850,Arsk,-15.67,-10.79,-5.95,3.36,11.68,15.6,19.9,16.27,11.24,3.98,-6.3,-14.43
Armavir,44.9892,41.1234,RU,199548,580922,Armavir,-0.64,3.14,5.72,13.8,16.55,18.39,24.94,21.51,16.96,9.71,6.77,-1.28
Arkhangel’sk,64.5401,40.5433,RU,349742,581049,Arkhangel’sk,-10.88,-14.02,-3.53,-1.46,4.49,13.4,18.37,13.69,9.15,2.75,-6.6,-7.8
Argun,43.29713,45.87454,RU,28100,581126,Argun,-0.74,2.12,5.68,13.19,16.59,18.87,23.54,21.22,16.12,9.76,6.73,-1.23
Ardon,43.1772,44.29702,RU,18313,581179,Ardon,-1.95,1.17,4.73,12.42,14.86,16.46,20.66,18.48,13.98,7.77,5.43,-2.2
Apsheronsk,44.46472,39.73417,RU,40451,581313,Apsheronsk,0.31,4.64,6.62,13.4,15.54,17.66,23.0,20.45,16.4,9.78,7.74,-0.71
Aprelevka,55.55194,37.0801,RU,17780,581321,Aprelevka,-11.11,-8.85,-3.59,4.17,12.03,15.53,19.11,16.09,11.09,4.99,-2.94,-6.61
Apatity,67.56414,33.4031,RU,61186,581357,Apatity,-11.9,-18.49,-6.25,-6.05,1.42,11.3,15.28,12.95,6.51,0.17,-7.59,-9.96
Anna,51.4842,40.4299,RU,19148,581671,Anna,-9.09,-5.72,-2.81,9.38,14.09,17.64,22.2,17.9,12.65,6.44,-0.24,-6.9
Andreyevskoye,55.55487,37.92566,RU,20000,581928,Andreyevskoye,-11.0,-8.66,-3.71,4.5,12.16,15.92,19.57,16.59,11.54,5.37,-2.9,-6.69
Anapa,44.89497,37.31623,RU,53600,582182,Anapa,3.35,5.44,6.48,12.7,16.17,19.47,25.15,22.3,18.32,12.28,9.11,3.19
Amin’yevo,55.7,37.46667,RU,30000,582266,Amin’yevo,-11.41,-9.6,-4.4,3.77,11.88,15.59,19.27,16.37,11.28,5.18,-3.13,-6.73
Al’met’yevsk,54.90442,52.3154,RU,140437,582432,Al’met’yevsk,-15.1,-9.74,-4.4,4.89,12.72,16.12,20.35,16.75,11.85,3.84,-5.04,-15.19
Aleksin,54.50503,37.0674,RU,66885,582750,Aleksin,-10.54,-8.25,-3.92,4.57,12.68,16.41,19.95,16.54,11.7,5.7,-1.72,-5.62
Alekseyevka,55.63,37.8,RU,78000,582846,Alekseyevka,-11.15,-8.98,-3.95,4.29,12.08,15.83,19.49,16.53,11.47,5.33,-2.99,-6.69
Alekseyevka,50.63092,38.6903,RU,39848,582956,Alekseyevka,-8.31,-4.73,-1.17,10.44,14.94,17.91,23.21,18.61,13.52,7.3,1.66,-4.84
Aleksandrovskoye,44.71417,43.00083,RU,28006,582993,Aleksandrovskoye,-2.14,0.79,4.7,13.14,16.14,18.49,24.96,21.27,15.92,8.68,5.85,-1.89
Aleksandrovsk,59.1581,57.5695,RU,15486,583041,Aleksandrovsk,-18.96,-10.74,-4.15,0.82,7.43,12.72,17.81,13.63,10.94,2.06,-9.61,-15.27
Aleksandrov,56.39516,38.71216,RU,64088,583350,Aleksandrov,-11.5,-9.09,-3.81,3.9,11.14,15.02,18.89,15.9,11.11,4.73,-3.85,-8.1
Alatyr’,54.8421,46.5813,RU,42156,583437,Alatyr’,-13.3,-8.65,-4.92,5.02,11.88,15.59,20.57,16.69,11.37,4.49,-3.89,-12.14
Levoberezhnyy,55.85,37.48333,RU,52000,583589,Levoberezhnyy,-11.33,-9.3,-4.07,3.93,11.88,15.57,19.24,16.36,11.27,5.09,-3.2,-6.91
Aksay,47.25838,39.86675,RU,38871,583673,Aksay,-4.87,-0.22,2.96,12.86,16.88,18.89,25.48,20.67,15.88,8.99,4.35,-3.54
Akhtyrskiy,44.8546,38.3031,RU,19468,583785,Akhtyrskiy,1.31,4.57,6.06,13.73,16.09,18.65,24.25,21.3,17.31,10.84,7.73,0.47
Akhtubinsk,48.27955,46.17217,RU,44551,583798,Akhtubinsk,-8.03,-2.91,1.65,12.08,17.81,20.97,26.48,21.1,16.15,8.81,2.88,-6.46
Agryz,56.52034,52.99422,RU,18601,583983,Agryz,-15.62,-10.66,-4.59,3.5,11.85,15.82,19.83,16.03,11.86,3.83,-6.95,-15.81
Afipskiy,44.90005,38.84265,RU,18209,584126,Afipskiy,1.08,4.83,6.49,14.0,16.34,18.77,24.48,21.68,17.56,10.8,7.94,0.12
Adler,43.42896,39.92391,RU,70200,584243,Adler,7.41,8.99,11.05,16.24,17.76,20.28,24.88,22.22,18.93,13.64,11.66,6.57
Achkhoy-Martan,43.18997,45.28373,RU,16779,584298,Achkhoy-Martan,-1.68,1.5,5.01,12.81,15.92,17.91,22.31,20.06,15.14,8.62,6.05,-1.91
Abinsk,44.86803,38.15728,RU,34668,584441,Abinsk,1.47,4.59,6.06,13.7,16.1,18.69,24.3,21.34,17.36,10.95,7.78,0.63
Abdulino,53.7,53.66667,RU,21195,584471,Abdulino,-16.09,-10.95,-5.46,4.35,12.69,15.97,20.46,16.89,12.07,3.45,-5.13,-16.18
Vasil’yevo,55.83007,48.71729,RU,16800,611182,Vasil’yevo,-14.33,-9.55,-5.15,3.61,12.21,16.3,20.66,17.04,11.85,4.6,-4.83,-12.95
Ryl’sk,51.5655,34.6822,RU,17007,695019,Ryl’sk,-8.57,-7.15,-1.78,7.78,14.23,17.01,21.31,16.95,12.4,6.28,1.21,-4.02
Neftekumsk,44.75583,44.9925,RU,27716,797781,Neftekumsk,-1.58,1.26,5.25,14.12,18.33,21.85,27.61,22.92,17.15,10.12,6.56,-1.01
Alagir,43.04222,44.22222,RU,19665,802078,Alagir,-2.37,0.48,3.99,11.61,13.85,15.41,19.46,17.32,13.05,7.2,5.11,-2.77
Persianovka,47.52972,39.41833,RU,15730,802714,Persianovka,-4.79,0.04,3.11,13.12,17.08,19.02,25.42,20.91,16.22,9.21,4.64,-3.23
Annino,55.58316,37.26019,RU,30000,819552,Annino,-10.97,-8.73,-3.52,4.31,12.05,15.61,19.23,16.24,11.23,5.13,-2.86,-6.54
Dagomys,43.66974,39.66863,RU,20000,823674,Dagomys,6.9,8.32,9.95,14.61,16.62,19.07,23.49,21.48,18.52,13.69,11.42,6.11
Pavlovo,55.9686,43.0912,RU,63338,827329,Pavlovo,-12.0,-7.96,-4.04,5.29,11.46,16.03,19.88,16.91,11.21,5.11,-4.03,-10.23
Belidzhi,41.89184,48.41247,RU,16078,828055,Belidzhi,2.17,3.79,6.41,12.02,16.39,19.85,24.53,22.78,18.29,12.01,9.49,4.21
Lesnoy,58.63667,59.80222,RU,23834,829005,Lesnoy,-19.53,-11.04,-3.84,0.9,7.91,12.84,17.39,13.46,11.03,1.12,-10.17,-15.11
Trëkhgornyy,54.815,58.45917,RU,34500,830844,Trëkhgornyy,-15.36,-10.11,-4.16,2.47,9.78,13.75,17.1,14.15,10.88,0.95,-7.31,-17.2
Mirnyy,62.76409,40.33746,RU,28000,831129,Mirnyy,-12.48,-13.58,-3.87,0.09,6.81,14.02,17.78,13.74,9.42,2.9,-6.98,-9.02
Znamensk,48.5842,45.7338,RU,31922,831130,Znamensk,-8.4,-2.99,1.39,12.05,17.61,20.74,26.16,20.63,15.71,8.43,2.43,-6.86
Zarechnyy,53.13333,46.58333,RU,62139,831165,Zarechnyy,-12.47,-8.07,-4.25,5.81,12.53,15.51,20.78,16.62,11.34,4.38,-2.59,-12.31
Kochubeyevskoye,44.64417,41.84528,RU,28491,841006,Kochubeyevskoye,-1.62,1.66,4.65,12.67,15.11,17.27,22.91,20.03,15.4,8.15,5.74,-2.61
Vnukovo,55.61194,37.29611,RU,20000,857689,Vnukovo,-11.02,-8.78,-3.58,4.26,11.99,15.56,19.18,16.19,11.18,5.08,-2.9,-6.59
Moskovskiy,55.59911,37.35495,RU,15435,857690,Moskovskiy,-11.06,-8.81,-3.71,4.23,11.94,15.55,19.19,16.22,11.2,5.1,-2.94,-6.61
Usinsk,65.99389,57.52806,RU,44078,863061,Usinsk,-22.98,-16.91,-6.13,-7.21,-1.24,6.02,15.18,10.19,8.78,-2.65,-11.67,-12.81
Obukhovo,59.84389,30.45111,RU,45664,873901,Obukhovo,-11.01,-9.5,-1.99,2.93,9.87,16.25,17.64,15.89,10.59,4.19,-1.86,-5.3
Staryy Malgobek,43.54437,44.59592,RU,46334,874045,Staryy Malgobek,-3.11,0.24,3.85,11.63,14.4,16.27,20.53,18.62,13.66,7.02,4.61,-2.99
Zavodoukovsk,56.5042,66.55153,RU,25682,1485357,Zavodoukovsk,-17.79,-12.66,-5.14,1.69,8.68,14.6,16.96,14.74,13.27,1.84,-8.99,-15.37
Zarinsk,53.7074,84.9493,RU,52209,1485439,Zarinsk,-15.94,-14.36,-11.34,2.46,9.29,16.73,18.6,15.99,11.96,0.17,-9.18,-16.97
Zarechnyy,56.811,61.3254,RU,27758,1485445,Zarechnyy,-17.34,-11.52,-4.14,2.23,9.39,14.02,17.59,13.88,11.84,1.15,-8.89,-15.47
Yuzhnyy,53.25417,83.69361,RU,19515,1485627,Yuzhnyy,-15.5,-13.65,-11.01,3.0,9.46,16.84,18.27,16.06,11.96,0.45,-8.58,-16.72
Yuzhnoural’sk,54.4418,61.2536,RU,39200,1485634,Yuzhnoural’sk,-15.18,-12.19,-4.5,4.09,10.35,15.67,18.64,15.51,12.95,2.69,-7.87,-16.84
Yurga,55.72306,84.88611,RU,84220,1485724,Yurga,-17.2,-14.96,-10.93,0.99,8.12,15.55,17.19,14.29,10.55,-2.23,-10.31,-17.78
Yeniseysk,58.44937,92.17968,RU,19920,1485997,Yeniseysk,-21.45,-18.85,-12.58,-0.57,5.28,14.57,18.56,13.84,8.85,-3.49,-12.46,-18.77
