name,latitude,longitude,country,population,id,city,jan,feb,mar,apr,may,jun,jul,aug,sep,oct,nov,dec
Lebedyn,50.58518,34.4849,UA,24238,613273,Lebedyn,-5.86,-8.76,-3.28,5.35,17.63,17.18,20.27,18.62,13.31,7.02,2.51,-1.97
Druzhkivka,48.61897,37.52704,UA,62315,616743,Druzhkivka,-4.48,-8.5,-2.49,6.51,18.97,18.15,20.58,20.41,14.83,8.82,2.87,-0.67
Zvenihorodka,49.07765,30.96074,UA,16490,686803,Zvenihorodka,-4.19,-6.49,-0.31,6.64,19.6,18.79,20.83,20.34,14.53,7.59,3.98,-0.54
Zuhres,48.0114,38.26444,UA,17924,686818,Zuhres,-3.64,-8.54,-2.08,6.65,19.04,18.49,20.88,20.96,15.21,9.49,3.04,-0.77
Zolotonosha,49.66926,32.03637,UA,27818,686875,Zolotonosha,-4.68,-6.87,-0.52,6.44,19.44,18.77,20.96,20.08,14.58,7.89,3.58,-0.7
Zolochiv,49.80755,24.90056,UA,22608,686896,Zolochiv,-3.48,-7.05,0.94,6.57,17.01,17.63,19.32,19.15,13.92,6.15,4.96,-0.07
Znamyanka,48.72066,32.65822,UA,22444,686919,Znamyanka,-4.79,-7.43,-1.79,5.84,19.23,18.47,20.1,20.21,14.61,7.79,3.2,-0.87
Zhytomyr,50.26487,28.67669,UA,261624,686967,Zhytomyr,-4.34,-6.85,-0.35,5.91,17.97,17.5,19.47,18.09,13.07,6.31,3.64,-0.78
Zhmerynka,49.03523,28.11405,UA,34498,687116,Zhmerynka,-4.14,-6.43,-0.3,6.21,18.63,18.41,19.69,19.07,13.55,6.28,3.76,-1.12
Zhovti Vody,48.34518,33.49743,UA,42901,687196,Zhovti Vody,-4.58,-7.57,-1.36,6.38,19.99,19.27,20.68,20.93,15.25,8.64,3.6,-0.44
Zdolbuniv,50.5206,26.24251,UA,24642,687432,Zdolbuniv,-3.45,-6.16,0.46,6.14,17.15,17.5,19.63,18.77,13.8,6.44,4.66,-0.08
Zaporizhzhya,47.85167,35.11714,UA,710052,687700,Zaporizhzhya,-3.37,-7.24,-1.26,7.22,20.03,19.48,21.21,21.42,15.94,9.91,4.29,0.38
Yuzhne,46.62472,31.10182,UA,32745,687997,Yuzhne,-1.86,-5.17,0.95,7.55,19.14,21.21,22.22,23.23,16.51,10.37,6.6,1.82
Yevpatoriya,45.20091,33.36655,UA,106202,688105,Yevpatoriya,1.9,-1.43,1.98,7.9,17.9,20.97,22.48,23.58,18.1,12.98,8.02,4.29
Yenakiieve,48.23331,38.21137,UA,77053,688148,Yenakiieve,-4.52,-9.26,-2.87,5.83,18.24,17.62,20.04,19.97,14.27,8.57,2.26,-1.34
Yasynuvata,48.1298,37.8594,UA,37600,688373,Yasynuvata,-4.42,-9.11,-2.87,5.5,18.06,17.36,19.7,19.66,14.03,8.32,2.29,-1.36
Yalta,44.50218,34.16624,UA,77003,688533,Yalta,4.06,0.66,3.07,8.52,19.31,20.87,22.66,23.85,18.57,14.01,9.62,5.69
Yahotyn,50.27975,31.76246,UA,19270,688587,Yahotyn,-5.11,-7.15,-0.71,5.88,18.62,17.95,20.63,19.05,13.65,7.15,3.12,-1.43
Vyshhorod,50.58476,30.4898,UA,22080,688723,Vyshhorod,-4.63,-6.77,-0.45,5.26,18.63,18.18,20.92,19.1,13.85,7.07,3.31,-0.63
Vynohradiv,48.14126,23.03623,UA,25442,688746,Vynohradiv,-4.12,-6.79,2.48,8.38,18.8,20.71,21.46,22.36,15.51,7.77,6.08,-0.68
Voznesensk,47.56218,31.33602,UA,33442,688860,Voznesensk,-3.3,-5.87,0.44,7.51,20.24,21.0,22.18,22.94,16.11,9.34,5.49,0.58
Volochysk,49.53606,26.20681,UA,18474,689159,Volochysk,-3.97,-7.11,-0.04,6.02,17.92,18.18,19.37,19.08,13.63,5.88,3.95,-0.98
Volnovakha,47.60103,37.49674,UA,21166,689198,Volnovakha,-3.6,-8.87,-2.55,5.84,18.47,18.09,20.28,20.36,14.74,8.89,2.93,-1.09
Vilnohirsk,48.48416,34.01708,UA,22458,689200,Vilnohirsk,-4.89,-7.88,-2.03,6.05,19.67,18.79,20.25,20.14,14.77,8.32,3.2,-0.62
Vovchansk,50.29078,36.94108,UA,19486,689304,Vovchansk,-6.27,-9.05,-3.75,5.36,17.63,17.33,20.34,19.12,13.37,7.7,2.17,-1.92
Volodymyr-Volynskyi,50.85253,24.32364,UA,37910,689378,Volodymyr-Volynskyi,-3.6,-6.71,0.84,6.44,16.1,17.44,19.75,19.08,14.18,6.02,5.1,0.29
Vyshneve,50.38913,30.3705,UA,42480,689487,Vyshneve,-4.68,-6.91,-0.29,5.73,18.36,17.84,20.37,18.83,13.48,6.75,3.33,-0.81
Vinnytsya,49.2322,28.46871,UA,369839,689558,Vinnytsya,-4.06,-6.25,-0.03,6.33,18.67,18.39,19.85,19.12,13.66,6.55,3.9,-0.9
Vilnyansk,47.94768,35.44034,UA,15044,689584,Vilnyansk,-3.67,-7.79,-1.78,6.64,19.58,18.82,20.61,20.74,15.34,9.35,3.77,-0.15
Verkhnodniprovsk,48.65557,34.3262,UA,16176,689916,Verkhnodniprovsk,-4.5,-7.37,-1.72,4.92,20.18,19.39,21.11,20.88,15.38,8.98,3.37,-0.02
Vatutine,49.01198,31.04659,UA,16096,690312,Vatutine,-4.18,-6.46,-0.36,6.66,19.62,18.86,20.84,20.46,14.62,7.61,4.0,-0.53
Vasylkiv,50.18693,30.31346,UA,37310,690412,Vasylkiv,-4.3,-6.58,-0.07,5.98,18.51,17.97,20.43,19.05,13.65,6.93,3.64,-0.78
Uzhgorod,48.6242,22.2947,UA,115449,690548,Uzhgorod,-3.66,-5.76,2.31,8.36,18.51,20.46,21.4,22.15,15.0,7.26,5.74,-0.42
Uman,48.7501,30.21944,UA,100135,690688,Uman,-4.29,-6.72,-0.51,6.42,19.33,18.81,20.45,20.16,14.29,7.2,3.99,-0.71
Tulchyn,48.67397,28.86848,UA,15011,691016,Tulchyn,-3.85,-6.26,0.45,6.86,19.29,19.06,20.31,20.01,14.25,7.35,4.46,-0.46
Oleshky,46.62553,32.72426,UA,24639,691037,Oleshky,-1.67,-6.2,0.3,8.05,19.92,21.21,22.62,23.86,17.12,10.83,5.99,1.66
Truskavets,49.27832,23.50998,UA,28474,691179,Truskavets,-4.46,-7.89,0.05,6.08,16.01,17.26,18.39,18.83,12.99,5.25,5.35,-0.3
Chystyakove,48.03876,38.59685,UA,53725,691374,Chystyakove,-4.37,-9.42,-2.81,5.95,18.09,17.68,20.18,20.36,14.46,8.87,2.37,-1.53
Tokmak,47.25554,35.70836,UA,29573,691469,Tokmak,-2.21,-7.28,-0.72,7.29,20.22,19.92,21.74,21.71,16.47,10.46,4.75,0.6
Ternivka,48.52656,36.07051,UA,27929,691628,Ternivka,-4.71,-8.33,-2.63,6.31,19.12,18.3,20.2,19.87,14.6,8.52,3.05,-0.66
Ternopil,49.55404,25.59067,UA,225238,691650,Ternopil,-3.98,-7.1,0.3,6.05,17.3,17.75,19.24,19.06,13.63,5.68,4.06,-0.91
Sievierodonetsk,48.94628,38.48624,UA,99067,691999,Sievierodonetsk,-5.04,-8.94,-2.4,6.86,18.96,18.29,20.99,20.82,14.94,9.0,2.58,-0.84
Svitlovodsk,49.06287,33.2458,UA,43130,692087,Svitlovodsk,-4.29,-7.07,-1.2,6.32,19.87,18.92,20.77,20.57,15.14,8.52,3.57,-0.36
Dovzhansk,48.08964,39.65243,UA,62691,692105,Dovzhansk,-4.64,-9.88,-2.84,5.97,17.76,17.39,20.18,20.37,14.1,8.86,2.0,-1.95
Svatove,49.40719,38.15362,UA,16145,692118,Svatove,-5.59,-8.98,-3.43,6.55,18.48,17.82,20.72,20.24,14.55,8.53,2.52,-1.19
Svalyava,48.54735,22.98673,UA,17234,692129,Svalyava,-3.94,-6.3,1.8,7.58,18.09,19.7,20.67,21.15,14.5,6.79,5.59,-1.35
Sumy,50.9216,34.80029,UA,259660,692194,Sumy,-6.11,-9.26,-3.59,4.97,17.1,16.53,19.99,18.25,12.87,6.74,2.25,-2.42
Sudak,44.84924,34.97471,UA,16597,692315,Sudak,3.59,0.18,2.75,7.94,17.78,20.46,22.07,23.32,18.25,13.91,8.67,5.06
Stryi,49.26171,23.84721,UA,61404,692372,Stryi,-3.92,-7.88,0.73,6.52,16.49,17.7,18.93,19.41,13.37,5.66,5.1,-0.14
Stebnyk,49.30098,23.55197,UA,20398,692632,Stebnyk,-4.33,-7.98,0.17,6.28,16.2,17.45,18.64,19.08,13.15,5.42,5.26,-0.28
Starokostyantyniv,49.75522,27.21229,UA,34232,692818,Starokostyantyniv,-3.83,-7.01,-0.15,6.06,17.95,18.05,19.54,18.66,13.43,6.26,4.06,-0.68
Starobilsk,49.27719,38.91673,UA,22000,692832,Starobilsk,-5.68,-9.24,-3.13,6.76,18.45,17.84,20.89,20.6,14.67,8.77,2.49,-1.29
Kadiyivka,48.56818,38.64352,UA,84425,692975,Kadiyivka,-5.12,-9.55,-2.95,5.81,18.04,17.38,20.07,20.08,14.01,8.41,1.96,-1.51
Sokal,50.47438,24.28288,UA,20659,693301,Sokal,-3.33,-6.85,1.04,6.79,16.48,17.72,19.78,19.39,14.32,6.24,5.24,0.34
Snizhne,48.02612,38.77225,UA,55587,693381,Snizhne,-4.86,-9.86,-3.31,5.59,17.62,17.26,19.78,19.89,14.02,8.49,1.91,-1.9
Smila,49.23295,31.88427,UA,66475,693457,Smila,-4.11,-6.51,-0.57,6.53,19.83,19.09,21.03,20.64,14.96,8.14,3.95,-0.29
Sloviansk,48.84974,37.59739,UA,106972,693468,Sloviansk,-4.63,-8.4,-2.58,6.67,19.03,18.26,20.75,20.45,14.83,8.87,2.97,-0.51
Slavuta,50.29609,26.86613,UA,35068,693581,Slavuta,-3.45,-6.48,0.13,6.14,17.61,17.73,19.58,18.72,13.63,6.42,4.33,-0.41
Skvyra,49.73303,29.66426,UA,17452,693615,Skvyra,-4.21,-6.58,-0.08,6.14,18.73,18.15,20.08,19.06,13.67,6.87,3.78,-0.79
Skadovsk,46.11313,32.90978,UA,17915,693709,Skadovsk,-0.48,-5.0,0.91,8.19,19.54,21.56,22.84,24.02,17.65,11.68,6.61,2.6
Synelnykove,48.32362,35.52612,UA,30556,693796,Synelnykove,-4.77,-8.39,-2.74,6.18,19.21,18.3,20.05,19.9,14.52,8.55,3.05,-0.73
Simferopol,44.95719,34.11079,UA,336460,693805,Simferopol,0.14,-3.07,-0.07,6.61,18.18,19.56,20.77,21.82,15.92,11.45,6.1,2.01
Shpola,49.01291,31.3926,UA,16674,693920,Shpola,-4.18,-6.48,-0.6,6.5,19.52,18.79,20.69,20.43,14.64,7.69,3.91,-0.48
Shostka,51.86296,33.4698,UA,73197,693942,Shostka,-6.34,-9.06,-3.06,4.7,16.73,16.23,19.96,17.53,12.36,6.16,2.19,-3.24
Shepetivka,50.18118,27.06517,UA,40802,694216,Shepetivka,-3.66,-6.67,-0.09,5.97,17.58,17.62,19.37,18.45,13.37,6.26,4.14,-0.58
Shakhtarsk,48.05657,38.43826,UA,71700,694382,Shakhtarsk,-4.45,-9.3,-2.88,5.95,18.25,17.72,20.15,20.18,14.43,8.77,2.3,-1.45
Sevastopol,44.60795,33.52134,UA,547820,694423,Sevastopol,3.79,0.22,2.93,7.98,16.67,19.92,21.78,23.19,18.31,13.63,9.02,5.7
Selydove,48.14708,37.30032,UA,21916,694677,Selydove,-4.12,-8.58,-2.45,6.27,18.84,18.14,20.31,20.23,14.79,8.76,2.94,-0.77
Sarny,51.33795,26.60191,UA,28865,694792,Sarny,-4.08,-6.29,0.03,6.08,16.8,17.22,19.45,18.19,13.45,6.25,4.29,-0.23
Sambir,49.51631,23.2006,UA,34152,694864,Sambir,-4.17,-7.5,0.74,6.33,16.06,17.54,18.71,19.13,13.43,5.87,5.71,0.21
Saki,45.13424,33.59996,UA,28322,694910,Saki,1.98,-1.36,1.85,7.94,18.27,20.7,22.24,23.52,17.9,13.02,7.97,4.08
Rubizhne,49.00606,38.38119,UA,56066,695274,Rubizhne,-5.18,-8.88,-2.64,6.78,18.75,18.2,20.94,20.59,14.78,8.81,2.57,-0.82
Rozdilna,46.85479,30.07091,UA,17858,695344,Rozdilna,-3.06,-5.73,0.7,7.2,19.54,20.99,21.32,22.45,15.51,9.25,5.89,0.06
Kurakhove,47.98437,37.27909,UA,18506,695357,Kurakhove,-3.77,-8.33,-2.11,6.54,19.19,18.51,20.65,20.59,15.14,9.11,3.2,-0.53
Rovenky,48.08331,39.37764,UA,45651,695379,Rovenky,-4.69,-9.87,-2.94,5.93,17.8,17.44,20.15,20.35,14.18,8.81,1.99,-1.89
Romny,50.75104,33.47471,UA,38305,695464,Romny,-5.82,-8.71,-2.9,5.14,17.51,17.08,20.1,18.36,13.01,6.68,2.39,-2.66
Rivne,50.62308,26.22743,UA,245289,695594,Rivne,-3.7,-6.36,0.29,6.06,17.01,17.39,19.55,18.67,13.73,6.31,4.49,-0.24
Rakhiv,48.05472,24.20314,UA,15621,695859,Rakhiv,-5.16,-8.08,0.27,4.69,16.42,17.53,18.14,18.65,12.69,5.25,4.14,-3.17
Radomyshl,50.49613,29.22911,UA,15252,695912,Radomyshl,-4.24,-6.62,-0.14,5.98,18.28,17.68,19.91,18.29,13.42,6.6,3.75,-0.56
Pyatykhatky,48.40821,33.70919,UA,18457,695965,Pyatykhatky,-4.82,-7.77,-1.68,6.26,19.86,19.04,20.46,20.54,15.01,8.43,3.39,-0.59
Putyvl,51.33745,33.87066,UA,15100,696008,Putyvl,-6.3,-9.34,-3.68,4.71,16.81,16.3,19.73,17.73,12.48,6.22,2.07,-3.42
Pryluky,50.59323,32.38761,UA,52553,696108,Pryluky,-5.36,-7.76,-1.24,5.57,18.3,17.67,20.52,18.78,13.37,6.99,2.83,-1.92
Popasna,48.63328,38.37804,UA,25442,696566,Popasna,-5.33,-9.64,-3.31,5.6,17.75,17.19,19.86,19.77,13.83,8.15,1.83,-1.61
Poltava,49.58925,34.55367,UA,283402,696643,Poltava,-5.43,-8.36,-3.1,5.5,18.73,17.97,20.11,19.23,13.95,7.43,2.63,-1.22
Polonne,50.11944,27.50856,UA,20785,696660,Polonne,-3.8,-6.62,-0.13,6.07,17.75,17.75,19.48,18.42,13.29,6.34,4.04,-0.58
Polohy,47.47865,36.25463,UA,18111,696677,Polohy,-2.85,-7.82,-1.62,6.8,19.67,19.28,21.3,21.26,15.9,9.79,4.06,0.05
Pidhorodne,48.57422,35.09702,UA,19336,696943,Pidhorodne,-4.52,-7.72,-2.01,6.69,19.96,19.06,20.76,20.46,15.21,8.99,3.5,-0.19
Pyriatyn,50.24388,32.5203,UA,15391,697183,Pyriatyn,-5.26,-7.55,-1.26,5.94,18.6,18.22,20.75,19.4,14.11,7.44,3.13,-1.36
Pervomaiskyi,49.37646,36.21848,UA,28986,697576,Pervomaiskyi,-5.76,-8.86,-3.67,5.15,18.04,17.39,19.75,19.05,13.45,7.59,2.17,-1.67
Pervomaisk,48.62831,38.56205,UA,36311,697592,Pervomaisk,-4.27,-8.7,-2.1,6.66,18.89,18.24,20.92,20.93,14.86,9.26,2.81,-0.66
Pervomaysk,48.04478,30.84784,UA,62426,697593,Pervomaysk,-3.44,-5.66,0.18,7.31,19.91,20.33,21.54,22.17,15.69,8.68,5.06,0.14
Pershotravensk,48.3479,36.39637,UA,27573,697616,Pershotravensk,-4.29,-8.24,-2.34,6.4,19.18,18.34,20.35,20.06,14.83,8.76,3.22,-0.53
Pereiaslav,50.06739,31.44969,UA,26576,697637,Pereiaslav,-4.62,-6.61,-0.07,6.39,19.11,18.53,21.08,19.66,14.14,7.54,3.52,-0.88
Perevalsk,48.43779,38.84384,UA,29220,697650,Perevalsk,-4.74,-9.5,-2.95,5.92,17.9,17.48,20.16,20.16,14.11,8.64,2.18,-1.39
Pavlohrad,48.53214,35.86878,UA,101430,697889,Pavlohrad,-4.47,-8.01,-2.26,6.73,19.62,18.8,20.59,20.3,15.01,8.9,3.36,-0.35
Ovruch,51.3246,28.80351,UA,15332,698131,Ovruch,-4.74,-7.11,-0.65,5.58,17.4,17.0,19.73,17.72,13.22,6.18,3.53,-0.87
Pokrov,47.65361,34.11488,UA,38111,698436,Pokrov,-3.41,-7.14,-0.69,7.1,20.28,20.21,21.68,22.24,16.23,10.12,4.63,0.59
Oleksandriya,48.67466,33.11761,UA,76097,698625,Oleksandriya,-4.32,-7.11,-1.23,6.49,20.02,19.14,20.77,20.8,15.28,8.51,3.66,-0.37
Odesa,46.48572,30.74383,UA,1015826,698740,Odesa,-1.62,-5.1,1.14,8.05,19.26,21.19,22.14,23.28,16.33,10.32,6.76,2.03
Obukhiv,50.10689,30.61848,UA,31557,698782,Obukhiv,-4.47,-6.59,0.07,6.13,18.78,18.31,20.76,19.39,13.81,7.12,3.61,-0.57
Novovolynsk,50.72576,24.16265,UA,50417,699035,Novovolynsk,-3.58,-7.03,0.72,6.49,16.05,17.39,19.62,19.18,14.08,5.92,5.0,0.12
Novoukrayinka,48.31661,31.52355,UA,16479,699078,Novoukrayinka,-4.12,-6.54,-0.8,6.57,19.44,19.3,20.74,21.2,15.12,8.09,4.04,-0.35
Novomoskovsk,48.62893,35.2589,UA,70550,699445,Novomoskovsk,-4.7,-7.93,-2.23,6.73,19.91,19.01,20.71,20.42,15.17,8.93,3.35,-0.34
Zviahel,50.59412,27.6165,UA,55925,699553,Zviahel,-3.99,-6.5,-0.37,5.89,17.5,17.26,19.24,18.08,13.17,6.25,3.97,-0.59
Nova Kakhovka,46.75966,33.35591,UA,45069,699839,Nova Kakhovka,-1.73,-6.27,0.22,7.88,20.23,20.99,22.36,23.63,17.14,11.12,5.79,1.54
Nizhyn,51.04801,31.88688,UA,66983,699942,Nizhyn,-5.2,-7.14,-0.68,5.4,18.15,17.41,20.54,18.51,13.02,6.79,2.88,-1.67
Nikopol,47.56826,34.39126,UA,105160,700051,Nikopol,-3.5,-7.19,-1.22,6.18,19.93,20.12,21.71,22.2,16.19,10.31,4.49,0.51
Netishyn,50.32863,26.64872,UA,36661,700261,Netishyn,-3.53,-6.4,0.26,6.18,17.49,17.71,19.67,18.87,13.78,6.46,4.44,-0.33
Nadvirna,48.63659,24.5714,UA,22504,700507,Nadvirna,-4.92,-8.53,-0.75,5.27,16.41,17.11,18.07,18.24,12.51,4.74,3.98,-2.13
Mykolayiv,46.97625,31.99296,UA,470011,700569,Mykolayiv,-2.72,-6.45,0.03,7.69,19.58,20.88,22.34,23.48,16.56,10.0,5.72,1.14
Mukachevo,48.44248,22.718,UA,85569,700646,Mukachevo,-4.02,-6.51,2.28,8.32,18.69,20.55,21.5,22.19,15.17,7.41,5.75,-0.86
Molodohvardiisk,48.34511,39.65244,UA,22514,700829,Molodohvardiisk,-5.02,-10.27,-2.76,6.09,17.95,17.54,20.33,20.39,14.07,8.72,1.78,-1.95
Mohyliv-Podilskyy,48.44278,27.79975,UA,30589,700918,Mohyliv-Podilskyy,-2.68,-4.9,1.41,7.95,20.75,20.65,21.3,21.05,15.42,8.19,5.5,0.46
Myrhorod,49.96464,33.60861,UA,39575,701075,Myrhorod,-5.15,-7.87,-2.42,5.92,18.44,18.08,20.5,19.61,14.33,7.53,3.07,-1.12
Merefa,49.81861,36.05653,UA,21421,701347,Merefa,-5.43,-8.46,-3.09,5.49,18.3,17.84,20.32,19.33,13.64,7.83,2.53,-1.33
Melitopol,46.84735,35.38196,UA,148851,701404,Melitopol,-1.22,-6.01,0.28,7.54,20.26,20.66,22.33,22.65,17.14,11.32,5.4,1.33
Mariupol,47.09514,37.54131,UA,431859,701822,Mariupol,-1.03,-5.78,0.14,7.28,19.26,19.86,22.25,22.93,16.74,11.49,4.86,0.74
Marhanets,47.63088,34.6245,UA,45718,701855,Marhanets,-3.24,-7.07,-0.93,7.07,20.17,20.05,21.6,22.02,16.22,10.26,4.57,0.59
Malyn,50.77233,29.23833,UA,25587,702116,Malyn,-4.39,-6.74,-0.3,5.89,18.13,17.51,20.0,18.22,13.51,6.57,3.69,-0.63
Makiivka,48.04782,37.92576,UA,338968,702320,Makiivka,-4.12,-8.9,-2.64,5.75,18.34,17.7,20.0,20.01,14.37,8.63,2.52,-1.18
Lyubotyn,49.94691,35.92907,UA,20376,702417,Lyubotyn,-5.92,-8.93,-3.5,4.99,17.75,17.32,19.84,18.78,13.13,7.24,2.06,-1.84
Lviv,49.83826,24.02324,UA,717273,702550,Lviv,-3.58,-7.45,1.11,6.75,16.53,17.7,19.21,19.25,13.96,6.07,5.16,0.11
Lutuhyne,48.40507,39.22675,UA,17134,702563,Lutuhyne,-4.36,-9.47,-2.19,6.68,18.63,18.22,20.97,21.02,14.79,9.32,2.57,-1.07
Lutsk,50.75932,25.34244,UA,215986,702569,Lutsk,-3.61,-6.58,0.74,6.38,16.57,17.33,19.66,18.88,13.97,6.18,4.86,0.11
Luhansk,48.56952,39.32857,UA,397677,702658,Luhansk,-4.57,-9.38,-2.06,6.78,18.89,18.24,21.1,21.13,14.85,9.24,2.63,-1.0
Lubny,50.01413,32.99975,UA,44595,702723,Lubny,-5.31,-7.86,-2.1,5.65,18.17,17.76,20.13,19.2,14.0,7.22,2.85,-1.4
Lozova,48.88937,36.31755,UA,54026,702760,Lozova,-5.53,-8.81,-3.52,5.64,18.46,17.6,19.84,19.35,13.94,7.96,2.46,-1.23
Lysychansk,48.90421,38.44094,UA,95031,702972,Lysychansk,-5.75,-9.64,-3.28,6.02,18.07,17.47,20.17,19.96,14.11,8.18,1.89,-1.51
Ladyzhyn,48.68437,29.23636,UA,22687,703428,Ladyzhyn,-4.15,-6.55,0.25,6.7,19.14,18.92,20.25,19.96,14.19,7.31,4.3,-0.55
Kyiv,50.45466,30.5238,UA,2797553,703448,Kyiv,-4.98,-7.18,-0.52,5.54,18.22,17.73,20.34,18.65,13.33,6.62,3.07,-1.04
Kurakhovo,47.98522,37.2821,UA,20700,703646,Kurakhovo,-3.77,-8.33,-2.11,6.54,19.19,18.51,20.65,20.59,15.14,9.11,3.2,-0.53
Kupiansk,49.71003,37.61581,UA,27169,703656,Kupiansk,-5.87,-8.96,-3.79,6.08,18.22,17.66,20.52,19.85,14.14,8.18,2.33,-1.48
Kryvyy Rih,47.90572,33.39404,UA,603904,703845,Kryvyy Rih,-3.93,-7.17,-0.7,6.98,20.32,20.07,21.45,22.06,16.0,9.48,4.36,0.24
Krolevets,51.54775,33.38475,UA,24115,704000,Krolevets,-6.16,-9.02,-3.14,4.79,16.91,16.44,19.86,17.69,12.45,6.26,2.28,-3.3
Kreminna,49.0495,38.21893,UA,18417,704138,Kreminna,-5.05,-8.72,-2.69,6.81,18.89,18.28,20.96,20.59,14.83,8.85,2.7,-0.68
Kremenets,50.09864,25.72787,UA,21063,704143,Kremenets,-3.73,-6.75,0.43,5.92,16.9,17.36,19.28,18.82,13.48,6.0,4.45,-0.45
Kremenchuk,49.06253,33.40484,UA,217710,704147,Kremenchuk,-4.32,-7.14,-1.3,6.6,19.93,19.11,20.93,20.73,15.36,8.59,3.59,-0.39
Khrustalnyi,48.13954,38.93715,UA,90005,704202,Khrustalnyi,-4.93,-9.98,-3.2,5.79,17.84,17.49,20.04,20.22,14.24,8.67,1.83,-2.0
Lyman,48.98616,37.80307,UA,20469,704204,Lyman,-5.3,-8.87,-3.08,6.41,18.73,18.0,20.55,20.12,14.47,8.49,2.45,-0.96
Yany Kapu,45.95547,33.79261,UA,30700,704362,Yany Kapu,-0.14,-3.76,1.02,8.31,19.57,21.29,22.73,23.79,17.5,12.15,6.55,2.64
Krasnohrad,49.37511,35.45493,UA,21426,704388,Krasnohrad,-5.57,-8.59,-3.22,5.37,18.76,17.8,19.9,19.12,13.67,7.59,2.33,-1.45
Sorokyne,48.29235,39.73921,UA,49352,704403,Sorokyne,-4.52,-9.77,-2.26,6.59,18.45,18.04,20.83,20.89,14.57,9.22,2.28,-1.45
Pokrovsk,48.28198,37.17585,UA,60127,704422,Pokrovsk,-4.51,-8.78,-2.7,6.13,18.64,17.85,20.11,20.02,14.54,8.46,2.69,-0.99
Krasyliv,49.65376,26.97211,UA,18868,704492,Krasyliv,-4.01,-7.14,-0.28,5.9,17.91,18.03,19.42,18.63,13.36,6.02,3.98,-0.81
Kramatorsk,48.73049,37.58793,UA,147145,704508,Kramatorsk,-4.8,-8.69,-2.74,6.22,18.67,17.85,20.34,20.13,14.5,8.57,2.66,-0.88
Kivsharivka,49.63026,37.6775,UA,19738,704608,Kivsharivka,-5.93,-9.07,-3.85,6.07,18.18,17.55,20.43,19.81,14.14,8.13,2.24,-1.47
Kovel,51.21526,24.70867,UA,67575,704617,Kovel,-3.77,-6.43,0.81,6.31,16.05,17.32,19.8,18.9,14.08,5.99,4.89,0.25
Podilsk,47.74988,29.53074,UA,39662,704679,Podilsk,-4.31,-6.46,0.11,6.71,19.06,19.75,20.31,20.95,14.3,7.73,4.72,-0.82
Kostopil,50.87841,26.45192,UA,31060,704737,Kostopil,-3.83,-6.24,0.14,6.03,16.97,17.26,19.43,18.41,13.6,6.27,4.37,-0.25
Korsun-Shevchenkivskyy,49.41822,31.25174,UA,17763,704858,Korsun-Shevchenkivskyy,-4.3,-6.63,-0.25,6.66,19.59,18.71,20.88,20.16,14.42,7.63,3.82,-0.6
Korostyshiv,50.31723,29.0563,UA,24490,704885,Korostyshiv,-4.19,-6.7,-0.01,6.16,18.42,17.82,19.88,18.43,13.41,6.61,3.78,-0.56
Korosten,50.95937,28.63855,UA,61496,704901,Korosten,-4.58,-6.95,-0.51,5.78,17.51,17.16,19.72,17.93,13.31,6.33,3.72,-0.75
Kostiantynivka,48.5277,37.7069,UA,91259,705104,Kostiantynivka,-4.16,-8.48,-2.35,6.6,18.76,18.21,20.67,20.49,14.81,8.92,3.03,-0.47
Konotop,51.24032,33.20263,UA,84787,705135,Konotop,-5.8,-8.68,-2.51,5.17,17.53,16.97,20.17,18.19,12.85,6.6,2.47,-2.94
Slobozhans’ke,49.59701,36.52618,UA,15825,705183,Slobozhans’ke,-5.52,-8.59,-3.35,5.55,18.31,17.81,20.26,19.42,13.68,7.93,2.33,-1.44
Kolomyia,48.52496,25.03712,UA,60821,705392,Kolomyia,-4.32,-7.88,-0.25,6.29,17.36,18.09,18.9,19.15,13.27,5.58,4.22,-1.89
Khrestivka,48.14871,38.36016,UA,27441,705797,Khrestivka,-4.65,-9.5,-3.08,5.75,18.05,17.52,19.95,19.98,14.23,8.57,2.1,-1.65
Holubivka,48.63751,38.6428,UA,26838,705809,Holubivka,-4.92,-9.35,-2.75,6.01,18.24,17.58,20.27,20.28,14.21,8.61,2.16,-1.31
Kropyvnytskyy,48.50834,32.26618,UA,219676,705812,Kropyvnytskyy,-4.21,-6.73,-1.14,6.47,19.88,19.41,20.84,21.15,15.4,8.41,3.92,-0.24
Kiliya,45.44445,29.26396,UA,19540,705883,Kiliya,-0.53,-4.64,2.46,8.62,19.67,22.28,23.0,24.21,17.03,11.58,7.71,1.87
Khust,48.17193,23.29791,UA,28424,706165,Khust,-3.91,-6.64,2.32,7.99,18.55,20.17,21.06,21.77,15.04,7.33,5.9,-1.5
Khmelnytskyi,49.41835,26.97936,UA,274582,706369,Khmelnytskyi,-4.06,-7.17,-0.31,6.0,18.27,18.31,19.46,18.8,13.43,5.98,3.94,-0.89
Khmilnyk,49.5581,27.95682,UA,27707,706380,Khmilnyk,-4.01,-6.7,-0.09,6.14,18.19,18.14,19.63,18.7,13.36,6.28,3.89,-0.71
Kherson,46.63695,32.61458,UA,283649,706448,Kherson,-1.99,-6.48,-0.02,7.8,19.57,20.96,22.41,23.6,16.83,10.56,5.74,1.4
Khartsyzk,48.04243,38.14728,UA,56367,706466,Khartsyzk,-4.3,-9.13,-2.81,5.7,18.2,17.6,19.93,19.97,14.29,8.58,2.31,-1.43
Kharkiv,49.98081,36.25272,UA,1433886,706483,Kharkiv,-5.75,-8.75,-3.44,5.36,17.99,17.66,20.27,19.15,13.43,7.67,2.4,-1.61
Kerch,45.35675,36.47542,UA,148932,706524,Kerch,1.76,-0.94,1.97,7.79,18.41,21.12,22.92,23.83,17.97,14.07,7.45,3.79
Kozyatyn,49.7164,28.83858,UA,23241,706571,Kozyatyn,-4.37,-6.84,-0.46,5.83,18.08,17.66,19.4,18.42,13.1,6.2,3.49,-1.22
Kaniv,49.75187,31.47003,UA,23503,706900,Kaniv,-4.46,-6.49,-0.26,6.51,19.33,18.77,21.14,19.94,14.32,7.72,3.75,-0.5
Kamianets-Podilskyi,48.67882,26.58516,UA,97908,706950,Kamianets-Podilskyi,-3.43,-6.98,0.47,7.15,19.77,20.07,20.28,20.14,14.63,6.86,4.64,-0.6
Kalush,49.02398,24.37206,UA,65088,707099,Kalush,-3.8,-7.88,0.24,6.4,16.8,17.75,18.78,19.01,13.17,5.52,4.66,-0.82
Kalynivka,49.46129,28.51541,UA,18492,707155,Kalynivka,-4.39,-6.77,-0.45,5.96,18.21,17.97,19.55,18.67,13.3,6.16,3.48,-1.2
Kakhovka,46.81601,33.47862,UA,35983,707244,Kakhovka,-1.74,-6.27,0.18,7.79,20.17,20.87,22.24,23.41,17.03,11.06,5.69,1.48
Izium,49.20697,37.27679,UA,45884,707292,Izium,-5.25,-8.61,-3.27,6.31,18.83,18.05,20.61,20.05,14.45,8.52,2.68,-0.82
Iziaslav,50.11978,26.82475,UA,16162,707296,Iziaslav,-3.48,-6.58,0.14,6.08,17.66,17.77,19.56,18.75,13.6,6.4,4.31,-0.46
Izmail,45.35058,28.83751,UA,70731,707308,Izmail,-0.96,-4.85,2.34,8.75,20.07,22.47,23.18,24.36,16.98,11.42,7.51,1.27
Ivano-Frankivsk,48.92312,24.71248,UA,238196,707471,Ivano-Frankivsk,-3.4,-7.27,0.79,6.87,17.49,18.43,19.29,19.5,13.67,5.92,4.7,-0.66
Irpin,50.52175,30.25055,UA,62456,707565,Irpin,-4.23,-6.56,0.03,6.07,18.73,18.11,20.7,19.07,13.86,7.05,3.64,-0.45
Ilovays’k,47.92498,38.20235,UA,15447,707679,Ilovays’k,-3.96,-9.02,-2.6,5.99,18.34,17.93,20.29,20.35,14.63,8.97,2.67,-1.19
Chornomors’k,46.29914,30.65529,UA,58524,707688,Chornomors’k,-0.84,-4.29,1.62,7.55,18.78,21.35,22.35,23.5,16.83,11.04,7.33,2.54
Horodok,49.17209,26.56357,UA,16046,707752,Horodok,-3.83,-7.17,0.01,6.56,19.0,19.13,19.91,19.52,14.03,6.26,4.29,-0.74
Horlivka,48.33576,38.05325,UA,239828,707753,Horlivka,-4.92,-9.55,-3.27,5.35,17.67,17.07,19.55,19.43,13.71,8.05,1.94,-1.6
Hlukhiv,51.67822,33.9162,UA,32248,707758,Hlukhiv,-6.41,-9.31,-3.5,4.38,16.54,16.0,19.81,17.58,12.43,6.19,2.1,-3.48
Hostomel,50.56841,30.2651,UA,17534,708251,Hostomel,-4.22,-6.54,-0.05,6.01,18.76,18.18,20.84,19.09,13.92,7.11,3.63,-0.45
Horodok,49.78465,23.64806,UA,15993,708313,Horodok,-3.9,-7.75,1.01,6.63,16.27,17.67,19.13,19.22,13.86,6.01,5.24,0.11
Henichesk,46.16824,34.80861,UA,19501,708878,Henichesk,-0.45,-3.81,0.76,7.95,19.46,21.32,22.48,23.61,17.45,12.3,6.14,2.37
Haysyn,48.81294,29.37917,UA,25735,708901,Haysyn,-3.93,-6.47,0.21,6.76,19.35,19.03,20.47,20.11,14.34,7.39,4.34,-0.43
Hadyach,50.36912,33.997,UA,23480,709054,Hadyach,-5.83,-8.67,-3.23,5.27,17.72,17.38,20.15,18.64,13.33,6.91,2.45,-1.96
Feodosiya,45.03199,35.38153,UA,68562,709161,Feodosiya,2.2,-0.69,1.88,7.54,18.45,21.3,22.69,23.38,17.78,13.66,7.69,3.85
Fastiv,50.0767,29.9177,UA,44014,709248,Fastiv,-4.47,-6.82,-0.26,5.88,18.44,17.9,20.03,18.76,13.45,6.61,3.49,-0.98
Enerhodar,47.49048,34.66199,UA,52887,709276,Enerhodar,-2.91,-6.68,-0.86,7.04,20.16,20.28,21.86,22.35,16.56,10.68,4.88,0.84
Dzhankoi,45.7131,34.39273,UA,41731,709334,Dzhankoi,0.37,-2.95,1.09,7.88,19.81,21.93,22.97,23.68,17.6,12.64,6.8,2.63
Toretsk,48.39477,37.8478,UA,41758,709354,Toretsk,-4.66,-9.08,-2.86,5.99,18.34,17.62,20.05,19.96,14.28,8.42,2.36,-1.17
Dunayivtsi,48.88697,26.84816,UA,15799,709429,Dunayivtsi,-3.99,-7.37,-0.27,6.33,18.95,19.06,19.58,19.24,13.75,6.12,4.09,-1.04
Dubno,50.41694,25.73432,UA,37257,709540,Dubno,-3.45,-6.52,0.65,6.18,16.91,17.41,19.57,18.82,13.75,6.28,4.77,-0.09
Drohobych,49.351,23.5174,UA,73682,709611,Drohobych,-4.23,-7.92,0.54,6.41,16.2,17.54,18.73,19.15,13.33,5.61,5.4,-0.06
Donetsk,48.023,37.80224,UA,901645,709717,Donetsk,-4.12,-8.92,-2.65,5.8,18.4,17.74,20.01,20.02,14.4,8.61,2.57,-1.12
Dolyna,48.97158,23.96558,UA,20691,709755,Dolyna,-5.35,-8.85,-0.93,5.07,15.62,16.53,17.6,17.91,12.12,4.41,4.25,-1.88
Dolynska,48.11725,32.77691,UA,18460,709782,Dolynska,-4.47,-7.36,-1.2,6.32,19.72,19.44,20.74,21.33,15.34,8.53,3.84,-0.41
Dokuchaievsk,47.75046,37.67936,UA,22907,709835,Dokuchaievsk,-3.52,-8.59,-2.16,6.28,18.86,18.42,20.62,20.63,15.03,9.2,3.12,-0.72
Dobropillia,48.46147,37.08524,UA,28757,709900,Dobropillia,-4.8,-8.83,-2.95,5.96,18.38,17.71,20.04,19.76,14.35,8.28,2.67,-0.96
Dnipro,48.46664,35.04066,UA,968502,709930,Dnipro,-4.48,-7.7,-1.98,6.67,19.99,19.15,20.8,20.58,15.29,9.08,3.62,-0.09
Kamyanske,48.51716,34.60617,UA,226845,709932,Kamyanske,-4.46,-7.59,-1.77,6.56,20.05,19.22,20.76,20.52,15.21,8.96,3.64,-0.07
Dniprorudne,47.38993,35.00065,UA,18036,709960,Dniprorudne,-2.77,-6.62,-1.16,5.88,19.85,19.92,21.59,22.15,16.42,10.58,4.65,0.64
Myrnohrad,48.3099,37.26513,UA,49646,710035,Myrnohrad,-4.33,-8.67,-2.59,6.26,18.68,17.98,20.26,20.13,14.65,8.61,2.88,-0.78
Derhachi,50.10659,36.12112,UA,17433,710098,Derhachi,-5.79,-8.68,-3.28,5.41,17.97,17.55,20.24,19.08,13.44,7.58,2.37,-1.62
Debaltseve,48.34072,38.4049,UA,24316,710229,Debaltseve,-5.14,-9.86,-3.55,5.15,17.32,16.82,19.38,19.31,13.52,7.96,1.74,-1.85
Chuhuiv,49.83538,36.6865,UA,36519,710374,Chuhuiv,-5.9,-8.9,-3.85,5.43,17.93,17.57,20.12,19.16,13.47,7.72,2.19,-1.75
Chortkiv,49.01701,25.79808,UA,28393,710400,Chortkiv,-3.26,-6.86,0.81,7.14,19.22,19.53,20.16,20.16,14.63,6.51,4.62,-0.48
Chervonopartyzansk,48.07613,39.79618,UA,15273,710548,Chervonopartyzansk,-4.85,-10.12,-3.03,5.8,17.54,17.19,20.0,20.17,13.88,8.66,1.77,-2.2
Chervonohrad,50.39105,24.23514,UA,64297,710554,Chervonohrad,-3.33,-7.0,1.04,6.8,16.47,17.76,19.75,19.44,14.32,6.27,5.25,0.36
Chernivtsi,48.29045,25.93241,UA,265471,710719,Chernivtsi,-3.55,-7.52,0.46,7.02,18.67,19.59,19.83,20.24,14.32,6.52,4.34,-1.26
Chernihiv,51.50551,31.28487,UA,285234,710735,Chernihiv,-5.45,-7.52,-0.88,5.27,18.06,17.3,20.76,18.37,12.99,6.43,2.86,-1.45
Cherkasy,49.44452,32.05738,UA,272651,710791,Cherkasy,-4.61,-6.85,-1.02,5.51,19.3,18.76,20.92,20.35,14.72,8.01,3.54,-0.44
Bucha,50.54345,30.21201,UA,42279,711350,Bucha,-4.22,-6.57,-0.01,6.07,18.7,18.04,20.58,19.0,13.83,6.96,3.61,-0.49
Brianka,48.511,38.67222,UA,44987,711369,Brianka,-4.82,-9.41,-2.83,5.89,18.09,17.48,20.17,20.25,14.1,8.59,2.11,-1.41
Brovary,50.51809,30.80671,UA,109806,711390,Brovary,-4.61,-6.7,-0.17,5.9,18.62,18.03,20.77,19.06,13.61,7.0,3.37,-0.73
Brody,50.08791,25.15027,UA,23335,711416,Brody,-3.37,-6.69,0.91,6.5,17.01,17.64,19.54,19.16,13.95,6.27,5.0,0.02
Boiarka,50.31911,30.29728,UA,35312,711515,Boiarka,-4.52,-6.83,-0.19,5.79,18.34,17.8,20.29,18.83,13.49,6.75,3.42,-0.96
Boryspil,50.35269,30.95501,UA,64117,711660,Boryspil,-4.59,-6.57,-0.1,5.96,18.67,18.04,20.78,19.11,13.64,7.1,3.41,-0.72
Boryslav,49.29208,23.42577,UA,32913,711669,Boryslav,-4.5,-7.85,0.12,6.01,15.85,17.21,18.34,18.76,13.02,5.32,5.47,-0.23
Bolhrad,45.67786,28.61811,UA,15044,711841,Bolhrad,-1.73,-5.36,2.04,8.66,20.4,22.58,23.01,24.38,16.7,10.74,7.08,0.52
Bohuslav,49.54637,30.87407,UA,16498,711867,Bohuslav,-4.4,-6.58,-0.13,6.5,19.45,18.63,20.74,19.83,14.12,7.39,3.82,-0.62
Bohodukhiv,50.16466,35.52765,UA,17818,711894,Bohodukhiv,-5.9,-8.87,-3.44,5.11,17.74,17.3,20.04,18.88,13.39,7.33,2.44,-1.71
Bilhorod-Dnistrovskyi,46.19484,30.34827,UA,47727,712160,Bilhorod-Dnistrovskyi,-0.85,-4.51,1.8,8.05,19.24,21.68,22.52,23.59,16.82,11.15,7.27,2.25
Bila Tserkva,49.8004,30.12851,UA,207273,712165,Bila Tserkva,-4.38,-6.64,-0.04,6.05,18.67,18.18,20.2,19.11,13.66,6.92,3.68,-0.87
Berezhany,49.44578,24.93686,UA,17697,712374,Berezhany,-3.47,-7.34,0.88,6.71,17.42,18.09,19.34,19.31,13.86,5.86,4.58,-0.51
Berezan,50.3112,31.46712,UA,16202,712389,Berezan,-4.78,-6.75,-0.19,6.11,18.83,18.18,20.87,19.28,13.83,7.31,3.36,-1.11
Berehove,48.20514,22.64453,UA,23325,712423,Berehove,-3.66,-6.22,3.06,9.1,19.46,21.48,22.26,23.29,16.16,8.22,6.45,0.08
Berdychiv,49.89408,28.60144,UA,73046,712441,Berdychiv,-4.12,-6.68,-0.24,6.12,18.17,17.79,19.62,18.54,13.27,6.4,3.75,-0.93
Berdyansk,46.75578,36.78815,UA,106311,712451,Berdyansk,-0.54,-4.48,0.62,7.02,18.85,20.49,22.85,23.63,17.34,12.21,5.62,1.54
Bilopillia,51.15016,34.31287,UA,15850,712559,Bilopillia,-6.2,-9.37,-3.77,4.77,16.9,16.34,19.81,17.91,12.63,6.42,2.16,-3.15
Bilohirsk,45.05679,34.60386,UA,16428,712587,Bilohirsk,0.36,-3.03,0.14,6.71,18.83,20.68,21.57,22.39,16.4,12.08,6.25,2.05
Bar,49.07362,27.67404,UA,15913,712861,Bar,-3.93,-6.5,-0.18,6.22,18.65,18.57,19.76,19.01,13.6,6.31,4.05,-0.94
Balta,47.93596,29.62225,UA,18511,712886,Balta,-3.28,-5.51,0.97,7.67,20.16,20.49,21.25,21.72,15.16,8.56,5.41,0.15
Balakliia,49.45595,36.84433,UA,26921,712926,Balakliia,-5.61,-8.73,-3.64,5.8,18.42,17.89,20.37,19.66,14.0,8.12,2.42,-1.37
Balaklava,44.51118,33.59942,UA,18649,712930,Balaklava,3.89,0.32,3.03,8.08,16.77,20.02,21.88,23.29,18.41,13.73,9.12,5.8
Bakhmach,51.18144,32.83463,UA,17192,712967,Bakhmach,-5.73,-8.45,-2.02,5.09,17.6,17.06,20.16,18.17,12.71,6.56,2.56,-2.81
Bakhchysarai,44.75525,33.85782,UA,27448,712969,Bakhchysarai,1.04,-1.88,0.93,7.15,17.96,19.65,21.12,22.38,16.66,12.02,6.55,2.77
Avdiivka,48.13989,37.74255,UA,35826,713122,Avdiivka,-4.26,-8.96,-2.7,5.82,18.29,17.66,19.94,19.85,14.26,8.46,2.56,-1.09
Bakhmut,48.59441,37.99983,UA,80500,713174,Bakhmut,-4.43,-8.66,-2.51,6.5,18.66,18.07,20.63,20.46,14.69,8.88,2.77,-0.66
Armyansk,46.10919,33.69206,UA,24442,713203,Armyansk,-0.48,-4.26,0.82,8.28,19.78,21.43,22.77,23.92,17.5,11.9,6.34,2.33
Apostolove,47.65983,33.71952,UA,15828,713245,Apostolove,-3.51,-7.2,-0.53,7.08,20.39,20.26,21.71,22.39,16.18,9.85,4.58,0.44
Antratsyt,48.11503,39.09128,UA,52353,713259,Antratsyt,-4.64,-9.72,-2.87,6.05,18.04,17.68,20.29,20.49,14.44,8.92,2.08,-1.77
Amvrosiivka,47.79348,38.47768,UA,18047,713504,Amvrosiivka,-3.51,-9.03,-2.13,6.42,18.66,18.34,20.76,20.98,15.07,9.46,2.93,-1.14
Alushta,44.67728,34.4097,UA,29586,713513,Alushta,3.73,0.25,2.84,8.41,19.51,21.15,22.77,24.08,18.53,13.98,9.21,5.23
Alchevsk,48.46893,38.81669,UA,106062,713716,Alchevsk,-4.94,-9.56,-2.93,5.91,17.98,17.46,20.17,20.2,14.05,8.55,2.04,-1.47
Okhtyrka,50.31036,34.89879,UA,47216,713749,Okhtyrka,-5.77,-8.66,-3.28,5.44,17.85,17.45,20.32,18.93,13.6,7.33,2.61,-1.67
Horishni Plavni,49.00835,33.62926,UA,50414,6559559,Horishni Plavni,-4.34,-7.22,-1.39,6.41,19.96,19.09,20.83,20.57,15.2,8.54,3.53,-0.32
Slavutych,51.5225,30.71806,UA,24685,6930327,Slavutych,-5.4,-7.59,-0.86,5.33,17.99,17.18,20.56,18.1,13.05,6.29,2.9,-1.34
Yuzhnoukrayinsk,47.82879,31.17513,UA,39048,7525990,Yuzhnoukrayinsk,-3.83,-6.25,-0.16,6.93,19.65,20.23,21.5,22.24,15.53,8.58,4.81,-0.04
Varash,51.3509,25.84738,UA,42000,8341919,Varash,-3.94,-6.42,0.51,6.08,16.24,17.01,19.61,18.48,13.67,6.06,4.46,-0.01
Novoyavorivs'k,49.93023,23.57357,UA,31280,8468760,Novoyavorivs'k,-3.94,-7.61,0.88,6.52,16.17,17.55,19.08,19.1,13.82,5.94,5.18,0.11
Reni,45.45421,28.27731,UA,18530,12129128,Reni,-1.5,-5.09,2.33,9.12,20.73,23.03,23.43,24.77,16.95,11.06,7.36,0.72
