latitude,longitude,country,population,id,city,jan,feb,mar,apr,may,jun,jul,aug,sep,oct,nov,dec
39.87534,20.00477,AL,15147,363243,Sarandë,11.93,7.79,11.22,13.96,21.03,26.14,27.11,27.96,23.1,19.24,16.01,11.33
40.9025,20.6525,AL,61530,781988,Pogradec,2.91,-1.67,4.84,8.38,18.56,22.39,23.51,24.7,17.26,12.35,9.07,2.7
42.07694,20.42194,AL,17832,782661,Kukës,2.33,-1.55,5.12,9.33,19.89,23.43,23.87,25.3,17.42,12.35,9.55,2.58
40.61861,20.78083,AL,58259,782756,Korçë,1.96,-2.56,3.84,7.3,17.56,21.4,22.67,23.65,16.1,11.53,7.7,1.72
40.07583,20.13889,AL,23437,783148,Gjirokastër,8.89,4.48,8.67,11.95,19.65,24.22,25.32,26.01,20.18,16.53,13.45,8.74
41.1125,20.08222,AL,100903,783263,Elbasan,6.55,2.34,7.47,11.32,20.12,24.6,25.44,26.53,19.55,14.97,11.91,6.13
41.61028,20.00889,AL,15405,783493,Burrel,4.39,-0.53,6.18,10.12,19.55,23.8,24.62,25.98,18.53,13.75,10.79,4.2
40.4686,19.48318,AL,89546,3183719,Vlorë,10.03,5.99,9.93,13.73,21.77,26.95,27.96,28.62,21.98,17.96,14.7,9.65
41.3275,19.81889,AL,418495,3183875,Tirana,8.24,4.26,8.98,12.46,19.98,24.67,25.54,26.81,20.44,16.14,13.54,7.94
42.06828,19.51258,AL,88245,3184081,Shkodër,6.2,2.73,8.53,12.43,22.0,26.28,26.59,28.23,20.22,15.33,12.18,6.2
40.64278,19.65083,AL,22679,3184517,Patos Fshat,8.15,3.92,8.29,12.35,20.44,25.55,26.46,27.27,20.37,16.45,13.17,7.63
40.68333,19.61944,AL,16000,3184518,Patos,8.54,4.38,8.66,12.58,20.57,25.75,26.6,27.34,20.64,16.72,13.51,8.03
40.94194,19.705,AL,41469,3184862,Lushnjë,8.31,4.23,8.83,12.71,20.87,26.15,26.82,27.79,20.9,16.58,13.35,7.69
41.78361,19.64361,AL,18695,3184935,Lezhë,8.54,4.64,10.33,13.92,22.54,27.08,27.38,28.82,21.23,16.59,13.86,8.06
41.63556,19.71306,AL,24825,3185012,Laç,8.39,4.5,10.18,13.77,22.39,26.93,27.23,28.67,21.07,16.44,13.71,7.91
41.50917,19.79278,AL,21286,3185082,Krujë,4.54,-0.38,5.2,9.1,17.6,21.89,22.57,23.99,17.17,12.9,10.26,4.28
41.18556,19.55694,AL,29354,3185211,Kavajë,9.41,5.56,9.81,13.0,20.14,25.06,25.97,26.8,20.98,17.04,14.41,9.12
40.71667,19.56667,AL,60995,3185670,Fier-Çifçi,8.9,4.73,9.01,12.93,20.92,26.1,26.95,27.69,20.99,17.07,13.86,8.37
40.72389,19.55611,AL,56297,3185672,Fier,8.84,4.68,8.96,12.88,20.87,26.05,26.9,27.64,20.94,17.02,13.81,8.33
41.32355,19.45469,AL,122034,3185728,Durrës,10.46,6.62,10.75,13.58,20.08,24.81,25.8,26.57,21.49,17.74,15.54,10.5
40.70583,19.95222,AL,46866,3186084,Berat,7.47,3.21,8.02,12.0,20.52,25.46,26.21,27.21,20.17,15.9,12.59,6.89
42.50729,1.53414,AD,15853,3040051,les Escaldes,-0.24,-0.69,6.6,8.31,13.61,20.52,21.05,22.79,15.48,9.51,7.13,1.38
42.50779,1.52109,AD,20430,3041563,Andorra la Vella,-0.34,-0.79,6.5,8.21,13.51,20.42,20.95,22.69,15.38,9.41,7.03,1.28
39.20755,46.40576,AM,33160,174875,Kapan,-0.15,0.27,1.55,7.82,14.32,17.02,20.95,22.22,16.62,14.98,5.09,0.75
39.51111,46.34168,AM,20379,174895,Goris,-3.92,-3.11,-1.58,4.31,11.14,14.04,17.79,18.87,13.64,11.92,1.55,-3.17
39.46405,45.97047,AM,15208,174972,Hats’avan,-4.89,-4.94,-2.46,3.31,10.24,13.98,16.43,17.55,13.33,11.7,0.73,-4.74
39.96144,44.54447,AM,20562,174979,Artashat,-0.97,-0.11,2.42,10.44,16.86,20.59,24.6,25.5,19.95,15.34,5.48,-1.22
39.83069,44.70569,AM,28832,174991,Ararat,0.02,0.77,2.44,11.35,17.69,20.84,25.03,26.05,20.81,16.78,6.63,-0.04
40.18111,44.51361,AM,1093485,616052,Yerevan,-2.05,-1.48,0.52,8.54,14.81,19.22,23.18,23.74,18.1,13.74,3.91,-2.68
40.16557,44.29462,AM,46200,616062,Vagharshapat,-2.05,-1.08,1.66,9.36,16.08,20.12,24.03,24.66,18.91,14.63,4.82,-1.11
41.00995,44.38531,AM,23782,616194,Stepanavan,-5.64,-4.74,-2.68,3.05,11.48,13.85,16.74,17.57,12.87,10.62,1.11,-4.12
40.83221,44.26731,AM,15059,616199,Spitak,-5.86,-5.61,-3.28,2.37,10.67,13.17,15.85,16.62,12.23,9.98,0.23,-5.06
40.5473,44.94171,AM,17083,616250,Sevan,-3.91,-5.46,-4.23,1.48,8.27,11.44,14.46,15.58,11.33,9.74,1.54,-2.83
40.06572,44.41913,AM,18911,616435,Masis,-1.34,-0.66,2.16,9.86,16.33,20.23,24.22,25.04,19.34,14.94,5.27,-0.82
40.80456,44.4939,AM,101098,616530,Vanadzor,-4.55,-4.27,-2.17,3.4,11.86,14.13,16.82,17.6,13.05,11.36,1.53,-3.59
40.35398,45.12386,AM,21680,616599,Gavar,-4.65,-6.15,-4.73,1.57,8.3,11.95,14.85,15.71,11.9,10.0,1.27,-3.87
40.49748,44.7662,AM,40795,616629,Hrazdan,-3.83,-4.42,-2.73,4.07,10.81,14.89,18.2,18.89,14.28,11.4,1.78,-3.48
40.15446,44.03815,AM,25963,616631,Armavir,-2.14,-0.79,2.19,9.73,16.66,20.2,24.07,24.58,18.76,14.64,5.0,-0.95
40.7942,43.84528,AM,148381,616635,Gyumri,-6.11,-5.74,-3.51,3.79,10.74,13.39,16.77,17.46,12.92,10.16,0.9,-5.13
40.40289,44.64447,AM,18500,616785,Ch’arents’avan,-3.98,-3.95,-2.22,4.83,11.77,15.82,19.17,19.89,15.08,11.75,1.78,-3.8
40.2991,44.36204,AM,18779,616877,Ashtarak,-3.77,-2.02,-0.24,8.31,14.85,19.29,23.23,23.79,18.08,13.5,3.59,-3.25
40.27368,44.63348,AM,35673,617026,Abovyan,-4.16,-3.28,-1.66,6.25,13.05,17.46,21.21,21.84,16.55,12.16,2.12,-4.68
47.25829,11.38808,AT,18142,2761164,Wilten,-3.05,-2.99,5.28,7.2,14.91,21.0,19.48,21.76,14.19,5.85,5.69,-0.49
47.80485,16.23196,AT,44820,2761353,Wiener Neustadt,-1.41,-2.38,5.67,8.96,16.98,21.68,21.02,23.36,15.28,7.03,6.21,0.57
48.20849,16.37208,AT,1691468,2761369,Vienna,-1.42,-1.67,5.5,9.24,17.54,22.09,21.64,23.69,15.78,7.49,6.55,0.87
47.05293,15.39923,AT,15687,2761436,Wetzelsdorf,-3.67,-4.09,5.26,8.0,16.49,21.12,20.86,22.36,14.1,6.88,5.26,0.48
48.16667,14.03333,AT,16857,2761524,Wels,-1.37,-3.07,5.61,8.97,16.47,21.81,20.9,23.04,15.48,6.97,5.63,0.75
48.4,15.6,AT,24092,2761669,Weinzierl bei Krems,-1.69,-2.77,5.36,8.99,17.1,21.75,21.21,23.22,15.42,6.96,5.99,0.72
46.61028,13.85583,AT,58882,2762372,Villach,-2.29,-3.42,6.02,7.47,16.14,21.42,20.77,22.69,14.45,6.71,5.87,1.3
47.30707,11.06817,AT,15229,2763810,Telfs,-3.21,-3.29,4.92,6.86,14.46,20.52,19.09,21.25,13.94,5.7,5.37,-0.73
47.03333,15.4,AT,16268,2764178,Straßgang,-3.9,-4.24,5.18,8.06,16.51,21.14,20.92,22.4,14.13,7.05,5.1,0.31
48.38333,16.21667,AT,16292,2764279,Stockerau,-1.58,-1.68,5.44,9.21,17.43,21.79,21.4,23.41,15.69,7.51,6.53,0.94
48.04274,14.42127,AT,38331,2764359,Steyr,-1.7,-3.41,5.16,8.42,16.03,21.29,20.41,22.46,14.88,6.49,5.67,0.23
48.18333,16.43333,AT,101420,2765028,Simmering,-1.17,-1.43,5.75,9.48,17.79,22.34,21.89,23.93,16.03,7.74,6.8,1.12
48.2,15.63333,AT,21911,2766429,Sankt Pölten,-1.77,-3.27,5.13,8.64,16.71,21.4,20.79,22.81,15.07,6.68,5.84,0.58
47.05,15.46667,AT,15187,2766446,Sankt Peter,-3.95,-4.29,5.13,8.01,16.46,21.09,20.87,22.35,14.08,7.0,5.05,0.26
46.62978,14.34016,AT,20320,2766447,Sankt Peter,-2.78,-2.82,6.11,7.99,16.54,21.75,21.22,22.89,14.71,7.07,5.83,1.27
46.61667,14.28333,AT,20000,2766522,Sankt Martin,-2.83,-2.87,6.06,7.94,16.49,21.71,21.17,22.84,14.66,7.01,5.78,1.22
47.79941,13.04399,AT,157245,2766824,Salzburg,-2.18,-4.92,4.55,7.98,15.07,20.47,19.29,21.63,13.61,6.3,5.15,-0.21
47.42681,12.848,AT,16790,2766922,Saalfelden am Steinernen Meer,-4.1,-4.98,3.74,5.44,13.79,19.28,18.08,20.32,12.52,4.93,4.58,-0.75
47.26539,11.4152,AT,32588,2768442,Pradl,-3.0,-2.94,5.33,7.25,14.96,21.05,19.53,21.81,14.24,5.89,5.74,-0.44
48.11935,16.26607,AT,15047,2769110,Perchtoldsdorf,-1.53,-2.05,5.31,8.83,17.05,21.67,21.18,23.29,15.32,7.1,6.27,0.68
48.21667,16.3,AT,104627,2769359,Ottakring,-1.5,-1.92,5.32,8.91,17.2,21.68,21.19,23.23,15.4,7.26,6.41,0.84
48.08605,16.28921,AT,20555,2771335,Mödling,-1.33,-1.85,5.51,9.03,17.25,21.87,21.38,23.49,15.52,7.3,6.47,0.88
48.16667,16.33333,AT,97624,2771706,Meidling,-1.25,-1.67,5.57,9.16,17.45,21.93,21.44,23.48,15.66,7.51,6.66,1.08
47.42642,9.65851,AT,22821,2772173,Lustenau,-0.56,-2.52,5.38,8.79,15.16,22.16,20.11,22.84,15.03,7.47,5.63,1.17
48.30639,14.28611,AT,204846,2772400,Linz,-1.48,-3.14,5.54,9.01,16.61,21.87,20.91,23.15,15.68,7.06,5.81,0.86
48.30521,16.32522,AT,15614,2773913,Klosterneuburg,-1.34,-1.58,5.56,9.26,17.49,21.88,21.4,23.43,15.72,7.63,6.67,1.05
46.62472,14.30528,AT,100316,2774326,Klagenfurt am Wörthersee,-2.88,-2.92,6.01,7.89,16.44,21.66,21.12,22.79,14.61,6.97,5.73,1.17
47.26266,11.39454,AT,132493,2775220,Innsbruck,-3.0,-2.94,5.33,7.25,14.96,21.05,19.53,21.81,14.24,5.89,5.74,-0.44
48.20906,16.37135,AT,16450,2775260,Innere Stadt,-1.42,-1.67,5.5,9.24,17.54,22.09,21.64,23.69,15.78,7.49,6.55,0.87
47.26815,11.36868,AT,35043,2775479,Hötting,-3.6,-3.54,4.73,6.65,14.36,20.45,18.93,21.21,13.64,5.29,5.14,-1.04
47.36121,9.68694,AT,16317,2775742,Hohenems,-0.76,-2.72,5.18,8.59,14.96,21.96,19.91,22.64,14.83,7.27,5.43,0.97
48.18623,16.2965,AT,54265,2776421,Hietzing,-1.15,-1.57,5.67,9.26,17.55,22.03,21.54,23.58,15.76,7.61,6.76,1.18
48.23333,16.26667,AT,57546,2776488,Hernals,-2.05,-2.47,4.77,8.36,16.65,21.13,20.64,22.68,14.86,6.71,5.86,0.28
47.06667,15.45,AT,295424,2778067,Graz,-4.0,-4.34,5.08,7.96,16.41,21.04,20.82,22.3,14.03,6.95,5.0,0.21
48.25,16.4,AT,162779,2779469,Floridsdorf,-1.36,-1.51,5.62,9.44,17.68,22.11,21.65,23.68,15.96,7.75,6.76,1.06
47.23306,9.6,AT,33420,2779674,Feldkirch,-1.37,-3.56,5.55,8.57,14.87,21.42,19.59,22.08,14.53,7.16,5.3,-0.09
47.07,15.39871,AT,20511,2780361,Eggenberg,-3.73,-4.14,5.21,7.95,16.45,21.07,20.81,22.31,14.04,6.83,5.2,0.43
47.41427,9.74195,AT,49278,2780741,Dornbirn,-0.76,-2.72,5.18,8.59,14.96,21.96,19.91,22.64,14.83,7.27,5.43,0.97
47.50311,9.7471,AT,29806,2781503,Bregenz,-0.19,-2.36,5.5,9.0,15.61,22.77,20.7,23.71,15.64,7.84,5.93,1.35
48.00543,16.23264,AT,26286,2782067,Baden,-1.31,-1.96,5.56,9.03,17.17,21.89,21.39,23.62,15.49,7.18,6.29,0.68
48.1229,14.87206,AT,15559,2782555,Amstetten,-1.93,-3.85,5.05,8.61,16.27,21.35,20.46,22.58,14.86,6.51,5.7,-0.07
48.16116,16.38233,AT,201882,8063098,Favoriten,-1.72,-1.97,5.2,8.94,17.24,21.79,21.34,23.39,15.48,7.19,6.25,0.57
48.2333,16.46002,AT,187007,11903636,Donaustadt,-1.4,-1.6,5.58,9.4,17.73,22.24,21.71,23.84,15.97,7.68,6.66,0.9
47.05441,15.44984,AT,32912,11903637,Jakomini,-3.53,-3.94,5.41,8.15,16.65,21.27,21.01,22.51,14.24,7.03,5.4,0.63
47.08256,15.41589,AT,31147,11903638,Lend,-3.63,-4.04,5.31,8.05,16.55,21.17,20.91,22.41,14.14,6.93,5.3,0.53
47.08393,15.444,AT,24767,11903639,Geidorf,-3.73,-4.14,5.21,7.95,16.45,21.07,20.81,22.31,14.04,6.83,5.2,0.43
47.06924,15.45784,AT,15853,11903640,Sankt Leonhard,-3.78,-3.62,5.06,7.93,16.52,21.1,20.85,22.4,14.16,7.21,5.39,0.51
47.11387,15.42348,AT,19020,11903641,Andritz,-3.73,-4.14,5.21,7.95,16.45,21.07,20.81,22.31,14.04,6.83,5.2,0.43
47.06236,15.42421,AT,29363,11903642,Gries,-3.57,-3.99,5.36,8.1,16.59,21.22,20.96,22.46,14.2,6.98,5.36,0.58
39.8177,46.7528,AZ,53100,146970,Xankandi,-1.66,-0.87,-0.32,6.57,14.3,17.08,21.35,22.53,16.62,14.15,5.3,1.11
39.88074,48.39158,AZ,17242,147059,Əhmədbəyli,5.35,5.29,5.83,11.45,19.52,23.03,27.92,29.09,23.08,20.24,10.82,6.06
39.76006,46.74989,AZ,18662,147105,Şuşa,-4.65,-3.33,-2.65,3.67,11.41,14.26,18.16,19.19,13.96,11.77,1.9,-2.42
39.59621,48.98479,AZ,36555,147271,Salyan,5.8,5.48,5.97,10.84,18.62,22.24,26.85,27.85,22.58,20.09,11.17,6.72
39.93214,48.36892,AZ,87000,147288,Saatlı,5.3,5.23,5.79,11.39,19.46,22.98,27.87,29.04,23.03,20.19,10.77,6.01
39.3768,49.247,AZ,18661,147425,Neftçala,6.75,6.1,6.52,10.43,18.07,21.84,25.93,27.2,22.78,20.33,12.24,8.11
39.20889,45.41222,AZ,64754,147429,Nakhchivan,-1.24,1.1,3.74,11.9,18.09,22.31,27.29,27.62,21.55,17.45,6.57,1.89
38.77388,48.41497,AZ,87000,147611,Lerik,-0.36,-0.35,0.46,6.79,13.67,16.42,20.16,21.46,16.32,14.87,6.65,1.97
38.75428,48.85062,AZ,240300,147622,Lankaran,6.39,5.89,6.29,10.71,17.83,20.85,24.82,25.87,21.71,19.48,12.42,8.52
39.87095,48.05995,AZ,34178,147982,Imishli,5.07,5.16,5.68,11.52,19.62,23.15,28.01,29.13,23.04,20.2,10.62,5.78
39.60094,47.14529,AZ,26765,148106,Fizuli,1.54,1.49,2.26,9.23,16.9,19.74,24.29,25.56,19.15,16.34,7.96,3.64
39.20963,48.49186,AZ,36259,148290,Jalilabad,4.16,4.53,5.04,10.49,17.66,20.89,25.19,26.19,21.16,18.88,10.48,5.82
39.45833,48.545,AZ,18182,148340,Pushkino,5.29,5.06,5.55,10.87,18.49,21.9,26.6,27.59,22.28,19.74,10.85,6.12
39.77556,47.61861,AZ,15599,148354,Beylagan,4.37,4.48,5.06,11.25,19.24,22.6,27.56,28.69,22.32,19.43,10.05,5.22
38.45598,48.87498,AZ,15190,148445,Astara,5.66,5.44,5.73,10.97,18.16,20.57,24.6,25.73,21.28,19.14,12.22,8.33
39.93778,48.929,AZ,70220,148565,Şirvan,5.39,5.06,5.7,11.16,19.44,22.7,27.66,28.52,22.64,19.97,10.6,6.17
39.99096,46.92736,AZ,39451,148619,Ağdam,0.89,1.16,2.23,9.03,16.39,19.36,23.56,24.96,18.87,15.97,7.36,2.55
41.6316,46.64479,AZ,32171,584596,Zaqatala,0.9,0.26,1.95,8.64,15.57,18.15,22.0,22.83,17.71,14.5,6.88,1.16
40.47746,49.94174,AZ,21396,584614,Zabrat,6.31,4.84,5.17,8.58,16.62,20.42,24.18,26.07,22.07,19.14,11.51,8.0
40.61832,47.15014,AZ,127400,584649,Yevlakh,4.5,4.53,5.34,11.8,19.46,22.55,27.58,29.0,22.2,18.98,9.98,5.15
40.58584,46.3189,AZ,17816,584716,Göygöl,0.66,-0.15,0.94,8.08,15.43,18.0,21.52,22.16,16.83,14.38,6.57,1.92
41.46426,48.80565,AZ,37175,584717,Xaçmaz,3.47,2.07,3.09,8.25,16.89,19.46,23.58,24.86,19.74,16.5,8.63,4.54
40.51902,47.65423,AZ,15741,584791,Ujar,4.26,4.24,5.13,11.78,19.02,21.8,26.61,28.0,21.83,18.77,10.07,4.96
40.99249,45.62838,AZ,177200,584821,Tovuz,0.9,0.93,2.46,8.33,16.8,19.53,23.31,24.7,18.45,15.1,7.07,2.26
40.34201,46.93161,AZ,18185,584871,Terter,2.37,1.87,3.19,9.94,17.25,20.24,24.53,25.81,19.67,16.84,8.21,3.36
40.58972,49.66861,AZ,358675,584923,Sumqayıt,5.71,4.27,4.63,8.9,17.37,20.84,24.54,26.14,21.56,18.72,10.74,7.17
40.39667,49.97361,AZ,72989,585103,Qaraçuxur,6.12,4.79,5.12,8.46,16.5,20.25,24.07,25.97,21.97,19.03,11.44,7.86
40.82975,46.0178,AZ,35421,585152,Shamkhor,0.5,0.72,2.19,8.44,16.26,19.21,22.99,24.0,18.16,15.1,7.02,2.28
40.63141,48.64137,AZ,29403,585156,Shamakhi,0.78,0.1,0.5,7.78,15.03,17.24,22.31,23.56,17.52,14.82,6.47,1.82
41.19194,47.17056,AZ,68400,585170,Sheki,1.19,0.31,1.21,8.17,15.45,18.34,22.76,24.15,18.0,15.41,6.23,1.96
40.4425,49.94806,AZ,20996,585184,Sabunçu,6.18,4.87,5.27,8.85,17.04,20.65,24.52,26.29,22.03,19.18,11.4,7.85
40.00869,48.47701,AZ,30612,585187,Sabirabad,5.17,5.19,5.82,11.47,19.56,23.06,27.95,29.14,23.03,20.13,10.83,6.04
41.4275,48.4302,AZ,16022,585220,Qusar,-0.76,-2.25,-1.19,5.21,13.36,15.29,19.27,20.16,14.9,12.38,4.02,-0.24
41.36108,48.51341,AZ,22405,585221,Quba,0.03,-1.43,-0.59,6.11,14.51,16.33,20.32,21.23,15.91,13.18,4.88,0.59
40.03874,48.94286,AZ,23102,585225,Hacıqabul,5.18,4.82,5.54,11.16,19.63,22.73,27.78,28.61,22.61,19.81,10.41,6.06
41.09246,45.36561,AZ,18903,585226,Qazax,1.36,1.7,3.34,9.1,17.49,20.26,24.01,25.73,19.33,15.74,7.6,2.72
40.62333,49.55861,AZ,19019,585379,Hacı Zeynalabdin,5.76,4.32,4.69,8.94,17.42,20.89,24.59,26.19,21.61,18.77,10.79,7.22
40.76395,47.05953,AZ,106048,585514,Mingelchaur,4.55,4.31,5.25,11.46,19.45,22.54,26.96,28.53,22.01,19.07,10.34,5.79
40.52983,50.00616,AZ,40092,585557,Maştağa,6.38,4.91,5.2,8.37,16.29,20.24,23.98,25.96,22.17,19.15,11.68,8.1
40.49182,50.14292,AZ,15267,585568,Mardakan,6.48,5.11,5.4,8.44,16.26,20.33,24.08,26.11,22.35,19.3,11.88,8.26
40.3256,49.73376,AZ,30694,585630,Lokbatan,6.05,4.83,5.3,9.44,17.85,21.08,25.12,26.67,22.02,19.16,11.18,7.58
40.34257,48.15649,AZ,19088,585763,Kyurdarmir,4.3,4.74,5.42,11.63,19.33,22.21,27.03,28.54,22.36,19.39,10.22,5.12
40.44808,49.75502,AZ,37949,585915,Khirdalan,5.8,4.48,4.92,8.77,17.07,20.52,24.44,26.11,21.63,18.85,10.92,7.4
40.78485,48.15141,AZ,28776,586318,İsmayıllı,1.24,0.16,1.32,8.02,14.7,17.2,21.77,22.98,17.22,15.03,6.61,2.61
40.43026,50.03598,AZ,16127,586340,Yeni Suraxanı,6.37,5.04,5.37,8.71,16.75,20.5,24.32,26.22,22.22,19.27,11.68,8.11
40.65055,47.74219,AZ,42500,586427,Göyçay,3.19,3.24,4.21,11.05,17.75,20.23,24.66,26.03,20.14,17.39,9.21,4.05
40.37444,50.08528,AZ,36293,586429,Hövsan,6.59,5.25,5.55,8.72,16.62,20.47,24.26,26.25,22.43,19.42,11.98,8.38
40.68278,46.36056,AZ,335600,586523,Ganja,1.39,0.99,2.39,8.94,16.48,19.2,22.84,23.7,18.13,15.27,7.19,2.55
41.20117,48.98712,AZ,23248,586763,Divichibazar,3.46,2.38,2.94,8.55,17.07,19.73,23.62,24.89,19.83,16.79,8.63,4.64
40.51903,50.11438,AZ,24795,586925,Buzovna,6.53,5.16,5.45,8.48,16.31,20.38,24.13,26.16,22.4,19.35,11.93,8.31
40.45076,50.08686,AZ,24596,586968,Biny Selo,6.38,5.01,5.3,8.34,16.16,20.23,23.98,26.01,22.25,19.2,11.78,8.16
40.37577,47.12619,AZ,37372,587057,Barda,3.91,3.98,4.96,11.39,19.05,22.29,27.28,28.52,21.79,18.72,9.64,4.73
40.4444,49.80566,AZ,42194,587078,Bilajari,6.1,4.78,5.22,9.07,17.37,20.82,24.74,26.41,21.93,19.15,11.22,7.7
40.37767,49.89201,AZ,1116513,587084,Baku,6.43,5.12,5.52,9.11,17.29,20.9,24.77,26.55,22.28,19.44,11.65,8.1
40.42639,49.98361,AZ,26798,587261,Amirdzhan,6.32,4.99,5.32,8.66,16.7,20.45,24.27,26.17,22.17,19.23,11.64,8.06
40.57028,48.40087,AZ,17209,587361,Aghsu,2.43,2.3,3.1,9.95,17.15,19.71,24.76,26.08,20.0,17.04,8.58,3.74
40.64699,47.4738,AZ,23528,587378,Ağdaş,3.88,3.89,4.83,11.48,18.71,21.5,26.04,27.39,21.2,18.21,9.55,4.5
40.05015,47.45937,AZ,43000,587384,Agdzhabedy,4.18,4.69,5.51,11.85,19.65,22.99,28.19,29.44,22.72,19.67,10.18,4.95
40.41894,49.96693,AZ,66686,824003,Bakıxanov,6.22,4.89,5.22,8.56,16.6,20.35,24.17,26.07,22.07,19.13,11.54,7.96
54.0985,28.3331,BY,65451,618800,Horad Zhodzina,-6.65,-7.63,-2.24,4.2,14.37,15.04,19.68,16.57,12.24,4.37,2.52,-1.28
52.8926,30.024,BY,76078,618806,Zhlobin,-6.26,-8.3,-1.31,5.16,16.59,16.35,20.8,17.37,12.38,5.45,2.85,-1.67
55.1904,30.2049,BY,342700,620127,Vitebsk,-6.64,-7.89,-1.85,4.03,14.41,14.16,20.01,16.11,11.63,4.73,2.0,-1.49
54.4914,26.9111,BY,30000,620181,Vilyeyka,-6.36,-6.95,-1.3,3.9,13.62,14.79,19.38,16.51,12.29,4.33,2.79,-0.83
53.1561,24.4513,BY,47300,620391,Volkovysk,-4.79,-6.0,0.19,5.42,14.59,16.4,20.3,18.48,13.35,5.15,4.15,0.29
52.6329,29.7389,BY,67054,621074,Svyetlahorsk,-5.97,-8.1,-1.07,5.2,16.87,16.62,20.76,17.55,12.66,5.51,2.93,-1.6
53.4785,26.7434,BY,15400,621266,Stowbtsy,-6.01,-7.12,-0.97,4.59,14.51,15.34,19.42,16.97,12.64,4.82,3.1,-0.93
54.4798,26.3957,BY,35908,621713,Smarhoń,-6.08,-6.64,-0.87,4.12,13.58,14.93,19.37,16.66,12.48,4.38,2.9,-0.62
54.0249,28.0894,BY,16594,621729,Smaliavičy,-6.65,-7.68,-2.47,4.18,14.4,14.99,19.64,16.61,12.31,4.4,2.66,-1.27
53.0274,27.5597,BY,61802,621741,Slutsk,-5.91,-7.95,-1.24,5.04,15.61,16.11,19.82,17.48,13.0,5.28,3.17,-1.12
53.0869,25.3163,BY,51434,621754,Slonim,-5.2,-6.28,-0.07,5.3,14.64,16.08,19.76,17.9,13.12,5.12,3.74,-0.21
53.6014,24.7465,BY,15475,622113,Shchuchyn,-5.21,-5.98,-0.11,4.87,13.97,15.82,19.9,17.78,12.85,4.73,3.72,-0.06
52.7876,27.5415,BY,106627,622428,Salihorsk,-5.61,-7.57,-1.08,5.14,15.83,16.32,19.77,17.59,13.07,5.38,3.31,-1.01
53.0934,30.0495,BY,34700,622739,Rahachow,-6.47,-8.48,-1.63,5.11,16.27,16.21,20.75,17.21,12.26,5.35,2.75,-1.73
52.3617,30.3916,BY,65400,622794,Rechytsa,-5.88,-7.71,-0.86,5.35,17.51,17.07,21.05,17.79,12.65,5.84,2.87,-1.49
52.556,24.4573,BY,19135,622997,Pruzhany,-4.96,-6.49,0.14,5.66,14.92,16.64,20.05,18.66,13.6,5.35,4.14,0.06
55.4879,28.7856,BY,82258,623317,Polatsk,-6.43,-7.21,-1.33,4.22,14.04,14.49,19.95,16.27,12.02,4.69,2.23,-0.74
52.1229,26.0951,BY,130777,623549,Pinsk,-4.64,-6.63,0.12,5.85,15.96,16.72,19.85,18.18,13.34,5.87,3.97,-0.2
55.11676,26.83263,BY,19800,623760,Pastavy,-6.15,-6.65,-1.02,4.03,13.4,14.86,19.58,16.56,12.37,4.6,2.82,-0.35
53.3011,28.6386,BY,34591,624034,Asipovichy,-6.44,-8.17,-1.87,4.9,15.57,15.79,20.18,17.22,12.72,5.08,2.93,-1.45
54.5081,30.4172,BY,125347,624079,Orsha,-6.69,-8.42,-2.22,4.2,14.7,14.57,20.35,16.32,11.63,4.64,2.12,-1.49
55.5318,28.5987,BY,108000,624784,Navapolatsk,-6.48,-7.27,-1.36,4.21,13.92,14.47,19.9,16.27,12.02,4.66,2.27,-0.71
53.5942,25.8191,BY,29441,624785,Novogrudok,-6.35,-7.02,-1.28,3.9,13.39,14.59,18.58,16.24,11.84,3.96,2.76,-1.15
53.9,27.56667,BY,1742124,625144,Minsk,-6.82,-7.86,-2.33,3.94,14.18,14.75,19.29,16.42,12.17,4.08,2.41,-1.68
52.0495,29.2456,BY,112348,625324,Mazyr,-5.26,-7.55,-0.76,5.38,17.09,16.77,20.2,17.67,13.1,5.88,3.28,-1.19
53.4122,24.5387,BY,15770,625367,Mosty,-4.9,-5.99,0.18,5.4,14.48,16.42,20.45,18.51,13.34,5.08,3.99,0.22
53.509,28.147,BY,20100,625409,Mar’’ina Horka,-6.65,-8.08,-2.14,4.53,14.93,15.23,19.73,16.85,12.51,4.71,2.78,-1.45
54.3167,26.854,BY,101300,625625,Maladziečna,-6.3,-6.95,-1.19,4.01,13.85,14.85,19.4,16.56,12.39,4.38,2.85,-0.89
53.9168,30.3449,BY,369200,625665,Mahilyow,-6.88,-8.64,-2.4,4.49,15.14,15.17,20.58,16.57,11.75,4.7,2.22,-1.75
54.8814,28.699,BY,17400,625743,Lyepyel’,-6.69,-7.79,-2.27,4.0,13.97,14.47,19.81,16.31,11.97,4.54,2.31,-1.04
52.2472,26.8047,BY,25000,625818,Luninyets,-4.68,-6.85,-0.2,5.77,16.2,16.74,19.71,17.93,13.29,5.87,3.84,-0.38
53.88333,25.29972,BY,102700,626081,Lida,-5.54,-5.93,-0.13,4.82,13.99,15.63,19.73,17.36,12.87,4.73,3.51,-0.24
53.69571,31.71233,BY,27681,626450,Krychaw,-7.21,-9.13,-2.86,4.34,15.44,14.92,20.13,16.55,11.66,5.04,2.01,-2.08
53.944,27.7823,BY,17000,627083,Kalodzishchy,-6.91,-7.95,-2.58,3.83,14.1,14.62,19.21,16.31,12.05,4.05,2.36,-1.66
52.2138,24.3564,BY,50691,627145,Kobryn,-4.65,-6.54,0.4,6.08,15.41,17.14,20.25,19.03,13.93,5.67,4.46,0.25
52.1323,29.3257,BY,37190,627751,Kalinkavichy,-5.24,-7.48,-0.64,5.54,17.28,16.95,20.45,17.83,13.23,5.96,3.32,-1.16
52.709,25.3401,BY,24200,627800,Ivatsevichy,-5.16,-6.54,-0.03,5.47,14.97,16.27,19.83,18.08,13.28,5.42,3.85,-0.18
53.6884,23.8258,BY,373547,627904,Hrodna,-4.68,-5.84,0.24,5.24,14.11,16.28,20.4,18.28,13.26,4.87,4.15,0.53
54.2862,30.9863,BY,33897,627905,Horki,-7.16,-8.97,-2.66,4.12,14.71,14.45,19.99,16.21,11.43,4.51,1.87,-1.91
52.4345,30.9754,BY,526872,627907,Homyel',-5.92,-7.41,-0.93,5.18,17.53,16.91,20.84,17.6,12.39,5.86,2.7,-1.64
55.1384,27.6905,BY,22000,627908,Hlybokaye,-6.59,-7.22,-1.53,4.02,13.54,14.51,19.55,16.36,12.07,4.45,2.56,-0.71
53.6832,27.138,BY,25164,628634,Dzyarzhynsk,-6.54,-7.65,-1.72,4.27,14.32,14.92,19.3,16.61,12.4,4.42,2.76,-1.36
52.42671,31.31219,BY,18300,629018,Dobrush,-5.92,-7.49,-1.05,5.2,17.52,16.89,20.86,17.63,12.42,5.98,2.68,-1.66
53.521,30.2454,BY,17500,629447,Bykhaw,-6.75,-8.69,-2.27,4.81,15.66,15.74,20.68,16.92,11.98,5.06,2.49,-1.74
52.5314,24.9786,BY,29645,629454,Byaroza,-4.87,-6.37,0.24,5.74,15.17,16.63,20.0,18.49,13.6,5.54,4.09,0.0
52.09755,23.68775,BY,362641,629634,Brest,-4.46,-6.67,0.48,6.22,15.49,17.32,20.45,19.14,14.01,5.57,4.68,0.4
54.2279,28.505,BY,144945,630376,Barysaw,-6.77,-7.77,-2.52,4.13,14.32,14.95,19.79,16.55,12.16,4.38,2.49,-1.28
53.1327,26.0139,BY,179000,630429,Baranovichi,-5.73,-6.98,-0.72,4.87,14.53,15.69,19.31,17.32,12.65,4.83,3.2,-0.83
53.1384,29.2214,BY,209675,630468,Babruysk,-6.41,-8.32,-1.63,5.06,16.04,16.12,20.45,17.22,12.53,5.17,2.86,-1.65
51.21979,4.32664,BE,18249,2783081,Zwijndrecht,2.64,2.39,7.85,10.26,13.84,18.97,19.28,20.27,15.6,8.46,8.48,4.27
50.81268,3.33848,BE,23358,2783089,Zwevegem,2.84,2.83,7.88,10.22,13.56,18.61,18.95,20.28,15.47,8.57,8.41,4.38
50.86955,3.81052,BE,24434,2783175,Zottegem,2.44,2.37,7.62,9.95,13.47,18.63,18.9,20.17,15.25,8.28,8.24,4.11
50.99064,5.36819,BE,19922,2783188,Zonhoven,2.15,1.65,7.65,9.88,14.0,19.54,19.58,20.85,15.5,8.14,8.32,3.94
51.02455,5.30983,BE,17289,2783197,Zolder,2.23,1.7,7.68,9.97,14.05,19.57,19.61,20.84,15.51,8.19,8.36,3.99
50.98318,4.46079,BE,21096,2783274,Zemst,2.5,2.22,7.82,10.18,13.89,19.16,19.31,20.37,15.49,8.39,8.49,4.19
51.06566,4.0403,BE,20236,2783293,Zele,2.69,2.46,7.78,10.2,13.75,18.88,19.19,20.26,15.52,8.47,8.43,4.29
51.14236,3.1368,BE,21968,2783308,Zedelgem,3.5,3.16,7.66,10.17,13.25,18.19,18.92,19.98,15.89,9.12,8.78,4.93
50.88365,4.47298,BE,28188,2783310,Zaventem,2.3,2.11,7.69,9.93,13.67,18.95,19.11,20.27,15.34,8.21,8.38,4.07
51.08705,3.70909,BE,23546,2783456,Wondelgem,2.8,2.64,7.8,10.28,13.7,18.82,19.15,20.27,15.58,8.5,8.41,4.34
50.84389,4.42912,BE,56584,2783476,Woluwe-Saint-Lambert,2.19,2.07,7.66,9.82,13.56,18.85,19.04,20.29,15.26,8.16,8.33,4.03
51.16734,4.39513,BE,41403,2783615,Wilrijk,2.5,2.21,7.7,10.16,13.75,18.94,19.22,20.21,15.46,8.31,8.35,4.12
51.06041,4.36019,BE,22808,2783632,Willebroek,2.55,2.26,7.78,10.19,13.84,19.05,19.28,20.3,15.52,8.41,8.46,4.21
50.8,3.16667,BE,30954,2783759,Wevelgem,3.02,2.97,7.97,10.32,13.62,18.66,19.04,20.39,15.6,8.72,8.52,4.52
51.00526,3.88341,BE,22930,2783763,Wetteren,2.67,2.49,7.74,10.18,13.72,18.9,19.18,20.33,15.44,8.46,8.43,4.29
51.09049,4.91544,BE,22579,2783801,Westerlo,2.41,2.1,7.81,10.19,13.97,19.32,19.4,20.48,15.52,8.31,8.5,4.12
50.78069,3.03854,BE,17340,2783820,Wervik,3.14,3.0,7.89,10.23,13.48,18.51,18.99,20.36,15.61,8.78,8.51,4.54
50.71717,4.60138,BE,34305,2783941,Wavre,2.16,2.07,7.76,9.8,13.64,19.0,19.12,20.49,15.38,8.19,8.42,4.06
50.80154,4.41436,BE,25157,2783979,Watermael-Boitsfort,2.06,1.94,7.51,9.67,13.41,18.7,18.89,20.14,15.11,8.01,8.18,3.88
50.71469,4.3991,BE,29778,2783985,Waterloo,1.95,1.88,7.5,9.56,13.32,18.63,18.81,20.15,15.03,7.94,8.13,3.82
50.88898,3.42756,BE,35896,2784068,Waregem,2.87,2.83,7.91,10.34,13.66,18.76,19.07,20.33,15.55,8.57,8.45,4.4
50.25401,4.43796,BE,17501,2784189,Walcourt,1.53,1.58,7.44,9.2,12.95,18.43,18.45,20.25,14.82,7.86,7.91,3.63
50.7376,5.69907,BE,17054,2784548,Visé,1.67,1.54,7.65,9.52,13.8,19.28,19.37,21.12,15.53,8.04,8.47,3.88
50.92814,4.42938,BE,36955,2784604,Vilvoorde,2.52,2.33,7.87,10.11,13.83,19.08,19.27,20.44,15.51,8.43,8.56,4.29
50.58907,5.86241,BE,52824,2784821,Verviers,0.94,0.82,6.99,8.81,13.15,18.61,18.69,20.49,14.88,7.37,7.82,3.22
50.80225,4.33943,BE,82929,2785123,Uccle,2.37,2.26,7.79,9.98,13.68,18.93,19.16,20.4,15.38,8.31,8.44,4.18
51.32254,4.94471,BE,44000,2785141,Turnhout,2.28,1.93,7.64,10.11,13.78,19.05,19.22,20.18,15.36,8.11,8.28,3.92
50.69059,4.2009,BE,18000,2785169,Tubize,2.43,2.37,7.91,10.06,13.75,19.0,19.24,20.55,15.43,8.42,8.53,4.28
50.60715,3.38932,BE,69554,2785341,Tournai,2.82,2.78,8.0,10.25,13.65,18.81,19.08,20.64,15.49,8.67,8.52,4.45
51.0656,3.10085,BE,18933,2785364,Torhout,3.4,3.06,7.56,10.07,13.15,18.09,18.82,19.87,15.79,9.02,8.68,4.83
50.78054,5.46484,BE,29816,2785389,Tongeren,1.62,1.46,7.4,9.41,13.55,19.03,19.08,20.6,15.24,7.8,8.15,3.63
50.80745,4.9378,BE,31743,2785470,Tienen,2.17,1.88,7.68,9.83,13.76,19.16,19.25,20.57,15.43,8.19,8.43,4.02
50.99931,3.32707,BE,19299,2785476,Tielt,2.64,2.43,7.38,9.99,13.26,18.39,18.73,19.91,15.14,8.21,8.09,4.05
51.06513,5.08856,BE,16574,2785612,Tessenderlo,2.29,1.96,7.75,10.1,13.98,19.37,19.43,20.55,15.53,8.23,8.44,4.02
50.82372,4.51418,BE,20623,2785622,Tervuren,2.13,2.02,7.62,9.76,13.53,18.83,18.99,20.25,15.23,8.09,8.29,3.97
51.12794,4.21372,BE,26054,2785778,Temse,2.59,2.37,7.76,10.15,13.75,18.88,19.18,20.19,15.49,8.42,8.43,4.24
51.2099,4.03651,BE,16989,2786087,Stekene,2.72,2.48,7.8,10.21,13.74,18.82,19.17,20.18,15.55,8.44,8.41,4.28
51.33189,4.37127,BE,17294,2786229,Stabroek,2.62,2.31,7.78,10.29,13.83,18.96,19.3,20.25,15.6,8.42,8.43,4.2
50.61385,5.74679,BE,15237,2786344,Soumagne,0.85,0.7,7.02,8.82,13.09,18.6,18.63,20.42,14.73,7.34,7.75,3.15
50.57904,4.07129,BE,24869,2786420,Soignies,2.13,2.15,7.68,9.76,13.4,18.68,18.89,20.34,15.18,8.18,8.25,4.01
50.81679,5.18647,BE,37859,2786545,Sint-Truiden,2.12,1.87,7.74,9.85,13.88,19.34,19.4,20.8,15.55,8.21,8.49,4.03
50.77926,4.24355,BE,30446,2786559,Sint-Pieters-Leeuw,2.41,2.31,7.8,10.04,13.7,18.91,19.16,20.38,15.39,8.36,8.44,4.21
51.16509,4.1437,BE,69010,2786578,Sint-Niklaas,2.64,2.4,7.76,10.16,13.71,18.79,19.14,20.14,15.5,8.39,8.37,4.22
51.21399,3.24949,BE,16000,2786634,Sint-Kruis,3.62,3.19,7.62,10.14,13.21,18.08,18.91,19.91,16.06,9.28,8.88,5.09
51.06691,4.53469,BE,19487,2786641,Sint-Katelijne-Waver,2.49,2.11,7.69,10.16,13.85,19.11,19.32,20.34,15.44,8.34,8.39,4.12
51.21914,4.12374,BE,17658,2786694,Sint-Gillis-Waas,2.74,2.5,7.86,10.26,13.81,18.89,19.24,20.24,15.6,8.49,8.47,4.32
50.74645,4.35754,BE,17990,2786700,Sint-Genesius-Rode,2.15,2.08,7.7,9.76,13.52,18.83,19.01,20.35,15.23,8.14,8.33,4.02
51.19696,3.17891,BE,19336,2786739,Sint-Andries,3.58,3.14,7.57,10.09,13.17,18.03,18.85,19.87,16.01,9.23,8.83,5.04
51.05947,3.74943,BE,32115,2786743,Sint-Amandsberg,2.75,2.59,7.75,10.23,13.65,18.77,19.1,20.22,15.53,8.45,8.36,4.29
50.58362,5.50115,BE,60737,2786824,Seraing,1.2,1.07,7.23,9.07,13.23,18.75,18.8,20.46,14.89,7.58,7.96,3.38
51.25251,4.50268,BE,33622,2786963,Schoten,2.55,2.23,7.71,10.27,13.8,18.98,19.29,20.24,15.51,8.34,8.39,4.14
51.24107,4.58336,BE,20373,2787048,Schilde,2.49,2.16,7.74,10.24,13.86,19.12,19.34,20.33,15.5,8.33,8.43,4.12
50.86935,4.37737,BE,132761,2787149,Schaerbeek,2.47,2.28,7.82,10.06,13.78,19.03,19.22,20.39,15.46,8.38,8.51,4.24
50.62837,5.53243,BE,22586,2787356,Saint-Nicolas,1.75,1.62,7.78,9.62,13.78,19.3,19.35,21.01,15.44,8.13,8.51,3.93
50.8538,4.37282,BE,27366,2787387,Saint-Josse-ten-Noode,2.37,2.18,7.72,9.96,13.68,18.93,19.12,20.29,15.36,8.28,8.41,4.14
50.82763,4.34389,BE,50221,2787413,Saint-Gilles,2.32,2.21,7.74,9.93,13.63,18.88,19.11,20.35,15.33,8.26,8.39,4.13
50.44816,3.81886,BE,22500,2787416,Saint-Ghislain,2.53,2.59,8.18,10.32,13.82,19.15,19.3,20.95,15.61,8.63,8.57,4.41
50.95302,4.71665,BE,15007,2787662,Rotselaar,2.46,2.17,7.83,10.18,13.95,19.3,19.38,20.47,15.5,8.35,8.52,4.16
50.74574,3.6005,BE,24204,2787769,Ronse,2.65,2.67,7.91,10.13,13.62,18.77,19.02,20.47,15.4,8.52,8.44,4.34
50.94653,3.12269,BE,56016,2787889,Roeselare,3.07,2.9,7.75,10.2,13.42,18.46,18.93,20.19,15.55,8.69,8.45,4.48
50.71229,4.52529,BE,21616,2787989,Rixensart,2.04,1.97,7.62,9.67,13.48,18.8,18.96,20.32,15.2,8.05,8.27,3.93
50.80995,5.60131,BE,15809,2788088,Riemst,1.55,1.39,7.36,9.32,13.53,19.01,19.08,20.67,15.24,7.76,8.13,3.6
51.18983,4.56533,BE,17405,2788348,Ranst,2.49,2.16,7.74,10.24,13.86,19.12,19.34,20.33,15.5,8.33,8.43,4.12
50.44067,3.8653,BE,18491,2788499,Quaregnon,2.43,2.49,8.11,10.22,13.76,19.11,19.25,20.9,15.57,8.57,8.53,4.35
51.07409,4.28844,BE,15944,2788506,Puurs,2.64,2.39,7.85,10.25,13.88,19.05,19.31,20.32,15.58,8.48,8.52,4.3
51.05337,4.63263,BE,15276,2788521,Putte,2.35,1.98,7.6,10.07,13.78,19.08,19.24,20.27,15.33,8.2,8.3,3.99
50.85386,2.72659,BE,19537,2788726,Poperinge,3.5,3.24,7.86,10.2,13.3,18.23,18.92,20.22,15.79,9.02,8.67,4.79
50.50518,4.36887,BE,15909,2788765,Pont-à-Celles,1.77,1.77,7.54,9.49,13.26,18.66,18.8,20.39,15.05,7.96,8.08,3.76
50.50819,3.59373,BE,16647,2789162,Péruwelz,2.58,2.61,8.05,10.26,13.7,18.93,19.14,20.72,15.49,8.57,8.47,4.34
51.1303,5.45952,BE,15551,2789232,Peer,2.1,1.69,7.6,9.8,13.91,19.36,19.41,20.62,15.45,8.08,8.32,3.88
50.77436,4.53461,BE,23486,2789413,Overijse,2.08,1.97,7.56,9.71,13.48,18.78,18.94,20.2,15.18,8.03,8.24,3.92
50.71184,5.6468,BE,23594,2789471,Oupeye,1.47,1.31,7.38,9.29,13.52,19.01,19.1,20.79,15.23,7.78,8.19,3.61
50.85168,3.60891,BE,31866,2789529,Oudenaarde,2.83,2.79,7.95,10.33,13.74,18.87,19.15,20.43,15.58,8.61,8.53,4.44
51.15432,3.23128,BE,21489,2789751,Oostkamp,3.62,3.19,7.62,10.14,13.21,18.08,18.91,19.91,16.06,9.28,8.88,5.09
51.21551,2.927,BE,69011,2789786,Ostend,4.32,3.64,7.53,9.92,12.86,17.56,18.72,19.73,16.43,9.98,9.38,5.73
50.59833,4.32848,BE,24149,2790101,Nivelles,2.12,2.09,7.72,9.71,13.45,18.78,18.96,20.43,15.2,8.18,8.32,4.04
50.82776,4.02657,BE,34795,2790114,Ninove,2.56,2.44,7.85,10.18,13.8,18.99,19.25,20.54,15.48,8.48,8.48,4.3
51.16096,4.67008,BE,20792,2790135,Nijlen,2.49,2.18,7.8,10.26,13.9,19.17,19.35,20.35,15.53,8.33,8.47,4.14
51.22807,5.4427,BE,16122,2790357,Neerpelt,2.21,1.82,7.7,10.01,14.02,19.36,19.44,20.54,15.53,8.18,8.4,3.96
50.4669,4.86746,BE,110939,2790471,Namur,1.98,1.9,7.87,9.78,13.72,19.15,19.27,20.87,15.46,8.26,8.49,4.02
50.74497,3.20639,BE,52069,2790595,Mouscron,2.71,2.63,7.7,10.04,13.41,18.51,18.86,20.37,15.33,8.47,8.25,4.21
51.16697,4.45127,BE,24525,2790676,Mortsel,2.44,2.12,7.64,10.14,13.74,18.97,19.22,20.21,15.4,8.26,8.32,4.05
50.45502,4.24519,BE,18233,2790697,Morlanwelz-Mariemont,1.94,1.99,7.64,9.63,13.31,18.66,18.84,20.4,15.13,8.09,8.17,3.91
50.41081,4.49109,BE,18765,2790796,Montignies-sur-Sambre,1.81,1.83,7.69,9.54,13.34,18.8,18.88,20.6,15.16,8.09,8.21,3.86
50.45413,3.95229,BE,95299,2790869,Mons,2.29,2.37,7.94,10.04,13.63,18.93,19.11,20.67,15.45,8.4,8.42,4.2
50.8499,4.31248,BE,97037,2791018,Molenbeek-Saint-Jean,2.42,2.31,7.84,10.03,13.73,18.98,19.21,20.45,15.43,8.36,8.49,4.23
51.19188,5.11662,BE,32659,2791067,Mol,2.22,1.69,7.55,10.03,13.9,19.25,19.36,20.4,15.31,8.11,8.24,3.86
51.18532,2.82077,BE,17789,2791194,Middelkerke,3.88,3.41,7.65,10.06,13.07,17.87,18.8,19.85,16.11,9.51,9.03,5.26
51.24623,4.44903,BE,44435,2791301,Merksem,2.6,2.31,7.8,10.26,13.85,19.04,19.32,20.31,15.56,8.41,8.45,4.22
50.99447,3.74621,BE,16684,2791315,Merelbeke,2.75,2.66,7.82,10.29,13.73,18.89,19.17,20.38,15.53,8.51,8.43,4.33
50.79722,3.12245,BE,31916,2791343,Menen,3.08,2.97,7.92,10.27,13.55,18.59,19.01,20.37,15.6,8.74,8.51,4.52
50.93934,4.32655,BE,18497,2791424,Meise,2.3,2.11,7.61,9.87,13.56,18.8,19.03,20.19,15.25,8.21,8.3,4.06
50.96589,5.69144,BE,15374,2791534,Mechelen-aan-de-Maas,2.13,1.76,7.78,9.87,14.13,19.63,19.71,21.07,15.73,8.22,8.45,4.01
51.02574,4.47762,BE,77530,2791537,Mechelen,2.55,2.27,7.87,10.23,13.94,19.22,19.36,20.42,15.54,8.44,8.54,4.24
51.07476,3.68289,BE,17062,2791700,Mariakerke,2.8,2.64,7.8,10.28,13.7,18.82,19.15,20.27,15.58,8.5,8.41,4.34
50.39216,4.44388,BE,23696,2791726,Marcinelle,1.87,1.93,7.73,9.6,13.36,18.79,18.88,20.57,15.21,8.14,8.23,3.92
50.40573,4.3953,BE,15154,2791735,Marchienne-au-Pont,1.97,2.03,7.83,9.7,13.46,18.89,18.98,20.67,15.31,8.24,8.33,4.02
50.22678,5.34416,BE,16856,2791744,Marche-en-Famenne,0.85,0.36,7.03,8.78,12.97,18.56,18.51,20.33,14.39,7.47,7.69,3.13
50.50312,4.23589,BE,22196,2791814,Manage,1.79,1.84,7.48,9.48,13.16,18.51,18.69,20.25,14.99,7.94,8.02,3.75
51.20737,3.44511,BE,22092,2791857,Maldegem,3.2,2.88,7.63,10.21,13.41,18.39,19.02,20.02,15.78,8.79,8.56,4.67
50.96545,5.69452,BE,36251,2791961,Maasmechelen,2.13,1.76,7.78,9.87,14.13,19.63,19.71,21.07,15.73,8.22,8.45,4.01
51.09802,5.78379,BE,25201,2791964,Maaseik,2.08,1.61,7.68,9.86,14.17,19.57,19.7,20.97,15.69,8.16,8.39,3.93
50.66829,4.61443,BE,29521,2792073,Louvain-la-Neuve,1.96,1.87,7.56,9.6,13.44,18.8,18.92,20.29,15.18,7.99,8.22,3.86
51.23074,5.31349,BE,31993,2792179,Lommel,2.15,1.72,7.6,9.96,13.92,19.26,19.34,20.43,15.41,8.1,8.29,3.87
51.10364,3.99339,BE,41438,2792196,Lokeren,2.69,2.46,7.78,10.2,13.75,18.88,19.19,20.26,15.52,8.47,8.43,4.29
51.09644,3.83194,BE,19696,2792235,Lochristi,2.76,2.58,7.79,10.25,13.72,18.84,19.15,20.26,15.55,8.47,8.41,4.32
51.24197,4.82313,BE,15466,2792360,Lille,2.4,2.08,7.73,10.2,13.87,19.17,19.33,20.34,15.48,8.26,8.41,4.05
51.13128,4.57041,BE,33272,2792397,Lier,2.4,2.03,7.64,10.12,13.83,19.13,19.3,20.31,15.38,8.25,8.35,4.04
50.63373,5.56749,BE,195278,2792413,Liège,1.9,1.72,7.74,9.69,13.86,19.36,19.45,21.08,15.55,8.15,8.55,3.98
50.87959,4.70093,BE,101032,2792482,Leuven,2.33,2.08,7.77,10.0,13.8,19.15,19.27,20.45,15.45,8.27,8.47,4.11
50.71104,3.83579,BE,17687,2792567,Lessines,2.65,2.66,8.0,10.23,13.78,18.97,19.22,20.66,15.53,8.59,8.56,4.4
50.96626,3.98594,BE,16813,2793077,Lede,2.57,2.37,7.68,10.09,13.66,18.83,19.11,20.23,15.39,8.4,8.37,4.22
51.00464,4.13457,BE,17372,2793144,Lebbeke,2.67,2.48,7.83,10.21,13.8,18.96,19.24,20.31,15.54,8.53,8.53,4.35
50.89318,5.6468,BE,24771,2793446,Lanaken,1.85,1.61,7.59,9.64,13.83,19.34,19.38,20.83,15.48,8.0,8.29,3.81
50.48657,4.18785,BE,76668,2793508,La Louvière,1.79,1.84,7.48,9.48,13.16,18.51,18.69,20.25,14.99,7.94,8.02,3.75
50.82803,3.26487,BE,73879,2794055,Kortrijk,2.94,2.93,7.98,10.32,13.66,18.71,19.05,20.38,15.57,8.67,8.51,4.48
50.88982,4.54353,BE,17774,2794070,Kortenberg,2.3,2.11,7.69,9.93,13.67,18.95,19.11,20.27,15.34,8.21,8.38,4.07
51.13213,4.44706,BE,20290,2794117,Kontich,2.45,2.16,7.68,10.09,13.74,18.95,19.18,20.2,15.42,8.31,8.36,4.11
51.11642,2.63772,BE,21957,2794166,Koksijde,4.05,3.57,7.79,10.15,13.11,17.92,18.89,20.02,16.18,9.6,9.04,5.32
51.05909,5.27121,BE,18076,2794179,Koersel,2.22,1.74,7.65,9.97,13.99,19.44,19.5,20.66,15.47,8.17,8.35,3.95
50.86117,4.33136,BE,21984,2794190,Koekelberg,2.45,2.25,7.76,10.02,13.71,18.95,19.18,20.34,15.41,8.36,8.45,4.21
51.35,3.26667,BE,33781,2794210,Knokke-Heist,3.68,3.2,7.7,10.24,13.33,18.17,19.02,19.98,16.19,9.33,8.94,5.18
50.88549,4.73717,BE,30215,2794507,Kessel-Lo,2.28,2.03,7.72,9.95,13.76,19.09,19.21,20.4,15.4,8.22,8.42,4.06
51.24118,4.96651,BE,17765,2794663,Kasterlee,2.29,1.8,7.62,10.12,13.93,19.28,19.41,20.43,15.38,8.18,8.32,3.94
51.31377,4.43539,BE,26410,2794730,Kapellen,2.57,2.26,7.73,10.24,13.78,18.91,19.25,20.2,15.55,8.36,8.38,4.15
51.38442,4.47556,BE,17485,2794788,Kalmthout,2.47,2.13,7.54,10.13,13.64,18.73,19.14,20.03,15.4,8.2,8.26,4.04
50.4422,4.43745,BE,24510,2794860,Jumet,1.57,1.63,7.43,9.3,13.06,18.49,18.58,20.27,14.91,7.84,7.93,3.62
50.87309,4.33419,BE,52490,2794914,Jette,2.4,2.21,7.71,9.97,13.66,18.9,19.13,20.29,15.35,8.31,8.4,4.16
50.45636,4.87166,BE,19658,2794981,Jambes,2.03,1.95,7.92,9.83,13.77,19.2,19.32,20.92,15.52,8.31,8.54,4.07
50.91396,3.21378,BE,26382,2795009,Izegem,3.03,2.94,7.86,10.29,13.53,18.58,19.0,20.25,15.59,8.67,8.49,4.49
50.83333,4.36667,BE,86671,2795011,Ixelles,2.11,1.99,7.56,9.72,13.46,18.75,18.94,20.19,15.16,8.06,8.23,3.94
50.85114,2.88569,BE,35089,2795100,Ieper,3.26,3.0,7.72,10.17,13.33,18.32,18.91,20.14,15.63,8.84,8.5,4.58
50.51894,5.23284,BE,19973,2795113,Huy,2.0,1.83,7.8,9.75,13.77,19.22,19.33,20.87,15.47,8.22,8.51,4.01
51.03427,5.37429,BE,30050,2795261,Houthalen,2.0,1.5,7.49,9.73,13.85,19.4,19.43,20.69,15.35,7.99,8.17,3.79
51.40029,4.76034,BE,18524,2795398,Hoogstraten,2.36,1.92,7.49,10.07,13.72,18.87,19.2,20.07,15.31,8.12,8.24,3.92
51.17611,4.34844,BE,34443,2795730,Hoboken,2.6,2.36,7.79,10.21,13.79,18.93,19.23,20.22,15.55,8.41,8.44,4.23
50.86426,4.69597,BE,23278,2795783,Heverlee,2.33,2.08,7.77,10.0,13.8,19.15,19.27,20.45,15.45,8.27,8.47,4.11
50.57457,5.86618,BE,15420,2795795,Heusy,0.58,0.33,6.83,8.52,12.88,18.4,18.33,20.24,14.51,7.11,7.6,2.99
51.03664,5.28013,BE,31017,2795800,Heusden,2.18,1.64,7.63,9.91,13.99,19.52,19.56,20.79,15.46,8.14,8.31,3.94
50.88681,3.89014,BE,16523,2795908,Herzele,2.43,2.36,7.64,9.96,13.5,18.66,18.94,20.17,15.28,8.29,8.28,4.12
50.64083,5.79353,BE,16544,2795912,Herve,0.27,0.08,6.49,8.23,12.55,18.07,18.05,19.9,14.19,6.79,7.24,2.63
50.66415,5.62346,BE,36503,2795930,Herstal,1.72,1.56,7.63,9.54,13.77,19.26,19.35,21.04,15.48,8.03,8.44,3.86
51.17655,4.83248,BE,25912,2796009,Herentals,2.4,2.08,7.73,10.2,13.87,19.17,19.33,20.34,15.48,8.26,8.41,4.05
50.90861,4.67056,BE,19218,2796012,Herent,2.33,2.08,7.77,10.0,13.8,19.15,19.27,20.45,15.45,8.27,8.47,4.11
51.05591,5.38244,BE,30050,2796132,Helchteren,2.05,1.6,7.51,9.76,13.83,19.29,19.33,20.53,15.34,8.02,8.22,3.81
51.07537,4.72827,BE,37873,2796153,Heist-op-den-Berg,2.18,1.82,7.46,9.93,13.65,18.97,19.11,20.15,15.19,8.04,8.16,3.82
50.93106,5.33781,BE,77651,2796491,Hasselt,2.09,1.81,7.72,9.88,13.92,19.4,19.43,20.77,15.56,8.17,8.41,3.97
50.85343,3.30935,BE,25978,2796542,Harelbeke,2.95,2.89,7.89,10.33,13.6,18.67,19.03,20.29,15.57,8.62,8.47,4.45
51.09822,4.13705,BE,22891,2796637,Hamme,2.66,2.43,7.79,10.19,13.77,18.9,19.21,20.24,15.52,8.47,8.46,4.29
50.73385,4.23454,BE,34479,2796696,Halle,2.43,2.37,7.91,10.06,13.75,19.0,19.24,20.55,15.43,8.42,8.53,4.28
50.90634,4.00093,BE,17129,2796833,Haaltert,2.47,2.36,7.71,10.04,13.61,18.78,19.06,20.26,15.37,8.35,8.35,4.18
50.62148,5.61101,BE,21057,2797096,Grivegnée,1.58,1.46,7.72,9.53,13.74,19.26,19.29,21.01,15.41,8.04,8.43,3.84
50.93409,4.37213,BE,37000,2797114,Grimbergen,2.47,2.28,7.82,10.06,13.78,19.03,19.22,20.39,15.46,8.38,8.51,4.24
50.42449,4.4789,BE,20043,2797532,Gilly,1.66,1.68,7.54,9.39,13.19,18.65,18.73,20.45,15.01,7.93,8.06,3.71
50.77343,3.88223,BE,30807,2797638,Geraardsbergen,2.56,2.45,7.82,10.14,13.72,18.92,19.18,20.52,15.43,8.47,8.44,4.28
51.03692,3.76509,BE,15885,2797652,Gentbrugge,2.7,2.56,7.77,10.23,13.72,18.89,19.16,20.34,15.46,8.47,8.42,4.31
51.05,3.71667,BE,265086,2797656,Gent,2.75,2.59,7.75,10.23,13.65,18.77,19.1,20.22,15.53,8.45,8.36,4.29
50.965,5.50082,BE,63666,2797670,Genk,2.05,1.59,7.59,9.76,13.93,19.48,19.51,20.81,15.47,8.06,8.26,3.86
50.56149,4.69889,BE,21676,2797713,Gembloux,1.64,1.54,7.36,9.31,13.2,18.63,18.72,20.22,14.94,7.76,7.99,3.6
51.16557,4.98917,BE,34697,2797779,Geel,2.26,1.77,7.57,10.08,13.88,19.24,19.36,20.38,15.33,8.13,8.27,3.89
50.87065,4.31531,BE,24859,2797844,Ganshoren,2.35,2.15,7.66,9.92,13.61,18.85,19.08,20.24,15.31,8.26,8.35,4.11
50.40578,3.89603,BE,20598,2798023,Frameries,1.93,1.99,7.61,9.72,13.26,18.61,18.75,20.4,15.07,8.07,8.03,3.85
50.81678,4.32775,BE,56254,2798139,Forest,2.37,2.26,7.79,9.98,13.68,18.93,19.16,20.4,15.38,8.31,8.44,4.18
50.48351,4.55006,BE,22080,2798297,Fleurus,1.58,1.54,7.4,9.34,13.2,18.63,18.73,20.34,14.95,7.78,7.96,3.58
50.61516,5.68062,BE,15994,2798301,Fléron,0.5,0.36,6.67,8.47,12.74,18.25,18.27,20.07,14.38,6.99,7.41,2.8
50.59994,5.44471,BE,25144,2798307,Flémalle-Haute,1.35,1.21,7.26,9.12,13.25,18.78,18.86,20.47,14.91,7.65,8.03,3.45
51.11306,3.70976,BE,31615,2798551,Evergem,2.8,2.64,7.8,10.28,13.7,18.82,19.15,20.27,15.58,8.5,8.41,4.34
50.87441,4.39905,BE,41667,2798554,Evere,2.32,2.13,7.67,9.91,13.63,18.88,19.07,20.24,15.31,8.23,8.36,4.09
50.6279,6.03647,BE,18029,2798573,Eupen,0.44,0.18,6.68,8.37,12.73,18.25,18.18,20.09,14.36,6.97,7.45,2.84
50.83272,4.38835,BE,48344,2798578,Etterbeek,2.21,2.09,7.66,9.82,13.56,18.85,19.04,20.29,15.26,8.16,8.33,4.04
51.28087,4.41813,BE,23300,2798873,Ekeren,2.62,2.31,7.78,10.29,13.83,18.96,19.3,20.25,15.6,8.42,8.43,4.2
51.18703,3.55654,BE,19116,2798987,Eeklo,2.97,2.68,7.69,10.2,13.56,18.58,19.05,20.07,15.63,8.59,8.45,4.45
51.15662,4.44504,BE,21839,2799007,Edegem,2.5,2.21,7.7,10.16,13.75,18.94,19.22,20.21,15.46,8.31,8.35,4.12
51.09554,4.50903,BE,16011,2799090,Duffel,2.49,2.11,7.69,10.16,13.85,19.11,19.32,20.34,15.44,8.34,8.39,4.12
50.39583,3.77792,BE,16861,2799226,Dour,2.13,2.19,7.78,9.92,13.42,18.75,18.9,20.55,15.21,8.23,8.17,4.01
50.84799,4.25972,BE,39482,2799365,Dilbeek,2.12,2.01,7.54,9.73,13.43,18.68,18.91,20.15,15.13,8.06,8.19,3.93
51.03248,2.86384,BE,15515,2799369,Diksmuide,3.43,3.15,7.73,10.22,13.29,18.24,18.92,20.02,15.79,9.01,8.65,4.77
50.98923,5.05062,BE,22516,2799397,Diest,2.35,1.99,7.81,10.12,14.04,19.48,19.51,20.69,15.58,8.31,8.51,4.1
50.90769,5.41875,BE,17699,2799412,Diepenbeek,2.02,1.75,7.67,9.8,13.89,19.4,19.42,20.79,15.53,8.12,8.36,3.91
51.22134,4.46595,BE,78747,2799478,Deurne,2.54,2.22,7.74,10.24,13.84,19.07,19.32,20.31,15.5,8.36,8.42,4.15
51.05952,3.79899,BE,16853,2799496,Destelbergen,2.76,2.58,7.79,10.25,13.72,18.84,19.15,20.26,15.55,8.47,8.41,4.32
51.02869,4.10106,BE,45673,2799645,Dendermonde,2.72,2.52,7.88,10.26,13.85,19.0,19.29,20.36,15.59,8.58,8.58,4.4
50.88506,4.07601,BE,16969,2799647,Denderleeuw,2.64,2.51,7.9,10.21,13.81,18.99,19.26,20.42,15.55,8.53,8.57,4.38
50.98175,3.53096,BE,29815,2799746,Deinze,2.74,2.51,7.61,10.19,13.59,18.74,19.02,20.25,15.38,8.41,8.3,4.21
50.46379,4.3747,BE,29473,2800063,Courcelles,1.63,1.64,7.39,9.34,13.11,18.52,18.65,20.24,14.9,7.81,7.93,3.61
50.4141,3.85569,BE,19964,2800220,Colfontaine,2.13,2.19,7.81,9.92,13.46,18.81,18.95,20.6,15.27,8.27,8.23,4.05
50.5828,5.6341,BE,20960,2800438,Chaudfontaine,0.78,0.66,6.92,8.73,12.94,18.46,18.49,20.21,14.61,7.24,7.63,3.04
50.41499,4.52016,BE,17166,2800445,Châtelineau,1.96,1.98,7.84,9.69,13.49,18.95,19.03,20.75,15.31,8.23,8.36,4.01
50.40338,4.52826,BE,35238,2800448,Châtelet,1.91,1.93,7.79,9.63,13.44,18.9,18.98,20.7,15.26,8.19,8.31,3.96
50.41136,4.44448,BE,200132,2800481,Charleroi,1.82,1.88,7.68,9.55,13.3,18.74,18.83,20.52,15.16,8.08,8.18,3.87
50.85045,4.34878,BE,1019022,2800866,Brussels,2.5,2.31,7.81,10.07,13.76,19.0,19.23,20.39,15.45,8.41,8.5,4.26
51.20892,3.22424,BE,118509,2800931,Brugge,3.62,3.19,7.62,10.14,13.21,18.08,18.91,19.91,16.06,9.28,8.88,5.09
51.2912,4.49182,BE,37040,2801117,Brasschaat,2.55,2.23,7.71,10.27,13.8,18.98,19.29,20.24,15.51,8.34,8.39,4.14
50.60979,4.14658,BE,20133,2801150,Braine-le-Comte,2.08,2.09,7.63,9.71,13.35,18.63,18.84,20.29,15.13,8.13,8.2,3.97
50.68363,4.36784,BE,37512,2801154,Braine-l'Alleud,2.09,2.03,7.65,9.71,13.48,18.78,18.96,20.31,15.19,8.09,8.28,3.97
50.43417,3.7944,BE,20058,2801226,Boussu,2.53,2.59,8.18,10.32,13.82,19.15,19.3,20.95,15.61,8.63,8.57,4.41
51.09716,4.24364,BE,19997,2801447,Bornem,2.64,2.41,7.82,10.2,13.8,18.93,19.23,20.24,15.54,8.47,8.48,4.29
51.20957,4.43539,BE,46087,2801471,Borgerhout,2.6,2.31,7.8,10.26,13.85,19.04,19.32,20.31,15.56,8.41,8.45,4.22
51.09242,4.3717,BE,15810,2801494,Boom,2.5,2.22,7.73,10.14,13.79,19.0,19.23,20.25,15.47,8.36,8.41,4.16
50.88587,4.72415,BE,30215,2801824,Blauwput,2.38,2.13,7.82,10.05,13.86,19.19,19.31,20.5,15.5,8.32,8.52,4.16
51.31306,3.13227,BE,18000,2801858,Blankenberge,4.13,3.47,7.5,9.96,12.94,17.66,18.79,19.75,16.41,9.83,9.26,5.6
50.41155,4.16469,BE,32030,2801922,Binche,2.09,2.2,7.9,9.84,13.5,18.88,19.01,20.64,15.4,8.34,8.38,4.12
50.87325,5.5184,BE,29622,2801924,Bilzen,1.98,1.71,7.67,9.76,13.9,19.42,19.44,20.85,15.53,8.09,8.36,3.9
51.21187,4.25633,BE,45179,2802031,Beveren,2.6,2.36,7.79,10.21,13.79,18.93,19.23,20.22,15.55,8.41,8.44,4.23
50.8496,3.5873,BE,15311,2802039,Bevere,2.74,2.69,7.89,10.22,13.69,18.84,19.1,20.48,15.47,8.56,8.47,4.37
51.04954,5.22606,BE,40930,2802170,Beringen,2.23,1.77,7.67,9.99,14.0,19.48,19.52,20.72,15.49,8.19,8.37,3.98
50.86567,4.29557,BE,25162,2802247,Berchem-Sainte-Agathe,2.25,2.05,7.56,9.82,13.51,18.75,18.98,20.14,15.21,8.16,8.25,4.01
51.19021,4.43264,BE,43511,2802249,Berchem,2.54,2.26,7.75,10.21,13.8,18.99,19.27,20.26,15.52,8.36,8.41,4.17
50.76589,4.3002,BE,23228,2802433,Beersel,2.42,2.31,7.84,10.03,13.73,18.98,19.21,20.45,15.43,8.36,8.49,4.23
51.31927,4.85304,BE,16208,2802435,Beerse,2.33,1.98,7.69,10.16,13.83,19.1,19.27,20.23,15.41,8.16,8.33,3.97
51.16837,5.17027,BE,19978,2802743,Balen,2.23,1.72,7.6,10.04,13.96,19.3,19.39,20.46,15.38,8.15,8.3,3.91
50.81667,4.43333,BE,33984,2802960,Auderghem,2.21,2.09,7.66,9.82,13.56,18.85,19.04,20.29,15.26,8.16,8.33,4.04
50.62937,3.77801,BE,26681,2803010,Ath,2.48,2.46,7.89,10.12,13.65,18.89,19.1,20.63,15.39,8.45,8.42,4.26
51.19367,3.2623,BE,19772,2803030,Assebroek,3.41,3.05,7.64,10.19,13.32,18.25,18.96,19.98,15.94,9.05,8.73,4.89
50.91011,4.19836,BE,28985,2803033,Asse,2.14,1.99,7.43,9.72,13.35,18.54,18.8,19.94,15.08,8.05,8.11,3.9
49.68333,5.81667,BE,26179,2803073,Arlon,-1.0,-1.07,5.99,7.93,12.26,18.27,17.94,20.51,13.49,6.42,6.07,1.77
51.22047,4.40026,BE,529247,2803138,Antwerpen,2.6,2.31,7.8,10.26,13.85,19.04,19.32,20.31,15.56,8.41,8.45,4.22
50.6623,5.52029,BE,27297,2803160,Ans,1.15,0.97,7.0,8.94,13.11,18.61,18.69,20.33,14.8,7.4,7.8,3.23
50.83619,4.31454,BE,160553,2803201,Anderlecht,2.52,2.41,7.94,10.13,13.83,19.08,19.31,20.55,15.53,8.46,8.59,4.33
50.48941,5.09513,BE,24055,2803204,Andenne,2.0,1.83,7.8,9.75,13.77,19.22,19.33,20.87,15.47,8.22,8.51,4.01
50.98715,4.83695,BE,27656,2803429,Aarschot,2.51,2.25,7.93,10.23,14.02,19.38,19.45,20.56,15.58,8.43,8.63,4.25
51.09017,3.44693,BE,18802,2803443,Aalter,2.96,2.75,7.64,10.22,13.46,18.53,18.98,20.08,15.55,8.56,8.41,4.42
50.93604,4.0355,BE,77534,2803448,Aalst,2.67,2.56,7.91,10.24,13.81,18.98,19.26,20.46,15.57,8.55,8.55,4.38
44.20169,17.90397,BA,164423,3186573,Zenica,-0.38,-2.18,5.74,9.61,18.6,22.46,22.16,24.63,16.52,10.35,8.8,2.07
43.98889,18.17806,BA,17890,3187609,Visoko,-0.95,-3.02,5.09,8.78,17.91,21.63,21.47,23.85,15.86,9.63,8.08,1.45
45.18497,15.80579,BA,19330,3188225,Velika Kladuša,-1.11,-2.07,6.31,9.98,18.86,22.87,22.92,24.8,15.99,10.05,8.74,2.47
44.53842,18.66709,BA,142486,3188582,Tuzla,-1.14,-2.98,5.72,10.06,19.08,23.18,22.16,24.39,16.34,10.17,8.1,0.9
42.71197,18.34362,BA,33178,3188893,Trebinje,6.84,2.98,7.99,11.27,19.43,24.01,24.79,26.24,18.91,14.24,11.85,7.09
44.22637,17.66583,BA,31127,3188924,Travnik,-1.56,-3.99,4.17,8.51,17.5,21.41,21.02,23.54,15.32,9.15,7.79,0.91
43.84864,18.35644,BA,696731,3191281,Sarajevo,-1.21,-4.09,4.16,8.09,17.35,20.94,20.91,23.11,15.24,9.09,7.6,0.92
44.97991,16.71401,BA,36347,3192409,Prijedor,-1.07,-1.51,6.25,10.09,18.91,23.42,22.97,25.32,16.68,10.37,8.28,2.17
43.34333,17.80806,BA,104518,3194828,Mostar,4.33,0.82,7.27,11.23,20.21,25.54,26.09,27.78,19.06,13.06,10.31,4.84
44.54245,18.52618,BA,44520,3196079,Lukavac,-0.72,-2.47,6.36,10.55,19.48,23.62,22.76,25.14,16.77,10.58,8.56,1.3
44.87851,18.42764,BA,15659,3199744,Gradačac,-1.34,-2.15,5.96,10.67,20.18,24.32,23.19,25.01,16.84,10.52,8.04,1.82
44.70307,18.3101,BA,15758,3199779,Gračanica,-1.14,-2.42,5.7,10.24,19.7,23.82,22.79,24.62,16.42,10.31,8.0,1.78
43.66795,18.97564,BA,17650,3200396,Goražde,0.75,-2.9,5.65,9.87,19.53,22.7,22.58,24.47,16.97,11.01,9.16,2.22
44.73179,18.08698,BA,27235,3201984,Doboj,-0.88,-1.72,6.29,10.69,19.86,24.25,23.18,25.17,16.75,10.62,8.2,2.1
44.96694,15.94306,BA,21741,3202822,Cazin,-1.64,-3.12,5.18,8.97,17.8,21.84,21.96,23.87,15.07,9.13,8.12,1.75
44.05722,17.45083,BA,41378,3203099,Bugojno,-0.83,-4.77,3.6,8.3,17.63,21.6,21.23,23.59,15.38,9.19,8.09,1.61
44.86995,18.81012,BA,38968,3203521,Brčko,-1.56,-2.55,6.16,11.0,20.48,24.64,23.39,25.06,17.21,10.73,8.0,1.79
44.8825,16.15139,BA,15193,3203653,Bosanska Krupa,-1.07,-2.04,6.41,10.18,19.13,23.19,23.03,25.16,16.34,10.21,8.69,2.35
44.75874,19.21437,BA,37692,3204186,Bijeljina,-1.35,-2.16,5.88,10.95,20.53,24.82,23.49,24.94,17.18,10.88,8.22,2.05
44.81694,15.87083,BA,75641,3204222,Bihać,-0.93,-2.69,5.77,9.67,18.38,22.58,22.83,24.76,15.83,9.71,8.9,2.45
44.77842,17.19386,BA,221106,3204541,Banja Luka,-1.35,-1.8,5.92,10.09,18.64,23.25,22.8,25.16,16.54,10.29,8.08,1.81
43.65126,17.96082,BA,15950,3337476,Konjic,1.6,-2.71,5.42,9.78,19.52,23.35,23.45,25.43,17.54,11.28,9.77,3.53
42.48333,26.5,BG,63656,725578,Yambol,2.09,-1.25,3.43,8.41,18.17,22.71,23.89,25.02,17.64,12.74,7.99,2.81
43.21,23.5625,BG,64941,725712,Vratsa,-1.34,-6.26,3.45,8.7,17.99,21.43,21.66,23.65,15.89,10.14,6.89,0.15
43.99159,22.88236,BG,40422,725905,Vidin,-0.76,-2.21,5.02,10.84,20.28,24.09,24.5,26.9,18.07,11.12,7.52,0.79
42.02754,23.99155,BG,24036,725988,Velingrad,0.01,-4.91,1.9,5.7,15.7,19.18,19.66,20.86,14.37,10.02,5.84,-0.93
43.08124,25.62904,BG,66217,725993,Veliko Tŭrnovo,0.4,-3.31,3.41,8.81,18.76,22.21,22.89,24.67,16.44,10.98,7.23,0.8
43.21667,27.91667,BG,312770,726050,Varna,2.87,-1.88,3.51,8.09,17.08,21.91,23.25,24.1,17.4,13.27,9.17,4.28
43.2512,26.57215,BG,34793,726174,Targovishte,0.73,-3.86,3.04,8.46,18.33,22.31,23.07,24.51,16.21,11.22,7.41,1.36
42.89427,24.71589,BG,21162,726320,Troyan,-0.1,-3.97,3.32,8.32,18.09,21.27,21.48,23.27,15.61,10.3,7.15,0.47
43.56667,27.83333,BG,79269,726418,Dobrich,0.76,-4.85,2.41,7.77,17.75,21.64,22.4,23.46,15.84,11.52,7.79,2.2
43.61875,25.35033,BG,30157,726534,Svishtov,-0.55,-2.49,4.12,10.32,20.52,23.8,24.35,26.04,17.63,11.42,7.73,0.69
41.76667,26.2,BG,19279,726546,Svilengrad,3.85,-0.08,4.49,9.46,19.51,24.59,25.66,27.19,19.54,14.56,9.15,3.81
42.43278,25.64194,BG,143431,726848,Stara Zagora,1.61,-0.87,3.93,8.77,18.93,22.56,23.33,24.8,17.36,12.52,7.9,1.59
42.26667,23.11667,BG,34764,726872,Dupnitsa,1.29,-1.84,3.86,8.04,18.11,21.63,22.27,23.79,15.99,11.51,7.46,1.32
42.69751,23.32415,BG,1152556,727011,Sofia,-0.67,-4.01,3.56,7.72,17.78,21.2,21.1,23.1,15.33,10.0,6.68,-0.16
41.57439,24.71204,BG,26167,727030,Smolyan,0.59,-5.33,1.83,5.23,15.95,19.03,19.55,20.65,14.18,10.39,6.61,0.28
42.68583,26.32917,BG,83740,727079,Sliven,1.26,-1.77,3.17,8.21,18.24,22.1,23.2,24.57,17.02,11.9,7.26,1.73
44.1171,27.26056,BG,29498,727221,Silistra,0.09,-4.84,2.98,9.58,20.08,23.65,24.13,25.49,16.75,11.57,8.11,1.52
43.27064,26.92286,BG,72342,727233,Shumen,0.29,-4.42,2.39,7.77,17.65,21.86,22.69,23.94,15.68,10.89,7.08,1.2
43.02583,25.11361,BG,24582,727337,Sevlievo,0.81,-2.78,4.38,9.49,19.29,22.74,23.09,25.01,17.01,11.44,7.89,1.29
41.56667,23.28333,BG,28510,727447,Sandanski,4.34,1.49,7.3,11.21,21.18,24.45,25.75,26.89,19.88,14.55,9.98,3.61
42.337,23.5528,BG,26765,727462,Samokov,-0.36,-4.96,2.54,6.49,16.76,19.99,20.04,21.73,14.4,9.4,6.28,-0.65
43.84872,25.9534,BG,143417,727523,Ruse,0.04,-3.31,4.03,10.35,20.76,24.2,24.56,26.02,17.49,11.65,7.92,1.14
43.53333,26.51667,BG,38285,727696,Razgrad,0.72,-3.78,3.21,8.78,18.66,22.3,23.13,24.56,16.35,11.27,7.58,1.38
42.27408,24.94083,BG,15782,727791,Rakovski,1.83,-0.6,3.82,9.17,18.82,22.84,23.59,24.54,17.53,12.49,7.65,1.06
42.1,25.21667,BG,17000,727886,Parvomay,2.27,-1.05,4.25,9.07,18.94,23.13,23.86,24.96,18.01,13.05,8.29,1.68
43.35,26.23333,BG,16571,728075,Popovo,0.73,-3.23,3.57,9.2,19.21,22.4,23.09,24.63,16.62,11.3,7.66,1.53
42.15,24.75,BG,346893,728193,Plovdiv,2.55,-1.61,4.16,8.98,18.7,22.9,23.44,24.62,17.42,12.73,8.05,1.57
43.41667,24.61667,BG,100952,728203,Pleven,-0.5,-2.59,4.53,10.56,20.32,23.56,24.19,26.12,18.04,11.75,7.88,0.62
41.39846,23.20702,BG,30722,728288,Petrich,4.3,1.65,7.43,11.5,21.43,24.6,26.0,26.91,20.19,14.71,10.03,3.51
42.03372,24.29995,BG,18676,728317,Peshtera,1.5,-3.14,3.52,7.54,17.35,21.15,21.71,22.98,16.12,11.39,7.08,0.34
42.6,23.03333,BG,82467,728330,Pernik,-0.28,-3.72,2.84,7.04,17.21,20.59,20.82,22.41,14.81,10.0,6.2,0.04
42.2,24.33333,BG,65671,728378,Pazardzhik,2.13,-1.65,4.51,8.88,18.36,22.19,22.8,24.1,17.15,12.14,7.73,1.19
42.49518,24.19021,BG,19389,728448,Panagyurishte,0.72,-3.12,3.17,7.53,17.24,20.61,21.09,22.52,15.59,10.57,6.71,0.53
42.48333,26.01667,BG,23625,728742,Nova Zagora,2.21,-0.85,3.98,8.87,19.04,22.91,23.9,25.47,17.72,12.76,8.07,2.4
43.4125,23.225,BG,47445,729114,Montana,-0.63,-5.33,4.89,10.08,19.24,22.9,23.07,25.28,17.2,11.15,7.99,1.19
43.13333,24.71667,BG,29659,729559,Lovech,0.67,-3.0,4.27,9.66,19.31,22.5,22.99,24.85,16.87,11.48,8.05,1.38
43.82106,23.23677,BG,26594,729581,Lom,-0.42,-2.61,4.87,10.71,20.07,23.86,24.49,26.94,18.3,11.57,7.87,1.08
42.28389,22.69111,BG,37799,729730,Kyustendil,1.49,-2.28,4.08,8.12,18.33,21.44,21.91,23.34,15.87,11.11,7.74,1.68
41.65,25.36667,BG,51000,729794,Kardzhali,2.85,-2.03,3.6,8.24,18.31,22.57,23.51,25.0,17.92,13.39,8.44,2.35
41.93415,25.55557,BG,67086,730435,Haskovo,2.53,-1.33,3.72,8.59,18.75,23.32,24.12,25.64,18.24,13.41,8.23,1.91
41.93333,25.9,BG,18931,730442,Harmanli,3.71,-0.26,4.58,9.48,19.56,24.22,25.15,26.84,19.16,14.34,8.89,2.98
42.61667,25.4,BG,47918,730496,Kazanlak,1.16,-1.89,3.46,8.19,18.34,21.56,22.17,23.55,16.49,11.6,7.35,1.25
42.65,26.98333,BG,19709,730559,Karnobat,1.74,-1.87,2.83,7.83,17.19,21.93,23.34,24.34,16.96,12.54,7.73,2.8
42.63333,24.8,BG,30340,730565,Karlovo,0.64,-2.13,2.91,7.98,17.81,21.07,21.35,22.55,15.98,10.87,6.72,0.37
41.56667,23.73333,BG,20522,731108,Gotse Delchev,2.49,-1.7,4.31,8.28,18.24,21.08,22.13,22.58,16.87,12.55,8.29,1.89
43.12778,25.70167,BG,32792,731233,Gorna Oryahovitsa,0.67,-3.0,3.77,9.17,19.12,22.68,23.34,25.22,16.92,11.32,7.49,1.06
42.87472,25.33417,BG,66175,731549,Gabrovo,-0.31,-4.45,2.47,7.32,17.38,20.68,20.88,22.79,15.08,9.88,6.25,0.09
42.05,25.6,BG,38015,732263,Dimitrovgrad,2.41,-0.48,4.22,9.19,19.37,23.82,24.46,26.01,18.44,13.59,8.51,1.92
42.2,25.33333,BG,15109,732452,Chirpan,1.72,-1.06,3.89,8.8,18.74,22.84,23.6,24.79,17.66,12.71,7.86,1.25
42.50606,27.46781,BG,195966,732770,Burgas,3.85,-0.54,3.78,8.11,16.56,21.98,23.76,24.43,18.29,14.25,9.38,4.96
42.9,23.78333,BG,20909,733014,Botevgrad,-0.87,-4.76,3.86,8.87,18.29,21.94,21.94,24.16,16.17,10.54,6.87,0.13
42.01667,23.1,BG,67810,733191,Blagoevgrad,2.05,-1.14,4.64,8.78,18.76,22.32,23.02,24.61,16.74,12.37,8.15,1.93
43.23581,23.12738,BG,15027,733264,Berkovitsa,-1.06,-5.16,4.21,9.05,18.77,22.22,21.89,24.12,16.4,10.33,7.39,0.58
42.7,27.25,BG,20986,733579,Aytos,2.64,-1.21,3.4,8.22,17.17,22.28,23.74,24.53,17.62,13.45,8.55,3.77
43.18067,27.88823,BG,27000,733606,Asparuhovo,2.97,-1.78,3.61,8.19,17.18,22.01,23.35,24.2,17.5,13.37,9.27,4.38
42.01667,24.86667,BG,54778,733618,Asenovgrad,2.2,-1.96,3.81,8.64,18.35,22.55,23.09,24.26,17.07,12.39,7.7,1.21
45.85639,15.80778,HR,18768,3186781,Zaprešić,-1.56,-1.17,6.76,10.34,19.36,23.95,23.37,25.33,16.83,10.07,8.13,1.77
45.81444,15.97798,HR,663592,3186886,Zagreb,-1.81,-1.51,6.39,10.07,19.22,23.77,23.32,25.29,16.82,9.94,7.94,1.63
44.11578,15.22514,HR,67309,3186952,Zadar,3.92,1.98,8.5,12.48,20.78,26.3,26.38,28.43,19.68,13.78,11.99,7.04
45.35161,19.00225,HR,22255,3187047,Vukovar,-2.38,-3.02,5.73,11.21,20.92,25.05,23.79,25.8,17.74,10.81,8.06,2.03
45.28833,18.80472,HR,28111,3187719,Vinkovci,-2.14,-2.55,5.78,11.13,20.82,25.19,23.86,25.85,17.63,10.77,7.94,1.98
45.7125,16.07556,HR,30036,3188244,Velika Gorica,-1.86,-1.53,6.58,10.5,19.56,23.98,23.62,25.64,17.11,10.28,8.2,1.79
46.30444,16.33778,HR,36187,3188383,Varaždin,-2.09,-2.93,6.14,9.85,19.08,23.7,22.36,24.56,16.21,9.45,7.78,1.43
43.50891,16.43915,HR,149830,3190261,Split,7.29,3.8,9.42,12.82,20.7,25.95,26.47,27.99,20.29,15.06,13.25,8.75
43.5432,16.49314,HR,20996,3190359,Solin,7.55,3.82,9.5,12.68,20.68,25.51,25.95,27.53,20.16,15.09,13.21,8.75
45.16028,18.01556,HR,45005,3190586,Slavonski Brod,-1.42,-1.19,6.39,10.97,20.47,24.86,23.65,25.64,17.55,10.71,8.02,2.16
45.34028,17.68528,HR,16867,3190589,Požega,-1.46,-1.27,6.67,10.65,20.1,24.49,23.42,25.8,17.54,10.33,7.95,2.05
45.46611,16.37833,HR,27859,3190813,Sisak,-1.77,-1.92,6.29,10.28,19.32,23.83,23.05,25.2,16.64,10.2,8.1,1.89
43.73429,15.8942,HR,31115,3190941,Šibenik,9.38,5.89,10.77,13.43,20.29,25.47,26.24,27.28,20.84,16.46,14.72,10.64
45.83111,16.11639,HR,55313,3190966,Sesvete,-2.01,-1.71,6.35,10.11,19.24,23.75,23.19,25.17,16.78,9.9,7.89,1.52
45.80306,15.71806,HR,16911,3191316,Samobor,-1.98,-1.54,6.24,10.05,19.07,23.53,23.56,25.49,16.71,9.92,7.82,1.51
45.32673,14.44241,HR,107964,3191648,Rijeka,2.72,1.1,8.91,11.65,20.42,25.5,24.79,26.94,18.34,12.05,10.56,5.84
44.86833,13.84806,HR,52220,3192224,Pula,6.41,4.36,9.75,12.27,19.43,25.08,25.45,27.43,19.76,14.53,12.68,8.97
45.55111,18.69389,HR,75535,3193935,Osijek,-2.39,-2.91,5.69,11.04,20.67,24.91,23.7,25.7,17.64,10.49,7.9,1.92
46.16278,16.8275,HR,22262,3197728,Koprivnica,-1.94,-3.25,6.37,10.41,19.43,24.16,22.83,25.05,16.68,9.74,8.13,1.73
42.64125,18.10909,HR,26922,3201047,Dubrovnik,8.76,4.99,9.66,12.65,20.53,25.01,25.87,27.2,20.29,15.82,13.5,9.12
45.30833,18.41056,HR,16875,3202220,Đakovo,-1.99,-1.96,5.91,10.89,20.52,25.0,23.63,25.36,17.43,10.56,7.8,1.87
46.38444,16.43389,HR,15078,3202888,Čakovec,-2.27,-2.91,6.14,9.97,19.08,23.76,22.57,24.87,16.33,9.41,7.77,1.41
45.89861,16.84889,HR,24392,3203982,Bjelovar,-1.74,-2.55,6.6,10.64,19.63,24.21,23.01,25.27,17.11,10.1,8.2,1.87
45.49167,15.55,HR,41869,3345300,Karlovac,-1.61,-2.22,6.26,10.04,18.8,23.11,23.12,25.0,16.17,9.97,8.15,1.94
45.81313,15.97753,HR,37000,6618983,Centar,-1.76,-1.46,6.44,10.12,19.27,23.82,23.37,25.34,16.87,9.98,7.99,1.68
35.0125,34.05833,CY,20230,18918,Protaras,14.99,12.23,13.91,18.17,24.87,27.56,30.65,30.73,27.14,24.16,19.02,15.13
35.14867,33.33384,CY,67904,146054,Stróvolos,12.13,9.73,11.3,16.28,24.54,27.43,30.63,30.31,25.7,22.29,16.58,12.23
34.77679,32.42451,CY,35961,146214,Paphos,14.42,11.59,12.96,16.53,23.16,25.03,27.75,27.82,24.96,22.38,18.47,14.59
35.17531,33.3642,CY,200452,146268,Nicosia,12.23,9.89,11.41,16.27,24.24,27.01,30.12,29.86,25.49,22.28,16.77,12.51
35.19869,32.99338,CY,24070,146286,Mórfou,13.19,10.73,12.14,16.31,24.0,26.6,29.73,29.31,25.26,22.39,17.45,13.21
34.68406,33.03794,CY,154000,146384,Limassol,13.67,11.26,12.53,16.45,24.46,26.37,29.17,29.05,25.61,22.86,18.35,13.9
34.92291,33.6233,CY,72000,146400,Larnaca,13.82,11.43,12.86,16.96,24.57,26.8,29.68,29.67,26.18,23.01,18.02,14.04
35.33634,33.31729,CY,26701,146412,Kyrenia,13.19,10.67,12.3,16.91,24.34,27.11,30.19,30.08,26.06,23.06,17.66,13.48
35.12489,33.94135,CY,42526,146617,Famagusta,14.71,12.29,13.6,17.08,23.17,25.45,28.55,28.83,26.01,23.24,18.88,14.98
50.43172,15.81402,CZ,16150,3061284,Dvůr Králové nad Labem,-2.71,-4.92,3.49,7.15,15.26,19.6,19.22,21.15,14.55,5.57,5.04,-0.03
48.8555,16.0488,CZ,35280,3061344,Znojmo,-1.78,-2.16,4.84,8.26,16.53,20.9,20.2,22.51,14.95,6.76,5.93,0.34
49.22645,17.67065,CZ,72973,3061370,Zlín,-2.55,-3.24,4.18,8.25,16.46,20.47,20.23,22.13,15.51,6.71,6.37,0.64
49.56263,15.93924,CZ,20847,3061695,Žďár nad Sázavou,-2.88,-6.1,3.05,5.9,14.2,18.54,17.63,19.61,13.07,4.54,4.7,-1.36
50.32717,13.54577,CZ,19607,3061822,Žatec,-1.18,-2.69,4.32,7.79,15.06,20.74,19.81,22.16,15.32,5.9,4.52,0.53
49.27747,16.99897,CZ,22265,3062283,Vyškov,-1.91,-2.47,4.18,8.12,16.41,20.55,20.31,22.13,15.51,6.78,6.32,0.7
49.33871,17.99619,CZ,28575,3062339,Vsetín,-3.13,-4.21,3.54,7.25,15.64,19.32,19.18,20.93,14.66,6.11,6.05,0.21
50.91154,14.61824,CZ,15895,3063375,Varnsdorf,-1.72,-4.48,3.4,6.82,14.41,18.77,18.35,19.46,14.19,5.4,5.4,0.89
49.47181,17.97113,CZ,27481,3063447,Valašské Meziříčí,-3.1,-4.34,3.52,7.39,15.76,19.33,19.14,20.86,14.7,6.23,6.09,0.33
49.97387,16.39361,CZ,15151,3063546,Ústí nad Orlicí,-2.83,-5.51,3.24,6.83,14.97,19.06,18.75,20.62,14.03,5.49,5.32,-0.29
50.6607,14.03227,CZ,90378,3063548,Ústí nad Labem,-0.82,-2.63,4.85,8.36,15.69,20.89,20.23,21.99,15.94,6.69,5.35,1.22
49.02513,17.64715,CZ,17508,3063736,Uherský Brod,-2.37,-2.78,4.27,8.36,16.62,20.76,20.37,22.44,15.55,6.81,6.4,0.64
49.06975,17.45969,CZ,26421,3063739,Uherské Hradiště,-2.24,-2.32,4.38,8.68,16.83,21.17,20.76,22.76,15.92,7.0,6.49,0.69
50.56101,15.9127,CZ,31398,3063907,Trutnov,-3.77,-5.62,2.66,6.5,14.62,18.82,18.48,20.23,13.9,4.79,4.29,-0.92
49.67763,18.67078,CZ,38415,3064000,Třinec,-3.29,-6.17,2.59,6.79,15.33,18.64,18.6,19.78,14.21,6.04,5.67,0.4
49.21492,15.88166,CZ,38785,3064104,Třebíč,-1.96,-3.81,4.22,7.34,15.57,19.83,19.06,21.29,14.09,5.78,5.3,-0.3
50.6404,13.82451,CZ,51223,3064288,Teplice,-1.19,-2.72,4.34,7.86,15.2,20.68,19.92,21.91,15.54,6.16,4.65,0.66
49.41441,14.6578,CZ,36264,3064379,Tábor,-1.94,-4.79,4.04,7.54,15.21,19.95,18.83,21.22,14.27,5.48,4.9,-0.16
49.75594,16.46829,CZ,17427,3064454,Svitavy,-2.89,-5.73,2.94,6.31,14.53,18.5,18.27,20.06,13.46,5.09,4.99,-0.7
49.96528,16.97061,CZ,28768,3064673,Šumperk,-4.33,-5.91,2.56,6.65,15.05,19.0,18.92,20.7,14.15,5.31,4.78,-1.41
49.26141,13.90237,CZ,23545,3065067,Strakonice,-1.78,-4.14,4.52,7.86,15.17,20.31,19.2,21.78,14.77,5.73,4.81,0.33
49.9169,18.33619,CZ,23034,3065281,Starý Bohumín,-2.17,-4.12,3.4,7.52,15.92,19.53,19.61,20.94,15.2,6.67,6.45,1.3
50.1813,12.6401,CZ,24901,3065617,Sokolov,-1.74,-4.35,4.17,7.34,14.4,19.71,18.82,21.33,14.2,5.2,4.6,0.18
50.23046,14.08693,CZ,15070,3065903,Slaný,-0.65,-2.1,4.57,7.81,15.61,21.01,19.88,21.98,15.66,6.51,5.38,1.14
49.45853,18.14302,CZ,17238,3066651,Rožnov pod Radhoštěm,-3.45,-4.81,3.14,6.93,15.38,18.89,18.66,20.34,14.23,5.89,5.81,-0.01
50.1037,13.7334,CZ,16473,3067051,Rakovník,-0.97,-2.47,4.28,7.48,14.92,20.52,19.47,21.86,15.08,5.91,4.74,0.7
49.47188,17.11184,CZ,47374,3067421,Prostějov,-2.04,-2.88,3.94,7.86,16.09,20.14,20.19,21.99,15.33,6.63,6.11,0.55
50.11525,14.50685,CZ,15581,3067433,Prosek,-0.81,-2.3,4.59,8.15,16.02,21.17,20.05,22.16,15.84,6.59,5.47,1.0
49.68988,14.01043,CZ,35251,3067542,Příbram,-1.59,-3.94,3.88,7.09,14.74,19.77,18.54,21.19,14.5,5.38,4.59,0.21
49.45511,17.4509,CZ,47311,3067580,Přerov,-2.49,-3.2,3.67,7.76,16.03,20.04,20.07,21.85,15.39,6.49,6.07,0.48
50.08804,14.42076,CZ,1165581,3067696,Prague,-0.33,-1.91,5.06,8.54,16.39,21.62,20.47,22.6,16.27,7.01,5.88,1.47
49.74747,13.37759,CZ,168733,3068160,Pilsen,-1.08,-3.71,4.69,8.3,15.67,21.16,19.9,22.66,15.54,6.13,4.71,0.6
49.3088,14.1475,CZ,29774,3068293,Písek,-1.44,-3.5,4.58,7.96,15.41,20.48,19.39,21.96,14.97,5.91,4.96,0.51
49.43134,15.22336,CZ,16541,3068445,Pelhřimov,-2.14,-5.1,3.67,6.81,14.75,19.4,18.24,20.62,13.79,5.1,4.99,-0.57
50.04075,15.77659,CZ,88520,3068582,Pardubice,-1.21,-3.14,4.1,7.85,15.76,20.49,19.78,21.92,15.03,6.39,6.13,0.81
49.20934,17.53944,CZ,18857,3068690,Otrokovice,-2.18,-2.44,4.23,8.38,16.59,20.85,20.6,22.5,15.78,6.86,6.47,0.78
50.30592,12.93907,CZ,17206,3068766,Ostrov,-1.81,-4.53,4.14,7.36,14.49,19.89,18.94,21.55,14.33,5.17,4.49,0.14
49.83465,18.28204,CZ,279791,3068799,Ostrava,-2.6,-4.53,3.26,7.28,15.7,19.33,19.3,20.75,14.9,6.45,6.2,0.89
49.84527,18.43011,CZ,34282,3068873,Orlová,-2.74,-4.94,3.12,7.18,15.61,19.16,19.13,20.54,14.73,6.34,6.05,0.79
49.93866,17.90257,CZ,60252,3068927,Opava,-2.44,-3.99,3.17,7.22,15.69,19.18,19.29,20.56,15.02,6.37,6.3,0.92
49.59552,17.25175,CZ,99496,3069011,Olomouc,-2.55,-3.39,3.61,7.63,15.85,19.84,19.95,21.72,15.19,6.42,5.88,0.32
49.59438,18.01028,CZ,26547,3069305,Nový Jičín,-3.22,-4.51,3.15,7.19,15.52,19.11,18.93,20.6,14.54,6.04,5.83,0.22
50.25926,14.51759,CZ,16427,3069844,Neratovice,-0.58,-1.62,4.86,8.55,16.34,21.41,20.42,22.42,16.27,7.03,5.8,1.29
50.4167,16.16289,CZ,21263,3070122,Náchod,-3.38,-5.56,2.97,6.56,14.75,18.93,18.62,20.42,13.97,5.18,4.74,-0.28
50.50301,13.63617,CZ,67905,3070291,Most,-1.52,-3.14,4.04,7.53,14.74,20.28,19.53,21.62,15.11,5.7,4.34,0.32
50.01116,14.4096,CZ,31901,3070420,Modřany,-0.48,-2.15,5.0,8.43,16.2,21.41,20.21,22.47,16.05,6.78,5.77,1.32
50.41135,14.90318,CZ,43684,3070544,Mladá Boleslav,-1.18,-2.23,4.34,8.02,15.86,20.58,19.84,21.9,15.6,6.5,5.73,0.9
50.3505,14.47411,CZ,19231,3070862,Mělník,-0.94,-1.88,4.46,8.09,15.9,20.93,20.01,22.01,15.79,6.71,5.54,1.02
50.35699,13.79667,CZ,19147,3071507,Louny,-0.59,-1.87,4.68,8.02,15.56,21.13,20.19,22.33,15.87,6.57,5.16,1.18
50.6042,13.61812,CZ,27022,3071665,Litvínov,-1.76,-3.46,3.74,7.13,14.32,19.75,19.03,21.16,14.63,5.31,4.17,0.13
50.53348,14.1318,CZ,24489,3071677,Litoměřice,-0.83,-2.18,4.68,8.22,15.74,21.06,20.28,22.16,15.97,6.75,5.25,1.11
50.76711,15.05619,CZ,102951,3071961,Liberec,-2.24,-5.0,3.28,6.77,14.57,19.04,18.47,19.66,14.34,5.36,5.33,0.36
50.10819,14.47457,CZ,31756,3071966,Libeň,-0.31,-1.8,5.09,8.65,16.52,21.67,20.55,22.66,16.34,7.09,5.97,1.5
50.13333,14.51667,CZ,15862,3072137,Letňany,-0.86,-2.35,4.55,8.1,15.97,21.12,20.0,22.12,15.79,6.54,5.43,0.95
49.94839,15.26816,CZ,21280,3072463,Kutná Hora,-0.75,-2.39,4.51,8.08,15.98,20.69,19.74,22.1,15.33,6.48,6.23,1.13
49.29785,17.39312,CZ,29126,3072649,Kroměříž,-2.21,-2.53,4.05,8.12,16.38,20.63,20.51,22.35,15.67,6.68,6.27,0.65
50.08967,17.70385,CZ,25547,3072656,Krnov,-3.24,-4.93,2.62,6.88,15.25,19.04,19.04,20.2,14.73,5.87,5.81,0.06
50.24107,14.31149,CZ,17373,3072929,Kralupy nad Vltavou,-0.71,-1.72,4.77,8.42,16.17,21.36,20.35,22.37,16.19,6.92,5.57,1.17
49.59947,18.1448,CZ,23424,3073254,Kopřivnice,-3.39,-4.83,2.97,6.91,15.29,18.85,18.64,20.26,14.26,5.89,5.75,0.08
50.02806,15.1998,CZ,29690,3073371,Kolín,-0.62,-2.2,4.65,8.29,16.16,20.89,20.08,22.42,15.69,6.72,6.2,1.23
49.39552,13.29505,CZ,23102,3073660,Klatovy,-2.2,-4.7,3.97,7.3,14.68,20.0,18.87,21.4,14.23,5.37,4.64,-0.12
50.3886,13.18342,CZ,15040,3073668,Klášterec nad Ohří,-1.35,-3.16,4.12,7.45,14.68,20.16,19.28,21.7,14.8,5.5,4.43,0.4
50.14734,14.10285,CZ,66903,3073699,Kladno,-1.11,-2.86,4.2,7.39,15.16,20.53,19.36,21.53,15.18,6.0,4.96,0.66
49.854,18.54169,CZ,63677,3073789,Karviná,-2.51,-5.03,3.11,7.3,15.72,19.19,19.27,20.5,14.86,6.45,6.18,1.02
50.23271,12.87117,CZ,45500,3073803,Karlovy Vary,-1.56,-4.28,4.38,7.61,14.74,20.14,19.19,21.8,14.59,5.42,4.74,0.39
50.38333,13.26667,CZ,18759,3074020,Kadaň,-1.54,-3.16,4.0,7.46,14.67,20.32,19.41,21.82,14.9,5.47,4.18,0.18
50.49979,13.44769,CZ,21056,3074110,Jirkov,-1.58,-3.19,3.96,7.37,14.56,20.1,19.31,21.56,14.81,5.43,4.2,0.19
49.14404,15.00301,CZ,22812,3074149,Jindřichův Hradec,-2.17,-4.12,4.21,7.47,15.31,20.1,18.96,21.29,14.17,5.56,4.99,-0.22
49.3961,15.59124,CZ,50108,3074199,Jihlava,-2.44,-5.21,3.58,6.69,14.66,19.1,18.13,20.34,13.46,4.92,4.74,-1.01
50.43723,15.35162,CZ,16328,3074204,Jičín,-1.93,-3.6,3.94,7.62,15.62,20.04,19.43,21.61,15.09,6.0,5.57,0.46
50.72431,15.17108,CZ,44878,3074603,Jablonec nad Nisou,-3.88,-5.76,2.18,5.56,13.8,18.08,17.5,18.99,13.33,4.3,4.28,-1.29
49.54796,17.73469,CZ,19582,3074893,Hranice,-2.66,-3.56,3.62,7.65,15.91,19.74,19.67,21.44,15.12,6.4,6.13,0.53
50.20923,15.83277,CZ,90596,3074967,Hradec Králové,-1.4,-3.17,3.87,7.6,15.61,20.13,19.71,21.79,14.97,6.27,5.94,0.87
48.84893,17.13244,CZ,26345,3075654,Hodonín,-2.13,-1.88,4.82,9.12,17.39,21.82,21.08,23.32,16.25,7.52,6.66,0.85
49.6069,15.57937,CZ,24356,3075919,Havlíčkův Brod,-1.95,-4.85,3.85,6.98,14.99,19.62,18.54,20.81,14.0,5.29,5.31,-0.47
49.77984,18.43688,CZ,82768,3075921,Havířov,-2.99,-5.19,2.87,6.93,15.36,18.91,18.88,20.29,14.49,6.09,5.8,0.54
49.68333,18.35,CZ,59416,3076127,Frýdek-Místek,-3.11,-5.29,2.92,6.79,15.31,18.81,18.66,20.09,14.25,6.07,5.93,0.44
50.78215,14.21478,CZ,52058,3077244,Děčín,-0.87,-3.19,4.81,8.54,15.73,20.58,20.11,21.48,15.79,6.8,6.1,1.89
49.95109,15.79558,CZ,23630,3077539,Chrudim,-1.46,-3.39,3.85,7.6,15.51,20.24,19.53,21.67,14.77,6.13,5.88,0.56
50.46048,13.41779,CZ,50251,3077685,Chomutov,-1.78,-3.39,3.76,7.17,14.36,19.9,19.11,21.36,14.61,5.23,4.0,-0.01
50.07963,12.37392,CZ,33242,3077835,Cheb,-1.94,-4.46,3.84,6.93,13.92,19.19,18.24,20.78,13.71,4.9,4.29,-0.09
49.74613,18.62613,CZ,25750,3077882,Český Těšín,-3.08,-5.8,2.82,6.99,15.46,18.85,18.82,20.08,14.43,6.16,5.79,0.57
48.97447,14.47434,CZ,93426,3077916,České Budějovice,-2.22,-3.56,4.31,7.72,15.25,20.18,19.19,21.49,14.66,5.99,5.16,0.4
49.90436,16.44413,CZ,16655,3077920,Česká Třebová,-2.52,-5.65,3.31,6.84,14.92,19.02,18.74,20.58,13.99,5.49,5.41,-0.28
50.68551,14.53764,CZ,38841,3077929,Česká Lípa,-1.55,-3.33,3.98,7.57,15.15,19.87,19.14,20.67,14.97,5.99,5.26,0.73
49.98844,17.4647,CZ,17686,3078545,Bruntál,-4.51,-5.97,1.43,5.63,14.27,17.94,17.86,19.1,13.51,4.77,4.76,-1.35
49.19522,16.60796,CZ,379466,3078610,Brno,-1.88,-2.55,4.53,8.39,16.56,20.89,20.46,22.63,15.5,6.8,6.0,0.33
48.75897,16.88203,CZ,25789,3078773,Břeclav,-1.88,-1.78,4.97,9.18,17.43,21.88,21.09,23.29,16.18,7.61,6.77,0.94
50.03498,14.41518,CZ,18740,3078833,Braník,-0.36,-1.85,5.05,8.6,16.47,21.62,20.5,22.62,16.29,7.04,5.93,1.45
50.18709,14.66326,CZ,15398,3078837,Brandýs nad Labem-Stará Boleslav,-0.5,-1.91,4.89,8.6,16.47,21.34,20.42,22.44,16.23,7.03,5.99,1.36
49.90411,18.35755,CZ,23075,3079129,Bohumín,-2.19,-4.4,3.41,7.57,15.98,19.53,19.6,20.89,15.18,6.72,6.47,1.32
49.36304,16.64446,CZ,20384,3079273,Blansko,-2.02,-3.2,4.42,8.08,16.24,20.44,20.01,22.12,15.15,6.44,5.76,0.11
50.54854,13.77535,CZ,15738,3079348,Bílina,-1.04,-2.57,4.49,8.01,15.34,20.83,20.07,22.06,15.69,6.32,4.8,0.82
49.96382,14.072,CZ,17550,3079467,Beroun,-0.3,-2.11,5.21,8.57,16.25,21.58,20.39,22.67,16.25,6.92,5.85,1.49
49.78162,14.68697,CZ,16257,3079508,Benešov,-1.02,-3.17,4.6,8.03,15.75,20.65,19.41,21.87,15.2,6.16,5.66,0.82
50.10475,14.57974,CZ,21500,6269470,Černý Most,-0.65,-2.11,4.69,8.23,16.14,21.16,20.1,22.2,15.9,6.71,5.71,1.17
55.00801,11.91057,DK,17868,2610020,Vordingborg,0.39,-1.03,3.26,6.32,12.19,16.42,18.62,18.81,14.94,7.24,7.0,4.12
56.45319,9.40201,DK,41239,2610319,Viborg,0.29,-1.38,3.12,6.97,10.8,15.48,17.71,17.37,13.75,5.93,5.99,3.48
55.70927,9.5357,DK,60231,2610613,Vejle,0.72,-1.24,3.7,7.2,11.75,16.25,18.34,18.08,14.16,6.53,6.72,3.68
55.68361,12.48713,DK,37115,2610734,Vanløse,-0.15,-1.81,2.96,6.58,11.85,16.22,18.48,18.42,14.45,6.43,6.78,3.88
55.62199,12.38511,DK,16515,2610789,Vallensbæk,-0.32,-1.88,2.96,6.67,11.89,16.15,18.41,18.02,13.97,5.81,6.71,3.75
55.66613,12.51388,DK,46161,2610802,Valby,-0.15,-1.81,2.96,6.58,11.85,16.22,18.48,18.42,14.45,6.43,6.78,3.88
54.93306,8.86674,DK,16401,2611497,Tønder,0.81,-0.67,4.15,7.84,11.7,16.39,18.27,18.39,14.67,6.95,6.87,4.09
55.65006,12.3016,DK,35238,2611828,Taastrup,-0.17,-1.89,2.91,6.59,11.85,16.18,18.44,18.34,14.37,6.34,6.67,3.78
55.05982,10.60677,DK,27300,2612045,Svendborg,0.84,-0.6,3.77,6.82,12.03,16.58,18.86,18.9,14.94,7.5,7.28,4.26
55.76828,12.19723,DK,19998,2612629,Stenløse,-0.2,-1.96,2.9,6.74,11.9,16.24,18.49,18.31,14.32,6.19,6.59,3.72
54.90896,9.78917,DK,27766,2613102,Sønderborg,0.63,-0.99,4.07,7.43,12.15,16.66,18.55,18.55,14.53,6.81,6.72,3.66
55.53285,12.22227,DK,17337,2613233,Solrød Strand,-0.05,-1.98,2.98,6.43,11.99,16.29,18.55,18.56,14.53,6.49,6.82,3.81
55.40276,11.35459,DK,31896,2613460,Slagelse,0.1,-1.27,3.05,6.46,11.81,16.2,18.44,18.45,14.62,6.81,6.7,3.87
56.56699,9.02707,DK,20190,2613731,Skive,0.57,-1.21,3.22,7.16,10.63,15.51,17.73,17.57,13.97,6.29,6.06,3.78
56.1697,9.54508,DK,49747,2614030,Silkeborg,0.59,-1.18,3.52,7.23,11.33,15.89,18.06,17.69,13.97,6.2,6.41,3.63
55.64152,12.08035,DK,51916,2614481,Roskilde,-0.36,-2.2,2.75,6.37,11.78,16.04,18.31,18.21,14.18,6.02,6.46,3.47
55.68062,12.45373,DK,40652,2614600,Rødovre,-0.2,-1.87,2.91,6.53,11.8,16.16,18.42,18.37,14.4,6.38,6.73,3.83
55.4426,11.79011,DK,23086,2614764,Ringsted,-0.35,-2.1,2.81,6.37,11.92,16.14,18.34,18.25,14.25,5.97,6.43,3.39
56.4607,10.03639,DK,62802,2615006,Randers,0.49,-1.24,3.33,6.9,11.29,15.75,18.12,17.78,14.07,6.39,6.39,3.69
55.39594,10.38831,DK,180863,2615876,Odense,0.58,-1.14,3.63,7.14,12.14,16.71,18.8,18.73,14.43,6.62,6.84,3.74
54.76906,11.87425,DK,19976,2615961,Nykøbing Falster,0.94,-0.57,3.54,6.46,12.39,16.69,18.8,19.12,15.46,8.18,7.29,4.53
55.31274,10.78964,DK,17525,2616015,Nyborg,0.58,-1.05,3.59,7.06,12.25,16.83,19.0,18.97,14.71,6.89,6.91,3.88
55.22992,11.76092,DK,44331,2616038,Næstved,0.05,-1.52,3.18,6.56,12.29,16.55,18.68,18.72,14.72,6.6,6.78,3.81
57.05877,9.92284,DK,23718,2616235,Nørresundby,0.57,-1.14,3.34,6.86,10.86,15.65,18.25,17.82,14.06,6.43,6.18,3.85
55.50591,9.73054,DK,16277,2616933,Middelfart,0.66,-1.28,3.63,7.23,11.92,16.5,18.53,18.45,14.22,6.59,6.73,3.63
55.87496,12.34579,DK,16741,2617658,Lillerød,-0.38,-2.09,2.67,6.51,11.62,16.02,18.35,18.15,14.23,6.17,6.45,3.66
55.45802,12.18214,DK,38304,2618415,Køge,-0.05,-1.98,2.98,6.43,11.99,16.29,18.55,18.56,14.53,6.49,6.82,3.81
55.67594,12.56553,DK,1153615,2618425,Copenhagen,-0.32,-1.88,2.96,6.67,11.89,16.15,18.41,18.02,13.97,5.81,6.71,3.75
55.4904,9.47216,DK,61638,2618528,Kolding,0.66,-1.19,3.76,7.28,11.81,16.38,18.39,18.23,14.16,6.54,6.72,3.66
55.67954,11.08864,DK,16211,2619154,Kalundborg,0.71,-0.7,3.27,6.73,11.76,16.26,18.7,18.72,15.05,7.76,7.07,4.47
55.61543,12.35182,DK,19453,2619377,Ishøj,0.06,-1.26,2.95,6.12,11.62,15.93,18.3,18.26,14.44,6.74,7.01,4.1
55.65719,12.47364,DK,53527,2619528,Hvidovre,-0.1,-1.77,3.01,6.63,11.9,16.26,18.53,18.47,14.5,6.48,6.83,3.93
55.86066,9.85034,DK,61074,2619771,Horsens,0.86,-1.04,3.63,6.92,11.69,16.07,18.4,18.19,14.38,7.1,6.87,3.99
55.88098,12.50111,DK,47680,2619856,Hørsholm,-0.59,-2.62,2.6,6.53,11.71,16.14,18.39,18.18,14.12,5.81,6.37,3.46
56.36009,8.61607,DK,32072,2620046,Holstebro,0.9,-0.79,3.35,7.32,10.46,15.5,17.76,17.65,14.26,6.75,6.46,4.21
55.7175,11.71279,DK,29608,2620147,Holbæk,0.03,-1.72,3.02,6.87,12.08,16.4,18.63,18.5,14.52,6.36,6.62,3.78
57.46417,9.98229,DK,25644,2620214,Hjørring,0.81,-0.64,3.2,6.4,10.08,15.08,17.99,17.57,14.25,7.52,6.48,4.58
55.92791,12.30081,DK,35357,2620320,Hillerød,-0.28,-1.99,2.77,6.61,11.72,16.12,18.45,18.25,14.33,6.27,6.55,3.76
56.13615,8.97662,DK,50565,2620425,Herning,0.25,-1.6,3.1,7.02,10.77,15.51,17.59,17.34,13.69,5.89,6.06,3.39
56.03606,12.6136,DK,35048,2620473,Helsingør,-0.53,-2.63,2.61,6.6,11.8,16.21,18.52,18.22,14.22,5.9,6.42,3.55
55.77043,9.7011,DK,47099,2620583,Hedensted,0.4,-1.57,3.25,6.59,11.29,15.69,17.91,17.7,13.84,6.49,6.39,3.42
55.24943,9.48771,DK,22011,2620964,Haderslev,0.74,-0.97,3.96,7.31,11.83,16.4,18.5,18.42,14.49,6.93,6.92,3.94
55.58333,12.3,DK,47671,2621215,Greve,0.06,-1.26,2.95,6.12,11.62,15.93,18.3,18.26,14.44,6.74,7.01,4.1
55.6666,12.40377,DK,23128,2621356,Glostrup,-0.18,-1.85,2.91,6.55,11.81,16.16,18.43,18.36,14.39,6.37,6.71,3.82
55.83956,12.06896,DK,16850,2621912,Frederikssund,-0.2,-2.03,2.86,6.74,11.92,16.25,18.51,18.34,14.32,6.18,6.54,3.68
57.44073,10.53661,DK,22672,2621927,Frederikshavn,0.85,-0.53,3.22,6.47,10.55,15.39,18.31,17.89,14.52,7.6,6.93,4.81
55.67938,12.53463,DK,95029,2621942,Frederiksberg,-0.2,-1.87,2.91,6.53,11.8,16.16,18.42,18.37,14.4,6.38,6.73,3.83
55.56568,9.75257,DK,40886,2621951,Fredericia,0.56,-1.38,3.53,7.13,11.82,16.4,18.43,18.35,14.12,6.49,6.63,3.53
55.80858,12.36066,DK,20312,2622306,Farum,-0.4,-2.2,2.81,6.64,11.78,16.17,18.4,18.24,14.19,5.98,6.52,3.6
55.47028,8.45187,DK,71698,2622447,Esbjerg,1.05,-0.41,3.94,7.52,11.08,15.91,18.02,17.91,14.64,7.39,7.01,4.46
55.75238,12.5745,DK,40000,2623188,Charlottenlund,-0.37,-1.93,2.91,6.62,11.84,16.1,18.36,17.97,13.92,5.76,6.66,3.7
55.6455,12.41008,DK,20000,2623340,Brøndbyvester,-0.32,-1.88,2.96,6.67,11.89,16.15,18.41,18.02,13.97,5.81,6.71,3.75
55.84759,12.42791,DK,20877,2624112,Birkerød,-0.55,-2.35,2.66,6.49,11.63,16.02,18.25,18.09,14.04,5.83,6.37,3.45
55.73165,12.36328,DK,40000,2624341,Ballerup,-0.28,-1.95,2.81,6.45,11.71,16.06,18.33,18.26,14.29,6.27,6.61,3.72
56.15674,10.21076,DK,285273,2624652,Århus,0.6,-1.22,3.35,6.82,11.56,16.02,18.37,18.03,14.22,6.65,6.61,3.75
55.87035,12.35737,DK,25867,2624843,Allerød,-0.53,-2.36,2.59,6.46,11.59,16.01,18.3,18.1,14.12,5.96,6.36,3.52
57.048,9.9187,DK,142937,2624886,Aalborg,0.64,-1.03,3.44,6.99,10.99,15.71,18.3,17.95,14.16,6.59,6.32,3.93
55.65691,12.36381,DK,30000,2624906,Albertslund,-0.13,-1.8,2.96,6.6,11.86,16.21,18.48,18.42,14.44,6.43,6.77,3.87
55.04434,9.41741,DK,16401,2625070,Aabenraa,0.57,-1.11,4.0,7.51,12.03,16.59,18.49,18.38,14.38,6.42,6.69,3.61
58.36389,25.59,EE,17407,587577,Viljandi,-7.21,-6.23,-1.24,3.27,10.87,13.5,19.73,15.8,11.84,4.19,2.7,-0.16
58.38062,26.72509,EE,91407,588335,Tartu,-7.04,-6.06,-0.99,3.63,11.5,13.64,20.09,16.06,12.17,4.49,2.46,-0.11
59.43696,24.75353,EE,394024,588409,Tallinn,-7.19,-5.4,-0.66,2.57,10.36,13.43,20.5,16.77,12.68,4.85,3.44,0.44
58.38588,24.49711,EE,40228,589580,Pärnu,-6.58,-5.93,-0.86,3.56,11.24,14.37,20.59,16.77,12.41,4.57,3.47,0.67
59.37757,24.68587,EE,39422,589947,Nõmme,-7.41,-5.64,-0.94,2.26,10.03,13.13,20.28,16.54,12.43,4.57,3.2,0.21
59.37722,28.19028,EE,54409,590031,Narva,-8.69,-6.07,-2.41,2.35,10.69,12.09,20.07,15.86,12.01,4.45,2.26,-0.57
59.46529,24.98215,EE,16630,590447,Maardu,-7.67,-5.49,-0.75,2.09,9.65,12.61,19.84,16.41,12.41,5.0,3.64,0.72
59.39861,27.27306,EE,35395,591260,Kohtla-Järve,-8.19,-6.11,-2.34,1.97,10.2,11.82,19.7,15.85,12.02,4.45,2.5,-0.33
62.00973,-6.77164,FO,13200,2611396,Tórshavn,3.56,5.99,6.85,8.01,7.79,11.64,13.38,13.14,10.66,6.42,7.16,4.34
61.55632,23.59606,FI,22140,630752,Ylöjärvi,-11.06,-7.1,-1.9,1.26,9.37,12.83,19.9,15.33,11.19,2.87,1.4,-2.75
60.20963,25.14195,FI,35826,631077,Vuosaari,-8.99,-6.2,-1.85,2.17,9.06,12.68,20.08,16.64,12.33,4.35,3.14,-0.51
60.41699,24.31965,FI,26280,631707,Vihti,-9.34,-6.35,-1.82,2.58,9.62,13.39,20.16,16.3,11.97,3.72,2.68,-1.1
62.31533,27.873,FI,22365,632370,Varkaus,-13.17,-6.98,-2.46,-0.07,10.25,12.36,20.65,15.15,10.91,3.15,0.13,-3.65
60.29414,25.04099,FI,190058,632453,Vantaa,-9.25,-6.19,-1.77,2.7,9.87,13.52,20.4,16.51,12.13,3.85,2.8,-1.02
61.26421,24.03122,FI,20376,632672,Valkeakoski,-10.44,-6.76,-1.79,1.85,9.88,13.13,20.21,15.6,11.49,3.23,1.82,-2.22
63.096,21.61577,FI,67631,632978,Vaasa,-9.68,-5.84,-0.94,1.27,8.93,12.57,19.82,15.52,11.36,3.55,1.01,-1.42
60.80043,21.40841,FI,16226,633221,Uusikaupunki,-7.38,-6.5,-0.91,2.21,8.23,12.36,19.49,16.46,12.39,4.83,3.41,0.5
60.40368,25.02638,FI,34725,633591,Tuusula,-9.51,-6.27,-1.8,2.67,9.91,13.4,20.23,16.24,11.92,3.63,2.57,-1.27
60.45148,22.26869,FI,195301,633679,Turku,-8.79,-6.58,-0.96,2.87,9.48,13.68,20.77,16.54,12.25,3.78,2.91,-0.78
65.84811,24.14662,FI,21236,634093,Tornio,-14.58,-6.31,-2.23,-1.02,6.81,11.97,18.76,14.39,9.04,2.25,-1.08,-5.94
61.49911,23.78712,FI,244315,634963,Tampere,-10.9,-7.2,-2.11,1.31,8.85,13.0,20.17,15.59,11.42,3.13,1.52,-2.56
63.08333,27.66667,FI,20209,636947,Siilinjärvi,-13.87,-6.81,-2.27,-0.31,9.76,12.11,20.39,14.95,10.45,2.88,-0.16,-4.14
60.37752,25.26906,FI,19430,637067,Sibbo,-9.45,-6.13,-1.71,2.7,10.02,13.42,20.33,16.35,12.11,3.9,2.79,-1.12
62.79446,22.82822,FI,64743,637219,Seinäjoki,-11.1,-6.01,-1.08,1.62,10.12,13.31,19.91,15.08,11.02,2.6,0.58,-2.69
61.8699,28.87999,FI,27353,637292,Savonlinna,-12.88,-6.87,-2.76,-0.28,10.31,12.18,20.76,15.27,11.18,3.35,0.48,-3.17
60.38333,23.13333,FI,24900,637948,Salo,-8.8,-6.35,-1.2,2.91,9.75,13.74,20.81,16.59,12.18,3.63,2.93,-0.93
66.5,25.71667,FI,64194,638936,Rovaniemi,-16.57,-6.71,-2.67,-1.08,7.21,12.02,19.11,13.15,8.06,1.06,-2.86,-9.26
60.73769,24.77726,FI,26451,639406,Riihimäki,-10.13,-6.48,-1.92,2.43,10.0,13.18,20.0,15.76,11.5,3.2,2.13,-1.89
61.12724,21.51127,FI,36550,639734,Rauma,-6.84,-6.54,-1.12,2.09,7.69,11.71,18.91,16.27,12.14,4.95,3.39,0.64
60.48592,22.16895,FI,23597,640124,Raisio,-8.72,-6.55,-0.99,2.77,9.34,13.6,20.74,16.55,12.31,3.95,2.98,-0.6
64.68333,24.48333,FI,22217,640276,Raahe,-13.94,-6.11,-1.55,-0.12,7.71,10.75,18.49,14.67,9.68,3.17,0.08,-3.86
61.48333,21.78333,FI,83491,640999,Pori,-8.41,-6.55,-1.23,2.21,8.81,12.92,19.83,16.04,11.77,3.75,2.43,-0.69
61.46125,23.63228,FI,15615,641489,Pirkkala,-10.58,-6.78,-1.74,1.6,9.79,13.13,20.12,15.57,11.4,3.02,1.67,-2.39
65.01236,25.46816,FI,209648,643492,Oulu,-14.2,-6.34,-1.99,-0.73,8.15,11.88,19.42,14.79,9.91,2.73,-0.54,-4.78
60.46407,24.8073,FI,44136,644171,Nurmijärvi,-9.74,-6.39,-1.82,2.62,9.9,13.33,20.07,16.03,11.72,3.43,2.38,-1.47
61.46667,23.5,FI,28676,644450,Nokia,-10.74,-6.96,-1.9,1.39,9.54,12.87,19.8,15.3,11.16,2.77,1.46,-2.55
60.19861,24.87772,FI,17334,645691,Munkkiniemi,-8.85,-6.12,-1.77,2.24,9.04,12.71,20.05,16.7,12.42,4.46,3.26,-0.35
61.68857,27.27227,FI,52121,646005,Mikkeli,-12.52,-6.93,-2.39,0.32,10.29,12.5,20.27,15.27,11.25,3.36,0.88,-3.17
60.23355,25.09947,FI,36360,646218,Mellunkylä,-9.04,-6.26,-1.9,2.12,9.01,12.63,20.03,16.59,12.28,4.3,3.09,-0.56
60.63333,25.31667,FI,18074,646723,Mäntsälä,-10.25,-6.45,-1.95,2.58,10.16,13.27,20.03,15.82,11.57,3.32,2.16,-1.83
60.45659,26.22505,FI,15466,647571,Lovisa,-10.07,-6.18,-2.26,1.91,9.61,12.64,19.78,16.09,12.11,4.22,2.8,-0.96
60.84972,23.0561,FI,15834,647731,Loimaa,-9.69,-6.81,-1.59,2.47,9.51,13.3,20.28,15.75,11.38,2.77,2.02,-1.99
60.24859,24.06534,FI,35960,647751,Lohja,-8.76,-6.26,-1.89,2.08,8.77,12.72,19.67,16.44,12.18,4.29,3.26,-0.38
60.51032,22.46176,FI,15258,648056,Lieto,-8.87,-6.54,-1.08,2.78,9.51,13.59,20.65,16.38,12.06,3.56,2.74,-0.97
61.31667,23.75,FI,18096,648366,Lempäälä,-10.36,-6.73,-1.71,1.94,9.88,13.2,20.23,15.61,11.48,3.12,1.8,-2.24
60.15896,24.86797,FI,20000,648635,Lauttasaari,-8.95,-6.22,-1.87,2.14,8.94,12.61,19.95,16.6,12.32,4.36,3.16,-0.45
62.41407,25.95194,FI,17093,648738,Laukaa,-12.38,-6.73,-2.02,0.09,9.92,12.4,19.86,14.95,10.77,2.78,0.38,-3.56
61.05871,28.18871,FI,72646,648900,Lappeenranta,-12.18,-7.01,-2.98,0.01,10.29,12.64,20.53,15.59,11.3,3.55,1.17,-2.71
60.98267,25.66151,FI,120093,649360,Lahti,-11.19,-6.75,-2.27,1.54,10.17,12.97,19.99,15.47,11.35,3.29,1.62,-2.54
60.12381,24.43853,FI,32920,649630,Kirkkonummi,-8.17,-5.98,-2.03,1.47,7.92,11.76,19.19,16.83,12.7,5.2,3.99,0.54
65.96447,29.18878,FI,17400,649924,Kuusamo,-16.36,-7.33,-3.67,-2.01,6.53,9.66,17.69,12.54,8.01,0.87,-2.47,-8.61
62.89238,27.67703,FI,121557,650224,Kuopio,-13.68,-7.06,-2.48,-0.55,8.94,11.91,20.31,14.93,10.5,3.1,0.01,-3.99
60.86667,26.7,FI,80483,650859,Kouvola,-11.48,-6.72,-2.5,1.15,10.43,13.04,20.19,15.5,11.42,3.42,1.65,-2.44
60.4664,26.94582,FI,54616,650946,Kotka,-10.37,-6.34,-2.74,1.38,9.24,12.17,19.9,16.06,12.06,4.27,2.65,-1.07
63.11418,21.68216,FI,17176,651299,Korsholm,-9.75,-5.8,-0.89,1.35,9.05,12.67,19.87,15.52,11.37,3.52,0.99,-1.5
63.83847,23.13066,FI,47915,651943,Kokkola,-11.18,-5.75,-1.33,0.44,8.51,11.67,19.28,15.19,10.89,3.53,0.71,-2.23
60.38244,24.751,FI,21019,652305,Klaukkala,-9.5,-6.32,-1.83,2.6,9.74,13.31,20.12,16.18,11.87,3.63,2.57,-1.25
60.40338,25.105,FI,31347,653185,Kerava,-9.53,-6.25,-1.79,2.66,9.94,13.4,20.25,16.24,11.94,3.66,2.6,-1.27
65.73641,24.56371,FI,22641,653281,Kemi,-14.49,-6.55,-2.44,-1.31,6.65,11.71,18.64,14.42,9.03,2.54,-0.55,-5.45
60.52156,26.93125,FI,22867,654137,Karhula,-10.42,-6.39,-2.79,1.33,9.19,12.12,19.85,16.01,12.01,4.22,2.6,-1.13
61.46383,24.07602,FI,24291,654440,Kangasala,-10.74,-6.82,-1.88,1.31,9.68,12.93,20.08,15.51,11.42,3.3,1.71,-2.34
60.18427,24.95034,FI,27051,654706,Kallio,-9.04,-6.26,-1.9,2.12,8.99,12.62,20.01,16.58,12.28,4.3,3.09,-0.55
64.22728,27.72846,FI,36498,654899,Kajaani,-14.84,-6.67,-2.38,-0.8,8.61,11.53,19.47,14.02,9.58,2.19,-1.33,-5.93
60.40724,22.36904,FI,21684,655130,Kaarina,-8.74,-6.6,-1.11,2.65,9.29,13.56,20.72,16.63,12.36,4.0,3.1,-0.47
60.25174,24.88111,FI,26414,655143,Kaarela,-9.22,-6.17,-1.74,2.69,9.77,13.44,20.33,16.49,12.13,3.86,2.82,-0.98
62.24147,25.72088,FI,144477,655194,Jyväskylä,-12.29,-6.86,-2.01,0.42,9.86,12.36,19.72,14.9,10.81,2.7,0.5,-3.6
62.60118,29.76316,FI,77266,655808,Joensuu,-14.42,-7.73,-3.25,-0.77,8.19,11.42,20.49,15.15,10.69,3.47,-0.21,-4.22
60.47369,25.08992,FI,38148,655958,Järvenpää,-9.76,-6.3,-1.79,2.7,10.09,13.4,20.15,16.08,11.78,3.5,2.42,-1.47
60.9,24.6,FI,15698,656073,Janakkala,-10.67,-6.87,-2.18,2.0,9.84,12.98,19.85,15.42,11.2,2.87,1.64,-2.45
61.8642,25.19002,FI,15261,656083,Jämsä,-11.61,-6.68,-1.77,1.0,9.91,12.66,19.94,15.31,11.37,3.19,1.24,-2.95
63.67486,22.70256,FI,19238,656130,Jakobstad,-11.33,-5.67,-0.91,0.24,7.48,10.62,18.46,15.17,10.71,3.97,1.1,-1.7
61.17185,28.75242,FI,29615,656688,Imatra,-12.24,-6.81,-2.81,0.44,10.75,12.58,20.71,15.83,11.61,3.77,1.22,-2.57
63.55915,27.19067,FI,22588,656820,Iisalmi,-14.5,-6.79,-2.16,-0.19,9.66,12.1,20.01,14.46,9.91,2.29,-0.72,-4.99
60.63333,24.86667,FI,43515,656913,Hyvinge,-10.26,-6.71,-2.14,2.29,9.74,12.98,19.71,15.59,11.28,2.99,1.94,-1.98
61.05,25.43333,FI,20405,657530,Hollola,-10.94,-6.65,-2.07,1.59,10.21,13.14,20.23,15.65,11.54,3.53,1.8,-2.43
60.16952,24.93545,FI,658864,658225,Helsinki,-8.85,-6.12,-1.77,2.24,9.04,12.71,20.05,16.7,12.42,4.46,3.26,-0.35
61.20564,26.03811,FI,20849,658288,Heinola,-11.3,-6.77,-2.35,0.9,10.22,12.96,20.06,15.5,11.44,3.5,1.57,-2.47
65.17654,25.35233,FI,17298,658629,Haukipudas,-14.14,-6.38,-2.13,-0.93,7.43,11.52,19.08,14.74,9.72,2.83,-0.4,-4.89
60.56974,27.19794,FI,21712,659169,Hamina,-10.89,-6.43,-2.7,1.57,10.1,12.93,20.39,15.87,11.75,3.78,2.22,-1.77
60.99596,24.46434,FI,67994,659180,Hämeenlinna,-10.43,-6.61,-1.86,2.15,10.09,13.23,20.16,15.62,11.43,3.12,1.86,-2.25
60.81462,23.62146,FI,17852,659935,Forssa,-10.17,-7.06,-1.93,2.39,9.64,13.27,20.16,15.72,11.32,2.8,1.95,-2.21
60.2052,24.6522,FI,256760,660158,Espoo,-8.82,-6.14,-1.89,2.09,8.82,12.55,19.78,16.57,12.33,4.43,3.28,-0.31
60.39233,25.66507,FI,51135,660561,Porvoo,-9.52,-6.11,-1.93,2.35,9.73,13.01,20.1,16.34,12.27,4.23,3.01,-0.85
60.68333,26.83333,FI,16779,661164,Anjala,-10.9,-6.37,-2.41,1.57,10.31,13.12,20.26,15.84,11.78,3.82,2.18,-1.81
60.29972,22.3004,FI,15498,7911309,Väståboland,-8.67,-6.75,-1.32,2.37,8.89,13.43,20.81,16.82,12.65,4.53,3.5,0.11
48.71785,2.49338,FR,28897,2967245,Yerres,2.49,3.0,8.79,11.1,14.13,20.36,20.65,23.4,16.65,9.81,8.62,4.59
47.8109,7.32756,FR,15747,2967318,Wittenheim,0.36,0.3,7.43,9.67,15.06,22.5,21.16,24.37,16.25,7.48,6.48,1.99
50.70118,3.21812,FR,42826,2967421,Wattrelos,2.86,2.77,7.86,10.19,13.56,18.66,19.01,20.52,15.48,8.62,8.4,4.36
50.67043,3.13382,FR,19320,2967438,Wasquehal,2.97,2.84,7.89,10.22,13.57,18.66,19.03,20.55,15.53,8.68,8.43,4.41
45.36471,5.5856,FR,22114,2967758,Voiron,1.06,1.81,8.91,11.66,16.15,24.11,22.96,25.87,17.22,10.29,7.26,2.86
48.78716,2.40332,FR,81001,2967849,Vitry-sur-Seine,2.82,3.32,9.05,11.4,14.43,20.55,20.83,23.55,16.94,10.03,8.89,4.85
48.72472,4.58439,FR,17250,2967856,Vitry-le-François,1.54,2.02,8.51,10.84,14.51,20.89,20.71,23.65,16.21,9.38,8.54,4.32
43.46,5.24861,FR,38591,2967870,Vitrolles,3.84,4.33,9.42,12.6,18.54,25.2,25.68,27.68,19.05,13.53,10.49,6.38
48.12279,-1.20983,FR,17266,2967879,Vitré,3.11,4.14,9.6,11.37,13.57,19.09,19.0,22.1,16.36,10.38,9.53,5.59
48.67211,2.39318,FR,31131,2967917,Viry-Châtillon,2.8,3.36,9.16,11.41,14.44,20.61,20.87,23.63,16.96,10.11,8.92,4.91
48.80078,2.16181,FR,16137,2967934,Viroflay,2.51,3.06,8.77,10.94,13.96,20.03,20.23,22.97,16.48,9.63,8.54,4.54
48.8486,2.43769,FR,45923,2968054,Vincennes,2.67,3.17,8.9,11.25,14.29,20.4,20.68,23.39,16.79,9.88,8.74,4.7
48.831,2.54844,FR,30252,2968142,Villiers-sur-Marne,2.39,2.89,8.69,10.99,14.01,20.14,20.44,23.16,16.53,9.63,8.5,4.46
49.00875,2.39819,FR,27028,2968176,Villiers-le-Bel,2.56,3.01,8.69,10.99,13.97,19.92,20.24,22.82,16.43,9.52,8.56,4.54
45.76601,4.8795,FR,131445,2968254,Villeurbanne,2.02,2.72,8.92,12.18,16.91,24.87,23.32,26.34,17.5,10.85,8.44,4.32
48.67333,6.15283,FR,15899,2968368,Villers-lès-Nancy,0.45,0.5,7.64,10.09,14.74,21.51,20.62,23.7,15.79,8.45,7.64,2.97
48.96203,2.53253,FR,37114,2968482,Villepinte,2.7,3.12,8.79,11.14,14.13,20.12,20.47,23.06,16.59,9.69,8.73,4.68
48.94208,2.61463,FR,23931,2968496,Villeparisis,2.56,3.05,8.86,11.17,14.15,20.23,20.61,23.24,16.68,9.74,8.7,4.65
44.40854,0.70415,FR,25869,2968515,Villeneuve-sur-Lot,4.48,5.18,11.25,13.68,16.19,23.77,22.93,26.29,19.49,13.34,11.15,7.19
48.73219,2.44925,FR,30881,2968529,Villeneuve-Saint-Georges,2.85,3.41,9.21,11.46,14.49,20.66,20.92,23.67,17.01,10.16,8.97,4.96
48.73684,2.40081,FR,17575,2968546,Villeneuve-le-Roi,2.5,3.06,8.86,11.11,14.14,20.31,20.57,23.33,16.66,9.81,8.62,4.61
48.93935,2.31478,FR,22036,2968555,Villeneuve-la-Garenne,2.81,3.26,8.93,11.34,14.37,20.4,20.7,23.35,16.81,9.89,8.78,4.72
44.77935,-0.56707,FR,30347,2968620,Villenave-d'Ornon,4.91,5.46,11.53,14.03,16.15,22.78,22.11,25.87,19.49,13.31,10.88,7.66
48.88333,2.5,FR,28001,2968653,Villemomble,2.55,3.01,8.76,11.14,14.13,20.21,20.57,23.2,16.63,9.68,8.62,4.56
48.7939,2.35992,FR,48048,2968705,Villejuif,2.32,2.82,8.55,10.9,13.93,20.05,20.33,23.05,16.44,9.53,8.39,4.35
45.98967,4.71961,FR,32994,2968748,Villefranche-sur-Saône,2.08,2.95,9.11,12.39,17.03,24.63,23.5,26.38,17.45,10.87,8.57,4.43
45.61278,5.15058,FR,19749,2968771,Villefontaine,1.42,1.91,8.61,11.7,16.4,24.84,23.27,26.23,17.35,10.26,7.43,3.22
48.70291,2.41357,FR,26692,2969109,Vigneux-sur-Seine,2.85,3.41,9.21,11.46,14.49,20.66,20.92,23.67,17.01,10.16,8.97,4.96
47.22186,2.0684,FR,29876,2969257,Vierzon,2.63,3.49,9.53,12.02,14.84,21.67,21.14,25.31,16.95,10.75,8.96,5.06
45.52569,4.87484,FR,32293,2969284,Vienne,2.11,2.81,8.93,12.25,17.13,25.15,23.71,26.39,17.61,11.09,8.66,4.4
46.12709,3.42577,FR,27019,2969392,Vichy,1.88,2.94,8.56,11.32,15.21,22.83,22.33,25.41,16.4,10.28,8.51,4.06
47.62604,6.14251,FR,19892,2969562,Vesoul,1.24,0.98,8.35,10.59,15.17,22.83,21.44,24.69,16.39,9.04,7.55,3.41
47.16878,-1.4729,FR,22921,2969612,Vertou,3.87,4.79,10.21,12.14,14.27,19.87,20.05,23.03,17.65,11.27,10.26,6.4
48.80359,2.13424,FR,85416,2969679,Versailles,2.44,2.99,8.63,10.75,13.77,19.85,20.02,22.78,16.32,9.49,8.43,4.44
48.74565,2.26796,FR,16789,2969692,Verrières-le-Buisson,2.56,3.13,8.89,11.1,14.12,20.28,20.52,23.31,16.66,9.82,8.65,4.65
49.09292,1.46332,FR,26037,2969766,Vernon,3.26,3.72,9.01,11.19,13.98,19.75,20.09,22.84,16.55,9.88,9.02,5.02
48.97388,1.9648,FR,16790,2969796,Verneuil-sur-Seine,2.85,3.34,8.86,11.12,14.06,19.92,20.22,22.83,16.53,9.7,8.75,4.76
49.15964,5.3829,FR,21798,2969958,Verdun,0.48,0.99,7.82,9.81,13.89,20.12,19.79,22.4,15.35,8.31,7.84,3.45
45.69706,4.88593,FR,57584,2970072,Vénissieux,1.89,2.61,8.72,12.14,16.89,24.96,23.33,26.35,17.41,10.78,8.31,4.19
47.79292,1.06556,FR,19226,2970110,Vendôme,2.82,3.67,9.5,11.67,14.45,20.89,20.97,24.8,17.27,10.55,8.97,5.1
43.72254,7.11183,FR,18668,2970148,Vence,5.48,4.3,8.79,10.96,17.07,23.01,23.67,25.39,18.81,13.24,10.41,7.04
48.78198,2.19395,FR,21741,2970203,Vélizy-Villacoublay,2.06,2.61,8.32,10.48,13.51,19.58,19.78,22.52,16.03,9.18,8.09,4.09
49.03333,2.03333,FR,20699,2970432,Vauréal,3.0,3.49,9.01,11.26,14.21,20.06,20.37,22.98,16.68,9.84,8.9,4.91
45.78693,4.9251,FR,37489,2970456,Vaulx-en-Velin,2.02,2.72,8.92,12.18,16.91,24.87,23.32,26.34,17.5,10.85,8.44,4.32
48.82345,2.29025,FR,26068,2970761,Vanves,2.67,3.19,8.9,11.19,14.22,20.31,20.57,23.3,16.74,9.84,8.71,4.69
47.65688,-2.76205,FR,54020,2970777,Vannes,5.06,5.58,10.15,11.63,13.59,18.53,19.09,21.87,17.2,11.63,10.83,7.24
48.66115,6.17114,FR,31785,2970797,Vandœuvre-lès-Nancy,0.3,0.36,7.49,9.94,14.59,21.36,20.47,23.55,15.63,8.29,7.49,2.82
43.57803,7.05451,FR,27286,2970962,Vallauris,6.57,5.39,9.42,11.79,17.7,23.52,24.23,26.06,19.65,14.1,11.26,8.0
50.35909,3.52506,FR,44821,2971041,Valenciennes,2.65,2.68,8.12,10.34,13.72,18.96,19.2,20.86,15.58,8.68,8.51,4.4
44.9256,4.90956,FR,63864,2971053,Valence,2.87,3.34,9.36,12.6,17.51,25.47,24.63,27.35,17.89,11.89,9.32,5.25
45.26582,1.77233,FR,16969,2971482,Tulle,3.35,4.05,10.19,12.34,15.02,23.17,21.67,25.08,17.33,11.39,9.84,5.79
48.30073,4.08524,FR,60785,2971549,Troyes,1.92,2.42,8.66,11.06,14.66,21.26,20.98,23.88,16.38,9.75,8.71,4.44
48.94956,2.5684,FR,35591,2971874,Tremblay-en-France,2.56,3.05,8.86,11.17,14.15,20.23,20.61,23.24,16.68,9.74,8.7,4.65
48.77413,2.01781,FR,28367,2972049,Trappes,2.22,2.76,8.31,10.45,13.48,19.59,19.76,22.55,16.06,9.24,8.18,4.18
47.39484,0.70398,FR,141621,2972191,Tours,3.17,4.04,9.87,12.19,14.87,21.15,21.07,25.01,17.62,11.03,9.39,5.53
43.58872,1.31922,FR,29124,2972237,Tournefeuille,4.3,5.07,10.69,12.9,16.0,23.89,23.72,26.72,19.18,13.14,10.84,6.79
49.63829,-1.56639,FR,18273,2972270,Tourlaville,6.25,5.85,8.94,10.4,12.44,16.61,17.98,19.37,16.75,12.13,10.89,7.79
50.72391,3.16117,FR,98656,2972284,Tourcoing,2.81,2.73,7.8,10.14,13.51,18.61,18.96,20.47,15.43,8.57,8.35,4.31
43.60426,1.44367,FR,493465,2972315,Toulouse,4.39,5.22,10.78,13.05,16.24,24.15,24.03,26.93,19.3,13.3,10.99,6.94
43.12442,5.92836,FR,168701,2972328,Toulon,7.72,7.08,10.64,13.25,18.44,24.51,25.2,27.36,20.83,15.23,12.72,9.45
48.68075,5.89115,FR,17680,2972350,Toul,0.51,0.72,7.8,10.14,14.71,21.34,20.64,23.6,15.83,8.56,7.83,3.17
48.85064,2.65078,FR,24386,2972444,Torcy,2.31,2.81,8.66,10.93,13.92,20.02,20.41,23.04,16.45,9.54,8.51,4.44
46.37049,6.47985,FR,31684,2972742,Thonon-les-Bains,1.3,1.26,8.0,10.05,14.81,22.51,21.17,24.42,16.34,9.61,7.75,3.46
49.35994,6.16044,FR,44311,2972811,Thionville,0.29,0.76,7.62,9.99,14.51,20.82,20.44,22.87,15.27,8.25,7.6,3.18
48.76496,2.3961,FR,29724,2972893,Thiais,2.67,3.17,8.9,11.25,14.29,20.4,20.68,23.39,16.79,9.88,8.74,4.7
49.65607,3.30107,FR,15475,2973146,Tergnier,2.39,2.53,8.4,10.7,13.82,19.33,19.74,21.95,16.19,9.14,8.49,4.38
49.02542,2.21691,FR,27271,2973258,Taverny,2.62,3.09,8.67,11.01,13.98,19.89,20.23,22.83,16.45,9.53,8.56,4.55
45.75499,4.78812,FR,16920,2973317,Tassin-la-Demi-Lune,1.63,2.41,8.43,11.83,16.54,24.4,22.97,25.85,17.01,10.47,8.06,3.93
43.23407,0.07139,FR,52106,2973385,Tarbes,3.75,4.07,10.15,11.61,13.99,21.14,20.3,23.09,17.08,11.8,9.47,5.8
44.80849,-0.58915,FR,42579,2973495,Talence,4.86,5.41,11.48,13.97,16.09,22.73,22.06,25.81,19.44,13.25,10.83,7.61
48.87143,2.22929,FR,44697,2973675,Suresnes,2.88,3.37,9.02,11.34,14.35,20.34,20.62,23.27,16.82,9.92,8.85,4.83
48.76872,2.53474,FR,25014,2973745,Sucy-en-Brie,2.39,2.89,8.69,10.99,14.01,20.14,20.44,23.16,16.53,9.63,8.5,4.46
48.58392,7.74553,FR,274845,2973783,Strasbourg,0.63,0.37,7.49,10.03,15.58,21.96,20.91,24.17,16.55,8.26,7.26,2.61
48.95,2.38333,FR,32601,2973841,Stains,2.86,3.31,8.99,11.29,14.27,20.22,20.54,23.12,16.73,9.82,8.86,4.84
49.40972,1.09005,FR,30619,2974153,Sotteville-lès-Rouen,3.46,3.88,8.96,11.14,13.66,19.06,19.38,22.11,16.35,9.89,9.09,5.15
44.01023,4.87381,FR,18681,2974188,Sorgues,3.97,4.84,10.46,13.35,19.38,26.6,26.56,28.86,19.39,13.69,10.64,6.64
48.98813,2.30156,FR,17436,2974385,Soisy-sous-Montmorency,2.82,3.29,8.94,11.23,14.21,20.13,20.45,23.03,16.66,9.75,8.79,4.78
49.38167,3.32361,FR,31100,2974389,Soissons,2.47,2.74,8.7,10.96,14.07,19.8,20.28,22.71,16.54,9.43,8.76,4.62
43.09174,5.82465,FR,34779,2974427,Six-Fours-les-Plages,7.62,6.98,10.54,13.15,18.34,24.41,25.1,27.26,20.73,15.13,12.62,9.35
50.36159,3.13113,FR,17682,2974494,Sin-le-Noble,2.91,2.82,8.13,10.37,13.69,18.84,19.23,21.0,15.66,8.77,8.53,4.44
45.88549,6.08831,FR,18590,2974655,Seynod,-0.81,0.13,7.42,9.76,14.58,22.12,20.73,23.44,15.55,8.44,5.69,0.97
48.82292,2.21757,FR,23724,2974678,Sèvres,2.66,3.21,8.92,11.08,14.11,20.18,20.38,23.12,16.63,9.78,8.69,4.69
48.94472,2.52746,FR,47334,2974681,Sevran,2.61,3.06,8.8,11.19,14.18,20.26,20.62,23.25,16.69,9.74,8.67,4.61
43.4028,3.69278,FR,40736,2974733,Sète,6.56,6.78,10.64,12.97,17.29,23.51,24.76,26.5,19.5,14.75,12.0,8.97
48.19738,3.28328,FR,28700,2975050,Sens,2.34,3.08,9.07,11.45,14.66,21.37,21.26,24.34,16.88,10.26,9.02,4.83
49.20724,2.58661,FR,19160,2975088,Senlis,2.5,2.93,8.64,10.8,13.82,19.6,19.96,22.41,16.27,9.35,8.53,4.48
48.26195,7.4489,FR,18941,2975233,Sélestat,0.57,0.15,7.82,10.4,15.79,22.47,21.31,24.39,16.72,8.26,7.13,2.56
49.70187,4.94028,FR,20620,2975349,Sedan,0.78,1.04,7.76,9.92,13.6,19.41,19.31,21.74,15.22,8.3,7.84,3.61
48.60749,7.74931,FR,32289,2975446,Schiltigheim,0.68,0.42,7.54,10.08,15.64,22.01,20.96,24.22,16.6,8.31,7.31,2.66
48.77644,2.29026,FR,21511,2975469,Sceaux,2.52,3.04,8.75,11.04,14.07,20.16,20.42,23.15,16.59,9.69,8.57,4.54
48.67677,2.34835,FR,39698,2975525,Savigny-sur-Orge,2.66,3.23,8.99,11.2,14.22,20.38,20.62,23.41,16.76,9.92,8.75,4.75
48.57409,2.58287,FR,25925,2975536,Savigny-le-Temple,2.47,2.99,8.78,11.13,14.16,20.54,20.83,23.61,16.66,9.88,8.63,4.62
47.25931,-0.07808,FR,33229,2975758,Saumur,3.51,4.39,10.0,12.43,14.8,20.89,20.8,24.45,17.76,11.14,9.76,5.86
48.9482,2.19169,FR,53980,2975921,Sartrouville,2.73,3.22,8.87,11.19,14.2,20.19,20.47,23.13,16.67,9.77,8.7,4.68
49.10995,7.06747,FR,24446,2975964,Sarreguemines,0.31,0.53,7.5,9.94,14.85,21.4,20.46,23.63,15.64,8.14,7.53,2.92
48.99739,2.37821,FR,57979,2976043,Sarcelles,2.71,3.17,8.84,11.14,14.12,20.07,20.39,22.98,16.58,9.67,8.71,4.69
47.95013,1.87601,FR,16243,2976050,Saran,2.35,3.22,9.24,11.36,14.22,20.74,20.81,24.44,16.87,10.16,8.58,4.73
48.96667,2.25,FR,26869,2976179,Sannois,2.47,2.94,8.59,10.88,13.85,19.78,20.1,22.68,16.31,9.4,8.44,4.42
43.11985,5.80155,FR,19166,2976258,Sanary-sur-Mer,7.77,7.13,10.68,13.3,18.49,24.56,25.25,27.41,20.88,15.28,12.77,9.5
43.64229,5.09478,FR,41397,2976341,Salon-de-Provence,4.22,4.73,9.98,13.15,19.18,25.95,26.35,28.35,19.46,13.97,10.77,6.73
45.94423,6.63162,FR,16725,2976406,Sallanches,-2.14,-2.62,6.77,8.94,15.2,22.77,21.46,23.59,16.11,7.56,5.01,-0.59
47.20768,-1.50332,FR,29238,2976984,Saint-Sébastien-sur-Loire,3.97,4.89,10.31,12.24,14.37,19.97,20.15,23.13,17.75,11.37,10.36,6.5
43.42332,6.7735,FR,34918,2977246,Saint-Raphaël,7.87,6.73,10.37,13.03,18.62,24.44,25.3,27.17,20.81,15.05,12.42,9.18
49.84889,3.28757,FR,55407,2977295,Saint-Quentin,2.11,2.23,8.06,10.33,13.47,18.94,19.27,21.43,15.76,8.76,8.15,4.05
45.69651,4.94385,FR,41641,2977356,Saint-Priest,1.74,2.46,8.57,11.99,16.73,24.81,23.18,26.21,17.26,10.63,8.16,4.03
51.03116,2.33983,FR,23635,2977388,Saint-Pol-sur-Mer,4.09,3.61,7.9,10.31,13.23,18.07,19.01,20.28,16.09,9.53,8.99,5.2
47.38623,0.74849,FR,15284,2977491,Saint-Pierre-des-Corps,3.17,4.04,9.87,12.19,14.87,21.15,21.07,25.01,17.62,11.03,9.39,5.53
49.04353,2.12134,FR,22977,2977800,Saint-Ouen-l'Aumône,3.01,3.49,9.05,11.34,14.29,20.17,20.5,23.1,16.77,9.88,8.93,4.93
48.90654,2.33339,FR,39353,2977824,Saint-Ouen,2.75,3.21,8.88,11.28,14.32,20.35,20.65,23.29,16.77,9.84,8.73,4.67
50.74834,2.26091,FR,18250,2977845,Saint-Omer,3.59,3.38,8.06,10.33,13.38,18.23,18.91,20.6,15.79,9.05,8.74,4.76
47.27506,-2.2179,FR,67054,2977921,Saint-Nazaire,4.97,5.58,10.39,12.14,14.22,19.3,19.79,22.4,17.59,12.04,11.0,7.4
48.63479,2.30831,FR,20824,2977952,Saint-Michel-sur-Orge,2.64,3.25,8.99,11.24,14.23,20.51,20.81,23.65,16.8,10.0,8.75,4.76
44.8955,-0.71779,FR,29742,2978072,Saint-Médard-en-Jalles,4.87,5.44,11.49,13.93,16.01,22.53,21.91,25.71,19.37,13.2,10.82,7.66
43.44813,5.86081,FR,15225,2978100,Saint-Maximin-la-Sainte-Baume,3.45,3.3,8.5,11.64,17.89,24.2,25.08,26.74,18.78,12.64,9.54,5.18
48.79395,2.49323,FR,75402,2978179,Saint-Maur-des-Fossés,2.79,3.29,9.09,11.39,14.41,20.54,20.84,23.56,16.93,10.03,8.9,4.86
45.1787,5.76281,FR,35528,2978317,Saint-Martin-d'Hères,1.18,1.41,9.67,12.11,17.12,24.59,23.77,26.22,18.03,11.17,8.03,3.42
48.83864,2.41579,FR,21261,2978621,Saint-Mandé,2.67,3.17,8.9,11.25,14.29,20.4,20.68,23.39,16.79,9.88,8.74,4.7
48.64738,-2.00877,FR,50676,2978640,Saint-Malo,5.3,5.6,9.66,11.21,13.05,17.49,18.51,20.13,17.06,11.86,10.75,7.26
43.27766,5.43133,FR,16084,2978722,Saint-Loup,6.54,6.5,10.71,13.27,18.41,24.37,25.14,27.09,20.1,14.92,12.42,8.78
47.59206,7.55923,FR,20871,2978742,Saint-Louis,0.7,-0.76,7.41,9.67,15.25,23.18,21.66,24.87,16.27,7.77,6.16,2.03
49.11624,-1.09031,FR,21722,2978758,Saint-Lô,4.3,4.76,9.49,11.16,13.15,18.17,18.82,20.98,16.46,10.79,10.05,6.13
49.01667,2.25,FR,16075,2978768,Saint-Leu-la-Forêt,2.57,3.04,8.69,10.98,13.95,19.88,20.2,22.78,16.41,9.5,8.54,4.52
46.7306,4.50083,FR,29278,2978771,Saint-Leu,1.3,1.92,8.22,10.72,14.92,22.55,21.62,25.08,16.14,9.25,7.54,3.37
43.67323,7.19,FR,29516,2978891,Saint-Laurent-du-Var,7.17,5.99,10.02,12.39,18.3,24.12,24.83,26.66,20.25,14.7,11.86,8.6
47.91127,1.86483,FR,17522,2979316,Saint-Jean-de-la-Ruelle,2.38,3.26,9.3,11.5,14.38,20.87,20.87,24.57,16.9,10.29,8.64,4.79
47.91303,1.97705,FR,19874,2979341,Saint-Jean-de-Braye,2.36,3.25,9.26,11.5,14.41,20.91,20.87,24.54,16.87,10.28,8.64,4.78
47.21154,-1.651,FR,46898,2979590,Saint-Herblain,4.14,4.97,10.33,12.16,14.27,19.74,20.0,22.85,17.64,11.48,10.47,6.66
48.9735,2.28729,FR,19737,2979627,Saint-Gratien,2.82,3.29,8.94,11.23,14.21,20.13,20.45,23.03,16.66,9.75,8.79,4.78
48.89643,2.0904,FR,41142,2979783,Saint-Germain-en-Laye,2.59,3.11,8.71,10.96,13.94,19.92,20.17,22.85,16.45,9.57,8.55,4.55
45.69542,4.79316,FR,20883,2979985,Saint-Genis-Laval,1.79,2.57,8.53,12.03,16.73,24.65,23.18,26.01,17.19,10.68,8.25,4.06
45.70875,4.85325,FR,16053,2980097,Saint-Fons,2.04,2.76,8.87,12.29,17.03,25.11,23.48,26.51,17.56,10.93,8.46,4.33
49.37794,1.10467,FR,28953,2980236,Saint-Étienne-du-Rouvray,3.46,3.88,8.96,11.14,13.66,19.06,19.38,22.11,16.35,9.89,9.09,5.15
45.43389,4.39,FR,176280,2980291,Saint-Étienne,0.09,0.98,6.85,9.99,14.64,22.35,21.38,24.16,15.02,9.1,6.83,2.51
45.74742,-0.63489,FR,29512,2980340,Saintes,4.34,5.3,11.05,13.25,15.32,21.59,21.27,25.24,18.99,12.64,10.72,7.33
43.26196,5.40125,FR,19997,2980467,Sainte-Marguerite,6.74,6.7,10.91,13.47,18.61,24.57,25.34,27.29,20.3,15.12,12.62,8.98
48.64682,2.31965,FR,33689,2980558,Sainte-Geneviève-des-Bois,2.59,3.2,8.94,11.19,14.18,20.46,20.76,23.6,16.75,9.95,8.7,4.71
45.73375,4.80259,FR,21893,2980586,Sainte-Foy-lès-Lyon,1.43,2.22,8.18,11.68,16.38,24.3,22.83,25.66,16.84,10.33,7.9,3.71
