name,latitude,longitude,country,population,id,city,jan,feb,mar,apr,may,jun,jul,aug,sep,oct,nov,dec
Vittoria,36.95151,14.52788,IT,50852,2522713,Vittoria,0.02,0.17,0.06,0.01,0.03,0.04,0.0,0.05,0.03,0.23,0.11,0.03
Villabate,38.07789,13.44275,IT,19031,2522767,Villabate,0.04,0.23,0.13,0.04,0.07,0.06,0.0,0.12,0.06,0.2,0.1,0.06
Vibo Valentia,38.67618,16.10094,IT,19263,2522776,Vibo Valentia,0.15,0.27,0.22,0.04,0.04,0.1,0.04,0.11,0.02,0.15,0.25,0.13
Trapani,38.0176,12.53617,IT,67531,2522876,Trapani,0.05,0.21,0.1,0.01,0.04,0.01,0.0,0.04,0.06,0.17,0.26,0.03
Termini Imerese,37.98225,13.69729,IT,22957,2522960,Termini Imerese,0.04,0.23,0.13,0.04,0.07,0.06,0.0,0.12,0.06,0.2,0.1,0.06
Siracusa,37.07542,15.28664,IT,121605,2523083,Siracusa,0.02,0.16,0.07,0.04,0.02,0.04,0.0,0.14,0.06,0.36,0.12,0.04
Sinnai,39.30286,9.20283,IT,15791,2523087,Sinnai,0.02,0.06,0.16,0.04,0.13,0.04,0.0,0.06,0.05,0.18,0.11,0.02
Siderno,38.26993,16.29607,IT,15651,2523113,Siderno,0.04,0.27,0.1,0.01,0.02,0.04,0.0,0.07,0.0,0.42,0.16,0.07
Sestu,39.29846,9.09248,IT,18191,2523136,Sestu,0.02,0.07,0.18,0.06,0.25,0.05,0.0,0.05,0.05,0.15,0.16,0.01
Selargius,39.25779,9.16323,IT,23285,2523166,Selargius,0.02,0.06,0.16,0.04,0.13,0.04,0.0,0.06,0.05,0.18,0.11,0.02
Scordia,37.29548,14.84058,IT,16645,2523180,Scordia,0.02,0.16,0.07,0.04,0.02,0.04,0.0,0.14,0.06,0.36,0.12,0.04
Scicli,36.79014,14.7028,IT,16109,2523192,Scicli,0.02,0.17,0.06,0.01,0.03,0.04,0.0,0.05,0.03,0.23,0.11,0.03
Sciacca,37.50693,13.08399,IT,40569,2523194,Sciacca,0.05,0.21,0.1,0.02,0.05,0.02,0.0,0.06,0.05,0.15,0.22,0.03
San Giovanni la Punta,37.5769,15.09371,IT,22046,2523460,San Giovanni la Punta,0.02,0.17,0.07,0.04,0.03,0.04,0.0,0.11,0.06,0.37,0.13,0.04
San Giovanni in Fiore,39.25446,16.69699,IT,17358,2523461,San Giovanni in Fiore,0.07,0.24,0.21,0.07,0.15,0.22,0.12,0.24,0.09,0.39,0.22,0.09
San Cataldo,37.48412,13.98542,IT,22079,2523513,San Cataldo,0.04,0.21,0.13,0.06,0.09,0.09,0.0,0.16,0.06,0.27,0.11,0.06
Sambiase,38.96667,16.28333,IT,20000,2523535,Sambiase,0.12,0.28,0.18,0.03,0.02,0.07,0.02,0.07,0.01,0.19,0.18,0.12
Rossano Stazione,39.59855,16.63485,IT,23824,2523577,Rossano Stazione,0.05,0.28,0.11,0.02,0.05,0.09,0.01,0.05,0.02,0.32,0.16,0.09
Rosolini,36.82145,14.95132,IT,19721,2523581,Rosolini,0.01,0.14,0.07,0.04,0.02,0.08,0.0,0.11,0.08,0.3,0.14,0.02
Ribera,37.49773,13.26676,IT,17664,2523619,Ribera,0.05,0.23,0.09,0.01,0.03,0.05,0.0,0.03,0.04,0.17,0.2,0.04
Reggio Calabria,38.11047,15.66129,IT,182455,2523630,Reggio Calabria,0.17,0.33,0.18,0.04,0.03,0.14,0.06,0.13,0.01,0.17,0.16,0.19
Ragusa,36.92574,14.72443,IT,74251,2523650,Ragusa,0.02,0.17,0.07,0.03,0.03,0.06,0.0,0.09,0.05,0.26,0.1,0.03
Quattromiglia,39.34474,16.23802,IT,22889,2523664,Quattromiglia,0.13,0.3,0.26,0.03,0.04,0.07,0.02,0.08,0.04,0.14,0.27,0.14
Quartu Sant'Elena,39.22935,9.25004,IT,66620,2523665,Quartu Sant'Elena,0.02,0.06,0.16,0.04,0.13,0.04,0.0,0.06,0.05,0.18,0.11,0.02
Pozzallo,36.73028,14.84672,IT,18166,2523693,Pozzallo,0.02,0.17,0.06,0.01,0.03,0.04,0.0,0.05,0.03,0.23,0.11,0.03
Porto Empedocle,37.28942,13.52494,IT,16574,2523705,Porto Empedocle,0.03,0.22,0.07,0.01,0.03,0.04,0.0,0.03,0.05,0.25,0.18,0.03
Piazza Armerina,37.38417,14.36921,IT,17736,2523796,Piazza Armerina,0.04,0.22,0.13,0.06,0.08,0.12,0.0,0.16,0.07,0.27,0.12,0.06
Paternò,37.56675,14.90254,IT,46030,2523866,Paternò,0.01,0.14,0.06,0.03,0.02,0.07,0.0,0.07,0.06,0.26,0.11,0.03
Partinico,38.04657,13.11785,IT,28708,2523871,Partinico,0.03,0.22,0.12,0.05,0.08,0.07,0.0,0.17,0.04,0.21,0.16,0.04
Palmi,38.35943,15.85155,IT,18556,2523902,Palmi,0.17,0.33,0.18,0.04,0.03,0.14,0.06,0.13,0.01,0.17,0.16,0.19
Palma di Montechiaro,37.19066,13.76603,IT,22654,2523908,Palma di Montechiaro,0.03,0.22,0.07,0.01,0.03,0.04,0.0,0.03,0.05,0.25,0.18,0.03
Palermo,38.1166,13.3636,IT,648260,2523920,Palermo,0.03,0.22,0.12,0.05,0.08,0.07,0.0,0.17,0.04,0.21,0.16,0.04
Palagonia,37.32955,14.74474,IT,16227,2523927,Palagonia,0.02,0.16,0.07,0.04,0.02,0.04,0.0,0.14,0.06,0.36,0.12,0.04
Pachino,36.71522,15.09019,IT,20493,2523938,Pachino,0.01,0.14,0.07,0.04,0.02,0.08,0.0,0.11,0.08,0.3,0.14,0.02
Oristano,39.9036,8.59257,IT,31671,2523964,Oristano,0.04,0.11,0.21,0.05,0.21,0.07,0.0,0.07,0.04,0.14,0.19,0.05
Noto,36.89244,15.06977,IT,18421,2523998,Noto,0.02,0.16,0.07,0.04,0.02,0.04,0.0,0.14,0.06,0.36,0.12,0.04
Niscemi,37.14649,14.39381,IT,26893,2524006,Niscemi,0.02,0.18,0.07,0.04,0.04,0.04,0.0,0.09,0.04,0.35,0.13,0.04
Nicastro,38.97089,16.31285,IT,40000,2524013,Nicastro,0.12,0.28,0.18,0.03,0.02,0.07,0.02,0.07,0.01,0.19,0.18,0.12
Monserrato,39.25642,9.1444,IT,20193,2524084,Monserrato,0.02,0.06,0.16,0.04,0.13,0.04,0.0,0.06,0.05,0.18,0.11,0.02
Monreale,38.08125,13.28947,IT,21964,2524085,Monreale,0.04,0.23,0.13,0.05,0.1,0.07,0.0,0.16,0.06,0.22,0.13,0.05
Modica,36.85868,14.75966,IT,54456,2524119,Modica,0.02,0.17,0.07,0.03,0.03,0.06,0.0,0.09,0.05,0.26,0.1,0.03
Misterbianco,37.51803,15.00913,IT,45542,2524123,Misterbianco,0.01,0.14,0.06,0.03,0.02,0.07,0.0,0.07,0.06,0.26,0.11,0.03
Misilmeri,38.03183,13.44795,IT,19171,2524126,Misilmeri,0.04,0.23,0.13,0.04,0.07,0.06,0.0,0.12,0.06,0.2,0.1,0.06
Milazzo,38.22008,15.24023,IT,31771,2524155,Milazzo,0.05,0.27,0.11,0.03,0.05,0.11,0.0,0.11,0.03,0.31,0.15,0.06
Messina,38.19394,15.55256,IT,219948,2524170,Messina,0.17,0.33,0.18,0.04,0.03,0.14,0.06,0.13,0.01,0.17,0.16,0.19
Mazara del Vallo,37.65535,12.58986,IT,51534,2524205,Mazara del Vallo,0.05,0.21,0.1,0.01,0.04,0.01,0.0,0.04,0.06,0.17,0.26,0.03
Mascalucia,37.57465,15.04964,IT,32179,2524236,Mascalucia,0.02,0.17,0.07,0.04,0.03,0.04,0.0,0.11,0.06,0.37,0.13,0.04
Marsala,37.7992,12.4367,IT,77915,2524245,Marsala,0.05,0.21,0.1,0.01,0.04,0.01,0.0,0.04,0.06,0.17,0.26,0.03
Licata,37.10267,13.93972,IT,36537,2524393,Licata,0.03,0.22,0.07,0.01,0.03,0.04,0.0,0.03,0.05,0.25,0.18,0.03
Lentini,37.28556,14.99737,IT,24102,2524410,Lentini,0.02,0.16,0.07,0.04,0.02,0.04,0.0,0.14,0.06,0.36,0.12,0.04
Iglesias,39.3092,8.5372,IT,22659,2524533,Iglesias,0.02,0.06,0.19,0.08,0.24,0.07,0.0,0.12,0.05,0.12,0.17,0.02
Gioia Tauro,38.4251,15.8975,IT,18769,2524606,Gioia Tauro,0.14,0.28,0.15,0.02,0.02,0.12,0.04,0.11,0.01,0.15,0.14,0.15
Giarre,37.7244,15.18165,IT,24138,2524618,Giarre,0.01,0.14,0.06,0.03,0.02,0.07,0.0,0.07,0.06,0.26,0.11,0.03
Gela,37.07381,14.24038,IT,75001,2524653,Gela,0.03,0.23,0.07,0.03,0.05,0.03,0.0,0.05,0.04,0.28,0.16,0.03
Floridia,37.08343,15.15332,IT,22089,2524734,Floridia,0.02,0.16,0.07,0.04,0.02,0.04,0.0,0.14,0.06,0.36,0.12,0.04
Favara,37.31754,13.66226,IT,32110,2524786,Favara,0.03,0.22,0.09,0.03,0.04,0.07,0.0,0.06,0.05,0.2,0.15,0.03
Enna,37.5655,14.27433,IT,22998,2524819,Enna,0.04,0.22,0.12,0.08,0.07,0.14,0.0,0.15,0.08,0.25,0.11,0.06
Crotone,39.08077,17.12764,IT,64603,2524881,Crotone,0.04,0.29,0.13,0.02,0.07,0.13,0.01,0.09,0.03,0.43,0.13,0.09
Cosenza,39.2989,16.25307,IT,63852,2524907,Cosenza,0.13,0.3,0.26,0.03,0.04,0.07,0.02,0.08,0.04,0.14,0.27,0.14
Comiso,36.94893,14.60731,IT,26298,2524955,Comiso,0.02,0.17,0.06,0.01,0.03,0.04,0.0,0.05,0.03,0.23,0.11,0.03
Catanzaro,38.88247,16.60086,IT,78970,2525059,Catanzaro,0.12,0.28,0.18,0.03,0.02,0.07,0.02,0.07,0.01,0.19,0.18,0.12
Catania,37.49223,15.07041,IT,311584,2525068,Catania,0.02,0.16,0.07,0.04,0.02,0.04,0.0,0.14,0.06,0.36,0.12,0.04
Castrovillari,39.81632,16.20183,IT,20334,2525070,Castrovillari,0.04,0.21,0.21,0.03,0.05,0.11,0.08,0.15,0.05,0.19,0.16,0.08
Castelvetrano,37.68081,12.79194,IT,31680,2525083,Castelvetrano,0.05,0.21,0.1,0.02,0.05,0.02,0.0,0.06,0.05,0.15,0.22,0.03
Casarano,40.01131,18.16237,IT,19359,2525207,Casarano,0.07,0.31,0.1,0.0,0.05,0.11,0.01,0.04,0.01,0.16,0.2,0.06
Carini,38.1324,13.18274,IT,35082,2525350,Carini,0.03,0.22,0.12,0.05,0.08,0.07,0.0,0.17,0.04,0.21,0.16,0.04
Carbonia,39.16465,8.5213,IT,21664,2525362,Carbonia,0.02,0.06,0.19,0.08,0.24,0.07,0.0,0.12,0.05,0.12,0.17,0.02
Canicattì,37.35842,13.84786,IT,32918,2525405,Canicattì,0.02,0.21,0.09,0.05,0.04,0.08,0.0,0.07,0.05,0.24,0.12,0.03
Caltanissetta,37.49025,14.06216,IT,62797,2525448,Caltanissetta,0.02,0.21,0.09,0.05,0.04,0.09,0.0,0.07,0.04,0.27,0.12,0.02
Caltagirone,37.23785,14.51551,IT,38391,2525450,Caltagirone,0.02,0.19,0.08,0.04,0.04,0.1,0.0,0.07,0.04,0.28,0.11,0.02
Cagliari,39.23054,9.11917,IT,149257,2525473,Cagliari,0.02,0.07,0.18,0.06,0.25,0.05,0.0,0.05,0.05,0.15,0.16,0.01
Bronte,37.78863,14.83377,IT,19074,2525498,Bronte,0.04,0.21,0.11,0.09,0.07,0.15,0.0,0.17,0.09,0.25,0.11,0.06
Biancavilla,37.64442,14.86685,IT,23188,2525560,Biancavilla,0.06,0.24,0.12,0.06,0.07,0.12,0.01,0.21,0.1,0.16,0.09,0.08
Belpasso,37.59192,14.97985,IT,16319,2525571,Belpasso,0.04,0.21,0.11,0.09,0.07,0.15,0.0,0.17,0.09,0.25,0.11,0.06
Barcellona Pozzo di Gotto,38.14772,15.21469,IT,34598,2525597,Barcellona Pozzo di Gotto,0.05,0.27,0.11,0.03,0.05,0.11,0.0,0.11,0.03,0.31,0.15,0.06
Bagheria,38.07892,13.51237,IT,53149,2525628,Bagheria,0.04,0.23,0.13,0.04,0.07,0.06,0.0,0.12,0.06,0.2,0.1,0.06
Avola,36.9084,15.13937,IT,28666,2525643,Avola,0.02,0.16,0.07,0.04,0.02,0.04,0.0,0.14,0.06,0.36,0.12,0.04
Augusta,37.24065,15.22121,IT,30723,2525646,Augusta,0.02,0.16,0.07,0.04,0.02,0.04,0.0,0.14,0.06,0.36,0.12,0.04
Assemini,39.29123,8.99879,IT,25257,2525655,Assemini,0.02,0.07,0.18,0.06,0.25,0.05,0.0,0.05,0.05,0.15,0.16,0.01
Alcamo,37.9779,12.96473,IT,44431,2525755,Alcamo,0.03,0.22,0.12,0.05,0.08,0.07,0.0,0.17,0.04,0.21,0.16,0.04
Agrigento,37.31065,13.57661,IT,32514,2525764,Agrigento,0.05,0.23,0.09,0.01,0.03,0.05,0.0,0.03,0.04,0.17,0.2,0.04
Adrano,37.66358,14.83283,IT,34446,2525769,Adrano,0.06,0.24,0.12,0.06,0.07,0.12,0.01,0.21,0.1,0.16,0.09,0.08
Acireale,37.60886,15.16577,IT,49477,2525790,Acireale,0.02,0.16,0.07,0.04,0.02,0.04,0.0,0.14,0.06,0.36,0.12,0.04
Aci Catena,37.60614,15.14165,IT,24663,2525791,Aci Catena,0.02,0.16,0.07,0.04,0.02,0.04,0.0,0.14,0.06,0.36,0.12,0.04
Aci Castello,37.55564,15.14535,IT,17588,2525792,Aci Castello,0.02,0.16,0.07,0.04,0.02,0.04,0.0,0.14,0.06,0.36,0.12,0.04
Zola Predosa,44.48967,11.21831,IT,15965,3163853,Zola Predosa,0.02,0.19,0.15,0.04,0.16,0.14,0.06,0.08,0.09,0.12,0.08,0.03
Vomero,40.84282,14.23075,IT,44791,3163948,Vomero,0.12,0.35,0.33,0.05,0.12,0.05,0.02,0.09,0.05,0.26,0.33,0.1
Voghera,44.99151,9.01175,IT,38464,3163995,Voghera,0.05,0.06,0.14,0.12,0.24,0.13,0.08,0.08,0.05,0.24,0.13,0.01
Vittorio Veneto,45.98026,12.30065,IT,24789,3164028,Vittorio Veneto,0.1,0.08,0.19,0.13,0.14,0.13,0.1,0.12,0.07,0.25,0.14,0.01
Viterbo,42.41937,12.1056,IT,47134,3164039,Viterbo,0.07,0.16,0.23,0.07,0.19,0.05,0.02,0.08,0.04,0.23,0.27,0.07
Vimodrone,45.51461,9.28772,IT,17072,3164080,Vimodrone,0.06,0.05,0.2,0.18,0.2,0.09,0.16,0.16,0.1,0.22,0.19,0.01
Vimercate,45.61545,9.36801,IT,22727,3164083,Vimercate,0.06,0.05,0.2,0.18,0.2,0.09,0.16,0.16,0.1,0.22,0.19,0.01
Lancenigo-Villorba,45.71289,12.25697,IT,15265,3164090,Lancenigo-Villorba,0.1,0.09,0.2,0.13,0.17,0.12,0.06,0.14,0.08,0.24,0.16,0.01
Villaricca,40.92006,14.19339,IT,25074,3164153,Villaricca,0.1,0.39,0.34,0.05,0.13,0.05,0.02,0.06,0.06,0.26,0.38,0.1
Villafranca di Verona,45.35405,10.84462,IT,15895,3164241,Villafranca di Verona,0.03,0.08,0.14,0.11,0.19,0.14,0.09,0.14,0.09,0.13,0.11,0.01
Vignola,44.48383,11.01096,IT,22397,3164342,Vignola,0.02,0.12,0.15,0.07,0.18,0.12,0.07,0.12,0.1,0.1,0.1,0.01
Vigevano,45.31407,8.85437,IT,57970,3164376,Vigevano,0.08,0.07,0.17,0.15,0.27,0.11,0.11,0.07,0.06,0.25,0.17,0.01
Vicenza,45.54672,11.5475,IT,111980,3164419,Vicenza,0.04,0.1,0.17,0.08,0.17,0.15,0.14,0.16,0.09,0.13,0.12,0.01
Viareggio,43.86693,10.2502,IT,62169,3164433,Viareggio,0.08,0.15,0.25,0.1,0.17,0.05,0.03,0.04,0.06,0.19,0.12,0.08
Viadana,44.93553,10.51898,IT,20013,3164440,Viadana,0.03,0.11,0.15,0.09,0.21,0.15,0.09,0.16,0.11,0.13,0.11,0.01
Verona,45.4299,10.98444,IT,258031,3164527,Verona,0.04,0.1,0.17,0.08,0.17,0.15,0.14,0.16,0.09,0.13,0.12,0.01
Vercelli,45.32163,8.41989,IT,45875,3164565,Vercelli,0.11,0.08,0.17,0.17,0.32,0.12,0.14,0.11,0.06,0.26,0.19,0.01
Ventimiglia,43.78956,7.60872,IT,24120,3164582,Ventimiglia,0.13,0.09,0.19,0.15,0.12,0.12,0.04,0.06,0.04,0.39,0.2,0.07
Venice,45.43713,12.33265,IT,51298,3164603,Venice,0.04,0.14,0.19,0.07,0.16,0.13,0.11,0.19,0.1,0.11,0.13,0.02
Venaria Reale,45.12597,7.63136,IT,33531,3164617,Venaria Reale,0.23,0.08,0.16,0.19,0.26,0.12,0.07,0.1,0.03,0.3,0.26,0.01
Velletri,41.68573,12.77753,IT,52911,3164630,Velletri,0.08,0.18,0.31,0.09,0.21,0.07,0.02,0.1,0.05,0.27,0.23,0.08
Vasto,42.1115,14.70649,IT,41409,3164672,Vasto,0.03,0.19,0.1,0.02,0.11,0.09,0.03,0.02,0.07,0.17,0.11,0.09
Varese,45.82058,8.82511,IT,80588,3164699,Varese,0.16,0.04,0.24,0.24,0.2,0.1,0.15,0.13,0.06,0.46,0.29,0.01
Valenzano,41.04376,16.88491,IT,16101,3164919,Valenzano,0.07,0.12,0.14,0.03,0.09,0.1,0.03,0.09,0.02,0.14,0.12,0.06
Valenza,45.01242,8.64379,IT,17305,3164920,Valenza,0.05,0.08,0.13,0.1,0.17,0.08,0.08,0.06,0.03,0.27,0.14,0.01
Valdagno,45.64498,11.29886,IT,22555,3164954,Valdagno,0.04,0.06,0.15,0.15,0.21,0.14,0.11,0.13,0.08,0.17,0.13,0.01
Udine,46.0693,13.23715,IT,100170,3165072,Udine,0.12,0.1,0.25,0.11,0.11,0.08,0.06,0.12,0.11,0.32,0.2,0.02
Triggiano,41.06549,16.92501,IT,26811,3165178,Triggiano,0.07,0.12,0.14,0.03,0.09,0.1,0.03,0.09,0.02,0.14,0.12,0.06
Trieste,45.64953,13.77678,IT,204338,3165185,Trieste,0.12,0.16,0.22,0.1,0.14,0.13,0.09,0.09,0.09,0.16,0.15,0.04
Trezzano sul Naviglio,45.42212,9.06342,IT,20001,3165198,Trezzano sul Naviglio,0.09,0.06,0.21,0.22,0.28,0.1,0.23,0.17,0.1,0.28,0.22,0.01
Treviso,45.66673,12.2416,IT,85760,3165201,Treviso,0.1,0.09,0.2,0.13,0.17,0.12,0.06,0.14,0.08,0.24,0.16,0.01
Treviglio,45.52081,9.59102,IT,24937,3165207,Treviglio,0.04,0.05,0.19,0.15,0.18,0.1,0.16,0.16,0.11,0.19,0.16,0.01
Trentola-Ducenta,40.97517,14.1749,IT,17056,3165240,Trentola-Ducenta,0.1,0.39,0.34,0.05,0.13,0.05,0.02,0.06,0.06,0.26,0.38,0.1
Trento,46.06787,11.12108,IT,120709,3165243,Trento,0.06,0.04,0.17,0.19,0.3,0.19,0.2,0.19,0.11,0.28,0.16,0.01
Trecate,45.43399,8.7364,IT,19430,3165275,Trecate,0.11,0.06,0.2,0.21,0.29,0.12,0.17,0.1,0.08,0.3,0.21,0.01
Trani,41.27733,16.41011,IT,53981,3165322,Trani,0.05,0.09,0.15,0.01,0.06,0.09,0.02,0.07,0.04,0.13,0.09,0.06
Tradate,45.70843,8.90763,IT,17154,3165340,Tradate,0.1,0.04,0.21,0.24,0.22,0.11,0.21,0.16,0.09,0.34,0.23,0.01
Tortona,44.89784,8.86374,IT,22743,3165370,Tortona,0.05,0.08,0.13,0.1,0.17,0.08,0.08,0.06,0.03,0.27,0.14,0.01
Torremaggiore,41.68894,15.29408,IT,16955,3165435,Torremaggiore,0.03,0.13,0.13,0.03,0.13,0.11,0.05,0.08,0.06,0.15,0.1,0.06
Torre del Greco,40.78931,14.36806,IT,85332,3165456,Torre del Greco,0.11,0.38,0.28,0.04,0.08,0.03,0.01,0.06,0.04,0.25,0.45,0.11
Torre Annunziata,40.75337,14.45251,IT,43521,3165475,Torre Annunziata,0.1,0.39,0.34,0.05,0.13,0.05,0.02,0.06,0.06,0.26,0.38,0.1
Turin,45.07049,7.68682,IT,847287,3165524,Turin,0.21,0.08,0.14,0.17,0.25,0.16,0.06,0.09,0.01,0.26,0.22,0.01
Tolentino,43.20918,13.28524,IT,16504,3165595,Tolentino,0.04,0.19,0.14,0.04,0.13,0.1,0.03,0.07,0.1,0.07,0.08,0.06
Tivoli,41.95952,12.8016,IT,22018,3165624,Tivoli,0.08,0.18,0.31,0.09,0.21,0.07,0.02,0.1,0.05,0.27,0.23,0.08
Thiene,45.7088,11.47959,IT,21145,3165698,Thiene,0.05,0.08,0.18,0.12,0.21,0.14,0.13,0.15,0.09,0.18,0.14,0.01
Terzigno,40.804,14.49309,IT,17138,3165737,Terzigno,0.12,0.35,0.33,0.05,0.12,0.05,0.02,0.09,0.05,0.26,0.33,0.1
Terracina,41.29174,13.24359,IT,30980,3165762,Terracina,0.07,0.25,0.29,0.06,0.15,0.06,0.02,0.07,0.04,0.3,0.37,0.1
Terni,42.56335,12.64329,IT,111189,3165771,Terni,0.08,0.19,0.32,0.09,0.17,0.06,0.02,0.06,0.04,0.28,0.24,0.08
Termoli,41.99994,14.99389,IT,31044,3165773,Termoli,0.03,0.19,0.1,0.02,0.11,0.09,0.03,0.02,0.07,0.17,0.11,0.09
Terlizzi,41.12905,16.54536,IT,25811,3165788,Terlizzi,0.05,0.09,0.15,0.01,0.06,0.09,0.02,0.07,0.04,0.13,0.09,0.06
Teramo,42.66123,13.69901,IT,54338,3165803,Teramo,0.04,0.17,0.13,0.05,0.24,0.14,0.09,0.1,0.1,0.12,0.14,0.07
Taranto,40.46438,17.24707,IT,198585,3165926,Taranto,0.08,0.17,0.12,0.01,0.09,0.08,0.02,0.06,0.02,0.16,0.13,0.08
Suzzara,44.99242,10.74407,IT,16571,3166006,Suzzara,0.03,0.11,0.15,0.08,0.2,0.15,0.1,0.16,0.1,0.11,0.11,0.01
Sulmona,42.04945,13.92578,IT,21086,3166034,Sulmona,0.04,0.2,0.1,0.06,0.26,0.15,0.08,0.1,0.12,0.21,0.17,0.08
Spoleto,42.74071,12.73899,IT,19266,3166236,Spoleto,0.07,0.19,0.33,0.09,0.21,0.06,0.02,0.07,0.04,0.23,0.2,0.08
Sora,41.71829,13.61356,IT,23758,3166387,Sora,0.08,0.29,0.34,0.09,0.17,0.09,0.02,0.07,0.03,0.33,0.46,0.11
Sondrio,46.16852,9.87134,IT,19208,3166397,Sondrio,0.08,0.02,0.17,0.25,0.35,0.14,0.21,0.27,0.13,0.44,0.23,0.01
Somma Vesuviana,40.87329,14.43865,IT,32484,3166404,Somma Vesuviana,0.12,0.35,0.33,0.05,0.12,0.05,0.02,0.09,0.05,0.26,0.33,0.1
Soccavo,40.8455,14.19262,IT,45314,3166465,Soccavo,0.1,0.39,0.34,0.05,0.13,0.05,0.02,0.06,0.06,0.26,0.38,0.1
Siena,43.31822,11.33064,IT,53901,3166548,Siena,0.06,0.17,0.21,0.11,0.21,0.06,0.04,0.05,0.04,0.16,0.22,0.08
Sezze,41.50032,13.06176,IT,16071,3166571,Sezze,0.08,0.29,0.34,0.09,0.17,0.09,0.02,0.07,0.03,0.33,0.46,0.11
Seveso,45.6467,9.14296,IT,22733,3166574,Seveso,0.09,0.06,0.21,0.22,0.28,0.1,0.23,0.17,0.1,0.28,0.22,0.01
Settimo Torinese,45.13925,7.77008,IT,47485,3166576,Settimo Torinese,0.14,0.09,0.14,0.15,0.3,0.16,0.07,0.1,0.02,0.23,0.19,0.0
Sestri Levante,44.27317,9.39683,IT,16963,3166595,Sestri Levante,0.16,0.13,0.39,0.14,0.09,0.04,0.04,0.07,0.09,0.36,0.19,0.06
Sesto San Giovanni,45.53329,9.22585,IT,81822,3166598,Sesto San Giovanni,0.06,0.05,0.2,0.18,0.2,0.09,0.16,0.16,0.1,0.22,0.19,0.01
Sesto Fiorentino,43.83193,11.19924,IT,45656,3166601,Sesto Fiorentino,0.09,0.16,0.27,0.09,0.13,0.05,0.03,0.03,0.02,0.16,0.12,0.06
Seriate,45.68532,9.72487,IT,23552,3166706,Seriate,0.04,0.05,0.16,0.16,0.17,0.13,0.14,0.14,0.13,0.18,0.14,0.01
Seregno,45.65002,9.20548,IT,42760,3166711,Seregno,0.09,0.06,0.21,0.22,0.28,0.1,0.23,0.17,0.1,0.28,0.22,0.01
Senigallia,43.71626,13.20882,IT,30882,3166740,Senigallia,0.03,0.22,0.15,0.05,0.08,0.09,0.03,0.06,0.1,0.07,0.09,0.07
Senago,45.57562,9.1262,IT,20620,3166753,Senago,0.06,0.05,0.2,0.18,0.2,0.09,0.16,0.16,0.1,0.22,0.19,0.01
Segrate,45.49185,9.29812,IT,28296,3166808,Segrate,0.06,0.05,0.2,0.18,0.2,0.09,0.16,0.16,0.1,0.22,0.19,0.01
Secondigliano,40.9,14.26667,IT,42827,3166830,Secondigliano,0.1,0.39,0.34,0.05,0.13,0.05,0.02,0.06,0.06,0.26,0.38,0.1
Schio,45.71262,11.35671,IT,33740,3166917,Schio,0.05,0.08,0.18,0.12,0.21,0.14,0.13,0.15,0.09,0.18,0.14,0.01
Scandicci,43.75423,11.18794,IT,44951,3166988,Scandicci,0.09,0.16,0.27,0.09,0.13,0.05,0.03,0.03,0.02,0.16,0.12,0.06
Scandiano,44.5983,10.69558,IT,25896,3166989,Scandiano,0.02,0.12,0.15,0.07,0.18,0.12,0.07,0.12,0.1,0.1,0.1,0.01
Scafati,40.7602,14.53723,IT,48702,3167010,Scafati,0.1,0.39,0.34,0.05,0.13,0.05,0.02,0.06,0.06,0.26,0.38,0.1
Savona,44.30905,8.47715,IT,61345,3167022,Savona,0.17,0.04,0.21,0.13,0.2,0.07,0.09,0.09,0.03,0.46,0.18,0.02
Savigliano,44.64808,7.65677,IT,16800,3167034,Savigliano,0.16,0.09,0.15,0.17,0.29,0.16,0.09,0.1,0.03,0.27,0.24,0.0
Sava,40.40203,17.55267,IT,15898,3167044,Sava,0.07,0.18,0.11,0.01,0.1,0.09,0.02,0.11,0.02,0.16,0.13,0.06
Sassuolo,44.5432,10.7848,IT,36926,3167053,Sassuolo,0.02,0.12,0.15,0.07,0.18,0.12,0.07,0.12,0.1,0.1,0.1,0.01
Sassari,40.72586,8.55552,IT,91895,3167096,Sassari,0.03,0.11,0.15,0.04,0.21,0.1,0.0,0.05,0.05,0.14,0.16,0.07
Sarzana,44.11178,9.9622,IT,20435,3167104,Sarzana,0.16,0.18,0.44,0.16,0.11,0.04,0.05,0.04,0.04,0.29,0.13,0.12
Saronno,45.62513,9.03517,IT,38099,3167113,Saronno,0.11,0.06,0.2,0.21,0.29,0.12,0.17,0.1,0.08,0.3,0.21,0.01
Sarno,40.80748,14.62151,IT,28837,3167116,Sarno,0.1,0.39,0.34,0.05,0.13,0.05,0.02,0.06,0.06,0.26,0.38,0.1
San Vito dei Normanni,40.65642,17.70814,IT,17617,3167184,San Vito dei Normanni,0.08,0.17,0.12,0.01,0.09,0.08,0.02,0.06,0.02,0.16,0.13,0.08
Santeramo in Colle,40.79236,16.75873,IT,24922,3167327,Santeramo in Colle,0.06,0.14,0.11,0.04,0.13,0.13,0.02,0.13,0.02,0.15,0.07,0.05
Sant'Antonio Abate,40.72152,14.54021,IT,18859,3167393,Sant'Antonio Abate,0.1,0.39,0.34,0.05,0.13,0.05,0.02,0.06,0.06,0.26,0.38,0.1
Sant'Antimo,40.94223,14.23476,IT,33561,3167419,Sant'Antimo,0.1,0.39,0.34,0.05,0.13,0.05,0.02,0.06,0.06,0.26,0.38,0.1
Sant'Anastasia,40.86842,14.40196,IT,20733,3167509,Sant'Anastasia,0.12,0.35,0.33,0.05,0.12,0.05,0.02,0.09,0.05,0.26,0.33,0.1
Santa Maria Capua Vetere,41.08156,14.25342,IT,31743,3167561,Santa Maria Capua Vetere,0.1,0.39,0.34,0.05,0.13,0.05,0.02,0.06,0.06,0.26,0.38,0.1
San Severo,41.68564,15.38148,IT,51919,3167731,San Severo,0.04,0.09,0.12,0.01,0.11,0.06,0.03,0.07,0.03,0.13,0.08,0.04
San Sebastiano,45.65192,10.25681,IT,23228,3167744,San Sebastiano,0.04,0.03,0.14,0.18,0.2,0.15,0.18,0.21,0.13,0.27,0.15,0.01
San Salvo,42.04413,14.73335,IT,17123,3167751,San Salvo,0.03,0.19,0.1,0.02,0.11,0.09,0.03,0.02,0.07,0.17,0.11,0.09
San Remo,43.81725,7.7772,IT,47043,3167777,San Remo,0.17,0.07,0.24,0.15,0.19,0.14,0.11,0.08,0.09,0.37,0.24,0.05
Sannicandro Garganico,41.83844,15.56535,IT,15815,3167940,Sannicandro Garganico,0.03,0.11,0.13,0.03,0.16,0.07,0.04,0.14,0.05,0.14,0.09,0.06
San Miniato,43.67954,10.84975,IT,16900,3167953,San Miniato,0.1,0.16,0.31,0.11,0.14,0.04,0.04,0.04,0.03,0.18,0.12,0.07
San Miniato Basso,43.69332,10.84119,IT,26365,3167954,San Miniato Basso,0.08,0.15,0.25,0.1,0.17,0.05,0.03,0.04,0.06,0.19,0.12,0.08
San Mauro Torinese,45.10359,7.76803,IT,18521,3167978,San Mauro Torinese,0.14,0.09,0.14,0.15,0.3,0.16,0.07,0.1,0.02,0.23,0.19,0.0
San Lazzaro,44.4705,11.40851,IT,22350,3168175,San Lazzaro,0.02,0.22,0.15,0.04,0.11,0.13,0.08,0.07,0.09,0.1,0.08,0.03
San Giuseppe Vesuviano,40.8356,14.50487,IT,26888,3168209,San Giuseppe Vesuviano,0.12,0.35,0.33,0.05,0.12,0.05,0.02,0.09,0.05,0.26,0.33,0.1
San Giuliano Milanese,45.39402,9.29109,IT,31050,3168222,San Giuliano Milanese,0.06,0.05,0.2,0.18,0.2,0.09,0.16,0.16,0.1,0.22,0.19,0.01
San Giovanni Valdarno,43.56757,11.52987,IT,16002,3168231,San Giovanni Valdarno,0.08,0.17,0.24,0.1,0.16,0.07,0.04,0.04,0.05,0.16,0.18,0.09
San Giovanni Rotondo,41.70643,15.7277,IT,27124,3168234,San Giovanni Rotondo,0.04,0.11,0.15,0.02,0.18,0.1,0.04,0.1,0.06,0.19,0.11,0.09
San Giovanni Lupatoto,45.38193,11.04474,IT,20038,3168236,San Giovanni Lupatoto,0.03,0.08,0.16,0.09,0.17,0.14,0.1,0.15,0.09,0.12,0.11,0.01
San Giovanni in Persiceto,44.63838,11.18419,IT,15783,3168239,San Giovanni in Persiceto,0.02,0.16,0.15,0.04,0.11,0.12,0.12,0.11,0.09,0.09,0.08,0.02
San Giovanni a Teduccio,40.83808,14.30606,IT,23839,3168257,San Giovanni a Teduccio,0.11,0.38,0.28,0.04,0.08,0.03,0.01,0.06,0.04,0.25,0.45,0.11
San Giorgio a Cremano,40.83261,14.34162,IT,45463,3168309,San Giorgio a Cremano,0.11,0.38,0.28,0.04,0.08,0.03,0.01,0.06,0.04,0.25,0.45,0.11
San Donato Milanese,45.41047,9.26838,IT,28351,3168414,San Donato Milanese,0.06,0.05,0.2,0.18,0.2,0.09,0.16,0.16,0.1,0.22,0.19,0.01
San Donà di Piave,45.63019,12.5681,IT,41856,3168429,San Donà di Piave,0.1,0.1,0.21,0.12,0.18,0.14,0.07,0.17,0.09,0.23,0.16,0.01
San Bonifacio,45.39595,11.27352,IT,17347,3168514,San Bonifacio,0.03,0.08,0.16,0.09,0.17,0.14,0.1,0.15,0.09,0.12,0.11,0.01
San Benedetto del Tronto,42.9568,13.87676,IT,45873,3168550,San Benedetto del Tronto,0.04,0.17,0.14,0.02,0.09,0.05,0.01,0.05,0.05,0.05,0.07,0.08
Saluzzo,44.64671,7.49309,IT,16537,3168609,Saluzzo,0.25,0.11,0.17,0.21,0.21,0.14,0.14,0.11,0.03,0.33,0.32,0.0
Salsomaggiore Terme,44.81592,9.98637,IT,15754,3168627,Salsomaggiore Terme,0.04,0.11,0.15,0.1,0.19,0.12,0.06,0.11,0.11,0.15,0.13,0.01
Salerno,40.67545,14.79328,IT,125797,3168673,Salerno,0.12,0.35,0.33,0.05,0.12,0.05,0.02,0.09,0.05,0.26,0.33,0.1
Sacile,45.95412,12.50274,IT,16626,3168730,Sacile,0.09,0.1,0.22,0.1,0.18,0.13,0.09,0.19,0.09,0.24,0.17,0.01
Ruvo di Puglia,41.11758,16.48421,IT,23938,3168770,Ruvo di Puglia,0.06,0.11,0.14,0.03,0.12,0.13,0.02,0.11,0.04,0.14,0.09,0.05
Rutigliano,41.00997,17.00558,IT,17674,3168775,Rutigliano,0.07,0.12,0.14,0.03,0.09,0.1,0.03,0.09,0.02,0.14,0.12,0.06
Rozzano,45.38193,9.1559,IT,39731,3168837,Rozzano,0.06,0.05,0.2,0.18,0.2,0.09,0.16,0.16,0.1,0.22,0.19,0.01
Rovigo,45.06982,11.79022,IT,50279,3168843,Rovigo,0.03,0.15,0.19,0.06,0.12,0.14,0.12,0.17,0.1,0.1,0.09,0.02
Rovereto,45.8904,11.04053,IT,34152,3168854,Rovereto,0.06,0.04,0.17,0.19,0.3,0.19,0.2,0.19,0.11,0.28,0.16,0.01
Rosignano Solvay-Castiglioncello,43.38946,10.43615,IT,19786,3168930,Rosignano Solvay-Castiglioncello,0.08,0.15,0.25,0.1,0.17,0.05,0.03,0.04,0.06,0.19,0.12,0.08
Roseto degli Abruzzi,42.67164,14.01481,IT,16538,3168936,Roseto degli Abruzzi,0.04,0.18,0.11,0.02,0.13,0.08,0.03,0.08,0.06,0.09,0.13,0.08
Romano di Lombardia,45.52081,9.7544,IT,17549,3169056,Romano di Lombardia,0.03,0.06,0.16,0.17,0.19,0.12,0.17,0.19,0.18,0.16,0.15,0.01
Rome,41.89193,12.51133,IT,2318895,3169070,Rome,0.07,0.18,0.27,0.08,0.15,0.05,0.02,0.05,0.04,0.26,0.25,0.07
Rocca di Papa,41.7658,12.70188,IT,15036,3169181,Rocca di Papa,0.1,0.19,0.37,0.1,0.27,0.09,0.02,0.18,0.07,0.31,0.23,0.1
Rivoli,45.07073,7.51465,IT,48629,3169231,Rivoli,0.3,0.07,0.17,0.21,0.2,0.11,0.11,0.1,0.01,0.3,0.29,0.01
Riva del Garda,45.88577,10.84117,IT,17331,3169272,Riva del Garda,0.04,0.03,0.14,0.17,0.19,0.15,0.14,0.15,0.06,0.27,0.13,0.01
Rimini,44.05755,12.56528,IT,148688,3169361,Rimini,0.02,0.28,0.14,0.04,0.08,0.12,0.03,0.05,0.07,0.07,0.09,0.05
Rieti,42.40476,12.85735,IT,39068,3169412,Rieti,0.06,0.16,0.27,0.08,0.18,0.05,0.01,0.07,0.03,0.16,0.14,0.07
Riccione,43.99942,12.65689,IT,32744,3169424,Riccione,0.03,0.24,0.15,0.05,0.09,0.1,0.04,0.07,0.11,0.08,0.09,0.07
Rho,45.53245,9.0402,IT,47086,3169447,Rho,0.09,0.06,0.21,0.22,0.28,0.1,0.23,0.17,0.1,0.28,0.22,0.01
Reggio nell'Emilia,44.69825,10.63125,IT,171944,3169522,Reggio nell'Emilia,0.02,0.12,0.15,0.07,0.18,0.12,0.07,0.12,0.1,0.1,0.1,0.01
Ravenna,44.41344,12.20121,IT,80868,3169561,Ravenna,0.01,0.27,0.14,0.03,0.08,0.14,0.09,0.07,0.09,0.09,0.07,0.04
Rapallo,44.3496,9.22796,IT,26993,3169602,Rapallo,0.16,0.13,0.39,0.14,0.09,0.04,0.04,0.07,0.09,0.36,0.19,0.06
Qualiano,40.91899,14.15352,IT,23752,3169724,Qualiano,0.1,0.39,0.34,0.05,0.13,0.05,0.02,0.06,0.06,0.26,0.38,0.1
Putignano,40.85106,17.1219,IT,23661,3169742,Putignano,0.07,0.14,0.12,0.04,0.12,0.11,0.03,0.12,0.02,0.16,0.09,0.05
Prato,43.8805,11.09699,IT,195089,3169921,Prato,0.1,0.16,0.31,0.11,0.14,0.04,0.04,0.04,0.03,0.18,0.12,0.07
Pozzuoli,40.84394,14.0952,IT,81231,3169984,Pozzuoli,0.11,0.38,0.28,0.04,0.08,0.03,0.01,0.06,0.04,0.25,0.45,0.11
Potenza,40.64175,15.80794,IT,56433,3170027,Potenza,0.06,0.13,0.12,0.06,0.13,0.15,0.04,0.16,0.03,0.15,0.11,0.04
Posillipo,40.81279,14.20001,IT,22856,3170055,Posillipo,0.12,0.35,0.33,0.05,0.12,0.05,0.02,0.09,0.05,0.26,0.33,0.1
Porto Torres,40.83375,8.40531,IT,21653,3170069,Porto Torres,0.03,0.11,0.15,0.04,0.21,0.1,0.0,0.05,0.05,0.14,0.16,0.07
Porto Sant'Elpidio,43.25297,13.7597,IT,22233,3170072,Porto Sant'Elpidio,0.04,0.17,0.14,0.02,0.09,0.05,0.01,0.05,0.05,0.05,0.07,0.08
Porto San Giorgio,43.17784,13.79411,IT,15558,3170073,Porto San Giorgio,0.04,0.17,0.14,0.02,0.09,0.05,0.01,0.05,0.05,0.05,0.07,0.08
Portogruaro,45.78071,12.84052,IT,17468,3170086,Portogruaro,0.09,0.1,0.22,0.1,0.18,0.13,0.09,0.19,0.09,0.24,0.17,0.01
Civitanova Marche,43.30491,13.72068,IT,42251,3170102,Civitanova Marche,0.04,0.17,0.14,0.02,0.09,0.05,0.01,0.05,0.05,0.05,0.07,0.08
Portici,40.81563,14.33716,IT,53801,3170116,Portici,0.11,0.38,0.28,0.04,0.08,0.03,0.01,0.06,0.04,0.25,0.45,0.11
Pordenone,45.95689,12.66051,IT,49878,3170147,Pordenone,0.09,0.1,0.22,0.1,0.18,0.13,0.09,0.19,0.09,0.24,0.17,0.01
Ponticelli,40.8542,14.33038,IT,52284,3170206,Ponticelli,0.11,0.38,0.28,0.04,0.08,0.03,0.01,0.06,0.04,0.25,0.45,0.11
Pontedera,43.66141,10.63067,IT,19518,3170272,Pontedera,0.08,0.15,0.25,0.1,0.17,0.05,0.03,0.04,0.06,0.19,0.12,0.08
Pompei,40.74574,14.49698,IT,23902,3170335,Pompei,0.1,0.39,0.34,0.05,0.13,0.05,0.02,0.06,0.06,0.26,0.38,0.1
Pomigliano d'Arco,40.90975,14.38316,IT,38921,3170341,Pomigliano d'Arco,0.1,0.39,0.34,0.05,0.13,0.05,0.02,0.06,0.06,0.26,0.38,0.1
Pomezia,41.66931,12.50124,IT,22346,3170342,Pomezia,0.07,0.21,0.26,0.05,0.14,0.03,0.03,0.07,0.05,0.28,0.34,0.09
Poggioreale,40.86543,14.28877,IT,23654,3170446,Poggioreale,0.11,0.38,0.28,0.04,0.08,0.03,0.01,0.06,0.04,0.25,0.45,0.11
Poggiomarino,40.80114,14.54066,IT,19451,3170457,Poggiomarino,0.1,0.39,0.34,0.05,0.13,0.05,0.02,0.06,0.06,0.26,0.38,0.1
Poggibonsi,43.47064,11.14804,IT,21692,3170504,Poggibonsi,0.09,0.16,0.27,0.09,0.13,0.05,0.03,0.03,0.02,0.16,0.12,0.06
Pistoia,43.93064,10.92365,IT,73832,3170621,Pistoia,0.1,0.16,0.31,0.11,0.14,0.04,0.04,0.04,0.03,0.18,0.12,0.07
Piscinola,40.89299,14.23394,IT,27534,3170631,Piscinola,0.1,0.39,0.34,0.05,0.13,0.05,0.02,0.06,0.06,0.26,0.38,0.1
Pisa,43.70853,10.4036,IT,109960,3170647,Pisa,0.08,0.15,0.25,0.1,0.17,0.05,0.03,0.04,0.06,0.19,0.12,0.08
Piossasco,44.98802,7.4601,IT,16904,3170659,Piossasco,0.21,0.08,0.14,0.17,0.25,0.16,0.06,0.09,0.01,0.26,0.22,0.01
Piombino,42.92554,10.52585,IT,34041,3170674,Piombino,0.07,0.19,0.2,0.09,0.16,0.05,0.02,0.03,0.04,0.16,0.14,0.09
Pioltello,45.50147,9.33053,IT,34203,3170676,Pioltello,0.06,0.05,0.2,0.18,0.2,0.09,0.16,0.16,0.1,0.22,0.19,0.01
Pinerolo,44.88534,7.33135,IT,30866,3170694,Pinerolo,0.25,0.11,0.17,0.21,0.21,0.14,0.14,0.11,0.03,0.33,0.32,0.0
Pietrasanta,43.95952,10.22784,IT,18897,3170778,Pietrasanta,0.12,0.15,0.33,0.13,0.14,0.04,0.04,0.04,0.04,0.21,0.11,0.09
Pianura,40.85907,14.17314,IT,57821,3170921,Pianura,0.12,0.35,0.33,0.05,0.12,0.05,0.02,0.09,0.05,0.26,0.33,0.1
Piacenza,45.05242,9.69342,IT,103607,3171058,Piacenza,0.03,0.08,0.15,0.14,0.19,0.14,0.1,0.15,0.13,0.15,0.13,0.01
Pescara,42.4584,14.20283,IT,119554,3171168,Pescara,0.04,0.18,0.11,0.02,0.13,0.08,0.03,0.08,0.06,0.09,0.13,0.08
Pesaro,43.90921,12.9164,IT,77241,3171173,Pesaro,0.03,0.22,0.15,0.05,0.08,0.09,0.03,0.06,0.1,0.07,0.09,0.07
Perugia,43.1122,12.38878,IT,120137,3171180,Perugia,0.07,0.16,0.26,0.07,0.13,0.05,0.01,0.08,0.03,0.12,0.12,0.08
Pavia,45.19205,9.15917,IT,65734,3171366,Pavia,0.04,0.06,0.17,0.13,0.21,0.11,0.11,0.12,0.08,0.18,0.15,0.01
Parma,44.79935,10.32618,IT,198292,3171457,Parma,0.03,0.1,0.15,0.11,0.2,0.13,0.08,0.14,0.11,0.13,0.12,0.01
Parabiago,45.56034,8.94545,IT,26364,3171484,Parabiago,0.09,0.06,0.21,0.22,0.28,0.1,0.23,0.17,0.1,0.28,0.22,0.01
Palo del Colle,41.05562,16.70321,IT,20692,3171562,Palo del Colle,0.07,0.11,0.14,0.04,0.11,0.11,0.03,0.1,0.04,0.15,0.1,0.06
Palazzolo sull'Oglio,45.59665,9.88688,IT,17973,3171586,Palazzolo sull'Oglio,0.04,0.05,0.16,0.16,0.17,0.13,0.14,0.14,0.13,0.18,0.14,0.01
Palagiano,40.57762,17.03812,IT,15388,3171664,Palagiano,0.07,0.17,0.11,0.01,0.09,0.07,0.01,0.08,0.01,0.23,0.11,0.06
Pagani,40.74199,14.61448,IT,32835,3171703,Pagani,0.1,0.39,0.34,0.05,0.13,0.05,0.02,0.06,0.06,0.26,0.38,0.1
Padova,45.40797,11.88586,IT,203725,3171728,Padova,0.07,0.1,0.17,0.09,0.19,0.11,0.05,0.15,0.09,0.15,0.15,0.01
Paderno Dugnano,45.56899,9.16483,IT,46235,3171737,Paderno Dugnano,0.06,0.05,0.2,0.18,0.2,0.09,0.16,0.16,0.1,0.22,0.19,0.01
Ottaviano,40.85193,14.47826,IT,23396,3171778,Ottaviano,0.12,0.35,0.33,0.05,0.12,0.05,0.02,0.09,0.05,0.26,0.33,0.1
Ostuni,40.72913,17.57675,IT,24157,3171786,Ostuni,0.08,0.15,0.12,0.02,0.12,0.08,0.03,0.09,0.03,0.17,0.12,0.06
Osimo,43.48539,13.48222,IT,16610,3171848,Osimo,0.04,0.19,0.14,0.04,0.13,0.1,0.03,0.07,0.1,0.07,0.08,0.06
Orta Nova,41.32879,15.70994,IT,16677,3171900,Orta Nova,0.06,0.11,0.14,0.02,0.11,0.06,0.02,0.07,0.04,0.14,0.08,0.04
Orbassano,45.00547,7.53813,IT,21813,3171986,Orbassano,0.16,0.09,0.15,0.17,0.29,0.16,0.09,0.1,0.03,0.27,0.24,0.0
Olbia,40.92337,9.49802,IT,60345,3172087,Olbia,0.02,0.13,0.14,0.05,0.16,0.03,0.0,0.02,0.08,0.14,0.17,0.05
Oderzo,45.78114,12.49442,IT,15764,3172116,Oderzo,0.1,0.1,0.21,0.12,0.18,0.14,0.07,0.17,0.09,0.23,0.16,0.01
Nuoro,40.31991,9.32568,IT,35948,3172154,Nuoro,0.02,0.09,0.19,0.06,0.23,0.11,0.0,0.09,0.13,0.17,0.17,0.03
Novi Ligure,44.76246,8.787,IT,25957,3172170,Novi Ligure,0.08,0.07,0.18,0.12,0.2,0.09,0.08,0.09,0.03,0.36,0.15,0.02
Novate Milanese,45.5305,9.13954,IT,19758,3172184,Novate Milanese,0.06,0.05,0.2,0.18,0.2,0.09,0.16,0.16,0.1,0.22,0.19,0.01
Novara,45.44694,8.62118,IT,101916,3172189,Novara,0.11,0.08,0.17,0.17,0.32,0.12,0.14,0.11,0.06,0.26,0.19,0.01
Nova Milanese,45.58882,9.19792,IT,22310,3172191,Nova Milanese,0.06,0.05,0.2,0.18,0.2,0.09,0.16,0.16,0.1,0.22,0.19,0.01
Nola,40.92606,14.52816,IT,24101,3172227,Nola,0.1,0.39,0.34,0.05,0.13,0.05,0.02,0.06,0.06,0.26,0.38,0.1
Noicattaro,41.03449,16.98963,IT,21988,3172228,Noicattaro,0.07,0.12,0.14,0.03,0.09,0.1,0.03,0.09,0.02,0.14,0.12,0.06
Noci,40.79356,17.12681,IT,15383,3172240,Noci,0.08,0.14,0.13,0.03,0.13,0.1,0.03,0.11,0.03,0.18,0.12,0.05
Nocera Superiore,40.74248,14.67447,IT,23452,3172243,Nocera Superiore,0.12,0.35,0.33,0.05,0.12,0.05,0.02,0.09,0.05,0.26,0.33,0.1
Nocera Inferiore,40.7454,14.64542,IT,45608,3172244,Nocera Inferiore,0.12,0.35,0.33,0.05,0.12,0.05,0.02,0.09,0.05,0.26,0.33,0.1
Nichelino,45.00031,7.65305,IT,47760,3172269,Nichelino,0.21,0.08,0.14,0.17,0.25,0.16,0.06,0.09,0.01,0.26,0.22,0.01
Nettuno,41.45794,12.66393,IT,49873,3172287,Nettuno,0.08,0.24,0.26,0.05,0.12,0.03,0.02,0.07,0.04,0.29,0.39,0.11
Nerviano,45.55343,8.9792,IT,17030,3172297,Nerviano,0.09,0.06,0.21,0.22,0.28,0.1,0.23,0.17,0.1,0.28,0.22,0.01
Nardò,40.17953,18.03174,IT,29668,3172379,Nardò,0.07,0.24,0.09,0.01,0.06,0.1,0.01,0.09,0.01,0.16,0.17,0.07
Naples,40.85216,14.26811,IT,909048,3172394,Naples,0.11,0.38,0.28,0.04,0.08,0.03,0.01,0.06,0.04,0.25,0.45,0.11
Mugnano di Napoli,40.90936,14.20984,IT,34231,3172472,Mugnano di Napoli,0.1,0.39,0.34,0.05,0.13,0.05,0.02,0.06,0.06,0.26,0.38,0.1
Muggiò,45.58878,9.22784,IT,23193,3172479,Muggiò,0.06,0.05,0.2,0.18,0.2,0.09,0.16,0.16,0.1,0.22,0.19,0.01
Monza,45.58005,9.27246,IT,124398,3172629,Monza,0.06,0.05,0.2,0.18,0.2,0.09,0.16,0.16,0.1,0.22,0.19,0.01
Montichiari,45.41317,10.39799,IT,15030,3172681,Montichiari,0.03,0.08,0.14,0.11,0.19,0.14,0.09,0.14,0.09,0.13,0.11,0.01
Montevarchi,43.5252,11.57238,IT,18682,3172718,Montevarchi,0.08,0.17,0.24,0.1,0.16,0.07,0.04,0.04,0.05,0.16,0.18,0.09
Montesilvano Marina,42.5114,14.14507,IT,45991,3172729,Montesilvano Marina,0.04,0.18,0.11,0.02,0.13,0.08,0.03,0.08,0.06,0.09,0.13,0.08
Monterotondo,42.05159,12.61969,IT,37225,3172768,Monterotondo,0.07,0.18,0.27,0.08,0.15,0.05,0.02,0.05,0.04,0.26,0.25,0.07
Montemurlo,43.92686,11.03718,IT,17502,3172828,Montemurlo,0.1,0.16,0.31,0.11,0.14,0.04,0.04,0.04,0.03,0.18,0.12,0.07
Montecchio Maggiore-Alte Ceccato,45.50369,11.412,IT,20815,3172979,Montecchio Maggiore-Alte Ceccato,0.04,0.1,0.17,0.08,0.17,0.15,0.14,0.16,0.09,0.13,0.12,0.01
Montecatini-Terme,43.88153,10.7723,IT,17954,3172996,Montecatini-Terme,0.12,0.15,0.33,0.13,0.14,0.04,0.04,0.04,0.04,0.21,0.11,0.09
Montebelluna,45.77504,12.04904,IT,26670,3173029,Montebelluna,0.1,0.08,0.19,0.13,0.14,0.13,0.1,0.12,0.07,0.25,0.14,0.01
Monselice,45.239,11.74984,IT,18682,3173124,Monselice,0.04,0.12,0.19,0.07,0.14,0.13,0.1,0.16,0.08,0.12,0.12,0.02
Monopoli,40.94918,17.29717,IT,37738,3173131,Monopoli,0.08,0.17,0.12,0.01,0.09,0.08,0.02,0.06,0.02,0.16,0.13,0.08
Monfalcone,45.80463,13.53292,IT,26706,3173153,Monfalcone,0.12,0.1,0.25,0.11,0.11,0.08,0.06,0.12,0.11,0.32,0.2,0.02
Mondragone,41.11399,13.89157,IT,28683,3173160,Mondragone,0.11,0.38,0.28,0.04,0.08,0.03,0.01,0.06,0.04,0.25,0.45,0.11
Mondovì,44.39603,7.81764,IT,21880,3173162,Mondovì,0.25,0.11,0.17,0.21,0.21,0.14,0.14,0.11,0.03,0.33,0.32,0.0
Moncalieri,44.9994,7.68236,IT,56134,3173180,Moncalieri,0.21,0.08,0.14,0.17,0.25,0.16,0.06,0.09,0.01,0.26,0.22,0.01
Molfetta,41.20036,16.59905,IT,59557,3173287,Molfetta,0.05,0.09,0.15,0.01,0.06,0.09,0.02,0.07,0.04,0.13,0.09,0.06
Mola di Bari,41.05997,17.09001,IT,24682,3173302,Mola di Bari,0.07,0.12,0.14,0.03,0.09,0.1,0.03,0.09,0.02,0.14,0.12,0.06
Mogliano Veneto,45.55594,12.24294,IT,21991,3173314,Mogliano Veneto,0.04,0.14,0.19,0.07,0.16,0.13,0.11,0.19,0.1,0.11,0.13,0.02
Modugno,41.08433,16.78342,IT,36384,3173326,Modugno,0.05,0.09,0.15,0.01,0.06,0.09,0.02,0.07,0.04,0.13,0.09,0.06
Modena,44.64783,10.92539,IT,184732,3173331,Modena,0.02,0.16,0.14,0.05,0.13,0.1,0.07,0.11,0.07,0.07,0.08,0.02
Mirano,45.49458,12.10775,IT,15139,3173369,Mirano,0.07,0.1,0.17,0.09,0.19,0.11,0.05,0.15,0.09,0.15,0.15,0.01
Mirandola,44.88515,11.06902,IT,17380,3173370,Mirandola,0.02,0.11,0.17,0.07,0.17,0.14,0.11,0.17,0.1,0.1,0.1,0.01
Mira Taglio,45.4346,12.12942,IT,32881,3173385,Mira Taglio,0.04,0.14,0.19,0.07,0.16,0.13,0.11,0.19,0.1,0.11,0.13,0.02
Minturno,41.26294,13.74583,IT,16236,3173391,Minturno,0.08,0.38,0.31,0.06,0.14,0.05,0.02,0.08,0.04,0.3,0.41,0.09
Milan,45.46427,9.18951,IT,1371498,3173435,Milan,0.06,0.05,0.2,0.18,0.2,0.09,0.16,0.16,0.1,0.22,0.19,0.01
Miano,40.88816,14.25339,IT,23896,3173473,Miano,0.1,0.39,0.34,0.05,0.13,0.05,0.02,0.06,0.06,0.26,0.38,0.1
Mestre,45.49167,12.24538,IT,147662,3173529,Mestre,0.07,0.1,0.17,0.09,0.19,0.11,0.05,0.15,0.09,0.15,0.15,0.01
Mesagne,40.55851,17.80774,IT,26497,3173537,Mesagne,0.07,0.19,0.11,0.01,0.08,0.09,0.02,0.11,0.02,0.13,0.13,0.07
Merano,46.66817,11.15953,IT,41051,3173577,Merano,0.06,0.01,0.1,0.12,0.09,0.04,0.06,0.1,0.03,0.28,0.12,0.03
Mentana,42.03539,12.64413,IT,17047,3173582,Mentana,0.07,0.18,0.27,0.08,0.15,0.05,0.02,0.05,0.04,0.26,0.25,0.07
Melzo,45.4981,9.42043,IT,18031,3173599,Melzo,0.04,0.05,0.19,0.15,0.18,0.1,0.16,0.16,0.11,0.19,0.16,0.01
Melito di Napoli,40.91948,14.23104,IT,36933,3173614,Melito di Napoli,0.1,0.39,0.34,0.05,0.13,0.05,0.02,0.06,0.06,0.26,0.38,0.1
Melegnano,45.35781,9.3236,IT,16707,3173631,Melegnano,0.04,0.06,0.17,0.13,0.21,0.11,0.11,0.12,0.08,0.18,0.15,0.01
Meda,45.66121,9.15337,IT,22665,3173671,Meda,0.09,0.06,0.21,0.22,0.28,0.1,0.23,0.17,0.1,0.28,0.22,0.01
Matera,40.66599,16.60463,IT,60403,3173721,Matera,0.06,0.14,0.11,0.04,0.13,0.13,0.02,0.13,0.02,0.15,0.07,0.05
Massarosa,43.86638,10.34458,IT,22435,3173754,Massarosa,0.08,0.15,0.25,0.1,0.17,0.05,0.03,0.04,0.06,0.19,0.12,0.08
Massafra,40.58618,17.11635,IT,30875,3173762,Massafra,0.07,0.17,0.11,0.01,0.09,0.07,0.01,0.08,0.01,0.23,0.11,0.06
Massa,44.03541,10.13927,IT,64783,3173775,Massa,0.12,0.15,0.33,0.13,0.14,0.04,0.04,0.04,0.04,0.21,0.11,0.09
Martina Franca,40.70355,17.33814,IT,37685,3173841,Martina Franca,0.08,0.14,0.13,0.03,0.13,0.1,0.03,0.11,0.03,0.18,0.12,0.05
Marino,41.76984,12.65917,IT,44142,3173914,Marino,0.08,0.18,0.31,0.09,0.21,0.07,0.02,0.1,0.05,0.27,0.23,0.08
Marina di Massa,44.0038,10.10674,IT,19092,3173931,Marina di Massa,0.16,0.18,0.44,0.16,0.11,0.04,0.05,0.04,0.04,0.29,0.13,0.12
Marina di Carrara,44.03837,10.04142,IT,25000,3173935,Marina di Carrara,0.16,0.18,0.44,0.16,0.11,0.04,0.05,0.04,0.04,0.29,0.13,0.12
Marigliano,40.9248,14.45612,IT,29901,3173945,Marigliano,0.1,0.39,0.34,0.05,0.13,0.05,0.02,0.06,0.06,0.26,0.38,0.1
Mariano Comense,45.69651,9.1818,IT,22643,3173949,Mariano Comense,0.09,0.06,0.21,0.22,0.28,0.1,0.23,0.17,0.1,0.28,0.22,0.01
Marcianise,41.03064,14.29868,IT,40239,3173995,Marcianise,0.1,0.39,0.34,0.05,0.13,0.05,0.02,0.06,0.06,0.26,0.38,0.1
Marano di Napoli,40.8971,14.18824,IT,49920,3174021,Marano di Napoli,0.1,0.39,0.34,0.05,0.13,0.05,0.02,0.06,0.06,0.26,0.38,0.1
Mantova,45.16031,10.79784,IT,39260,3174051,Mantova,0.03,0.08,0.14,0.11,0.19,0.14,0.09,0.14,0.09,0.13,0.11,0.01
Manfredonia,41.63065,15.91876,IT,56932,3174092,Manfredonia,0.04,0.08,0.13,0.01,0.08,0.07,0.02,0.05,0.03,0.17,0.09,0.06
Manduria,40.39899,17.63726,IT,27411,3174096,Manduria,0.07,0.19,0.11,0.01,0.08,0.09,0.02,0.11,0.02,0.13,0.13,0.07
Malnate,45.79377,8.88104,IT,15466,3174141,Malnate,0.1,0.04,0.21,0.24,0.22,0.11,0.21,0.16,0.09,0.34,0.23,0.01
Magenta,45.46456,8.88453,IT,22566,3174295,Magenta,0.09,0.06,0.21,0.22,0.28,0.1,0.23,0.17,0.1,0.28,0.22,0.01
Maddaloni,41.03578,14.3823,IT,34546,3174358,Maddaloni,0.1,0.39,0.34,0.05,0.13,0.05,0.02,0.06,0.06,0.26,0.38,0.1
Macerata,43.29789,13.45293,IT,30842,3174380,Macerata,0.04,0.17,0.14,0.04,0.19,0.09,0.04,0.08,0.07,0.08,0.1,0.07
Lugo,44.42137,11.91094,IT,21273,3174494,Lugo,0.01,0.27,0.14,0.03,0.08,0.14,0.09,0.07,0.09,0.09,0.07,0.04
Lucera,41.5055,15.3391,IT,32222,3174526,Lucera,0.04,0.13,0.12,0.02,0.12,0.07,0.04,0.08,0.05,0.14,0.1,0.05
Lucca,43.84369,10.50447,IT,81748,3174530,Lucca,0.08,0.15,0.25,0.1,0.17,0.05,0.03,0.04,0.06,0.19,0.12,0.08
Lodi,45.30989,9.50085,IT,40767,3174638,Lodi,0.03,0.07,0.17,0.13,0.21,0.12,0.12,0.16,0.11,0.16,0.15,0.01
Livorno,43.54427,10.32615,IT,157017,3174659,Livorno,0.08,0.15,0.25,0.1,0.17,0.05,0.03,0.04,0.06,0.19,0.12,0.08
Lissone,45.61236,9.23985,IT,37353,3174679,Lissone,0.06,0.05,0.2,0.18,0.2,0.09,0.16,0.16,0.1,0.22,0.19,0.01
Limbiate,45.59951,9.12509,IT,32062,3174719,Limbiate,0.06,0.05,0.2,0.18,0.2,0.09,0.16,0.16,0.1,0.22,0.19,0.01
Lido di Ostia,41.73212,12.27654,IT,85301,3174741,Lido di Ostia,0.07,0.21,0.22,0.05,0.11,0.03,0.02,0.07,0.05,0.32,0.39,0.09
Lido,45.4105,12.36649,IT,15719,3174748,Lido,0.04,0.14,0.19,0.07,0.16,0.13,0.11,0.19,0.1,0.11,0.13,0.02
Legnano,45.59788,8.91506,IT,57589,3174921,Legnano,0.09,0.06,0.21,0.22,0.28,0.1,0.23,0.17,0.1,0.28,0.22,0.01
Legnago,45.19365,11.30227,IT,21646,3174922,Legnago,0.04,0.1,0.17,0.08,0.17,0.15,0.14,0.16,0.09,0.13,0.12,0.01
Lecco,45.85589,9.39704,IT,46580,3174945,Lecco,0.03,0.06,0.16,0.17,0.19,0.12,0.17,0.19,0.18,0.16,0.15,0.01
Lecce,40.35481,18.17244,IT,80695,3174953,Lecce,0.08,0.28,0.1,0.0,0.05,0.1,0.02,0.05,0.0,0.15,0.17,0.09
Latina,41.46614,12.9043,IT,76305,3175058,Latina,0.08,0.24,0.26,0.05,0.12,0.03,0.02,0.07,0.04,0.29,0.39,0.11
La Spezia,44.103,9.82375,IT,93288,3175081,La Spezia,0.16,0.13,0.39,0.14,0.09,0.04,0.04,0.07,0.09,0.36,0.19,0.06
L'Aquila,42.35055,13.39954,IT,33691,3175121,L'Aquila,0.05,0.16,0.13,0.06,0.3,0.17,0.13,0.09,0.11,0.18,0.16,0.07
Lanciano,42.22718,14.39024,IT,34791,3175173,Lanciano,0.04,0.2,0.1,0.06,0.26,0.15,0.08,0.1,0.12,0.21,0.17,0.08
Lainate,45.57176,9.02681,IT,25011,3175238,Lainate,0.09,0.06,0.21,0.22,0.28,0.1,0.23,0.17,0.1,0.28,0.22,0.01
Ladispoli,41.95068,12.075,IT,34204,3175298,Ladispoli,0.07,0.21,0.22,0.05,0.11,0.03,0.02,0.07,0.05,0.32,0.39,0.09
Ivrea,45.46723,7.87617,IT,23599,3175384,Ivrea,0.23,0.08,0.16,0.19,0.26,0.12,0.07,0.1,0.03,0.3,0.26,0.01
Isernia,41.59603,14.23399,IT,16945,3175445,Isernia,0.08,0.38,0.34,0.09,0.25,0.1,0.03,0.13,0.05,0.41,0.37,0.11
Ischia Porto,40.73913,13.951,IT,18192,3175453,Ischia Porto,0.11,0.38,0.28,0.04,0.08,0.03,0.01,0.06,0.04,0.25,0.45,0.11
Ischia,40.73793,13.94862,IT,18564,3175458,Ischia,0.11,0.38,0.28,0.04,0.08,0.03,0.01,0.06,0.04,0.25,0.45,0.11
Pallanza-Intra-Suna,45.93778,8.57088,IT,28911,3175500,Pallanza-Intra-Suna,0.16,0.04,0.24,0.24,0.2,0.1,0.15,0.13,0.06,0.46,0.29,0.01
Imperia,43.88917,8.03933,IT,42328,3175532,Imperia,0.26,0.04,0.22,0.17,0.19,0.09,0.17,0.09,0.06,0.48,0.32,0.04
Imola,44.35916,11.7132,IT,69953,3175537,Imola,0.01,0.24,0.14,0.04,0.09,0.13,0.09,0.07,0.1,0.1,0.07,0.03
Jesi,43.52142,13.24368,IT,36985,3175628,Jesi,0.04,0.19,0.14,0.04,0.13,0.1,0.03,0.07,0.1,0.07,0.08,0.06
Guidonia,41.99232,12.71876,IT,20943,3175678,Guidonia,0.07,0.21,0.26,0.05,0.14,0.03,0.03,0.07,0.05,0.28,0.34,0.09
Grumo Nevano,40.93591,14.25983,IT,17879,3175743,Grumo Nevano,0.1,0.39,0.34,0.05,0.13,0.05,0.02,0.06,0.06,0.26,0.38,0.1
Grugliasco,45.06516,7.57954,IT,36700,3175755,Grugliasco,0.16,0.09,0.15,0.17,0.29,0.16,0.09,0.1,0.03,0.27,0.24,0.0
Grottaglie,40.53694,17.43723,IT,31320,3175773,Grottaglie,0.07,0.18,0.11,0.01,0.1,0.09,0.02,0.11,0.02,0.16,0.13,0.06
Grottaferrata,41.78664,12.67144,IT,18144,3175775,Grottaferrata,0.08,0.18,0.31,0.09,0.21,0.07,0.02,0.1,0.05,0.27,0.23,0.08
Grosseto,42.76296,11.10941,IT,60922,3175786,Grosseto,0.07,0.17,0.18,0.08,0.14,0.03,0.03,0.03,0.03,0.13,0.24,0.06
Gravina in Puglia,40.81748,16.41915,IT,42210,3175860,Gravina in Puglia,0.06,0.14,0.11,0.04,0.13,0.13,0.02,0.13,0.02,0.15,0.07,0.05
Gragnano,40.68907,14.52036,IT,29082,3175952,Gragnano,0.12,0.35,0.33,0.05,0.12,0.05,0.02,0.09,0.05,0.26,0.33,0.1
Gorizia,45.94088,13.62167,IT,34428,3175986,Gorizia,0.12,0.1,0.25,0.11,0.11,0.08,0.06,0.12,0.11,0.32,0.2,0.02
Gorgonzola,45.53069,9.40531,IT,18979,3175990,Gorgonzola,0.04,0.05,0.19,0.15,0.18,0.1,0.16,0.16,0.11,0.19,0.16,0.01
Giussano,45.70004,9.2089,IT,25916,3176041,Giussano,0.09,0.06,0.21,0.22,0.28,0.1,0.23,0.17,0.1,0.28,0.22,0.01
Giulianova,42.75381,13.9665,IT,20490,3176053,Giulianova,0.04,0.18,0.11,0.02,0.13,0.08,0.03,0.08,0.06,0.09,0.13,0.08
Giugliano in Campania,40.92849,14.20197,IT,80269,3176059,Giugliano in Campania,0.1,0.39,0.34,0.05,0.13,0.05,0.02,0.06,0.06,0.26,0.38,0.1
Giovinazzo,41.185,16.67054,IT,19186,3176072,Giovinazzo,0.05,0.09,0.15,0.01,0.06,0.09,0.02,0.07,0.04,0.13,0.09,0.06
Gioia del Colle,40.79968,16.92298,IT,24184,3176090,Gioia del Colle,0.07,0.14,0.12,0.04,0.12,0.11,0.03,0.12,0.02,0.16,0.09,0.05
Ginosa,40.5769,16.75655,IT,16151,3176097,Ginosa,0.05,0.16,0.1,0.04,0.1,0.09,0.01,0.1,0.01,0.16,0.07,0.04
Ghedi,45.40204,10.27681,IT,16351,3176177,Ghedi,0.03,0.08,0.15,0.14,0.19,0.14,0.1,0.15,0.13,0.15,0.13,0.01
Genzano di Roma,41.70706,12.68904,IT,20582,3176203,Genzano di Roma,0.1,0.22,0.37,0.1,0.22,0.1,0.03,0.17,0.05,0.34,0.29,0.11
Genoa,44.40478,8.94439,IT,580097,3176219,Genoa,0.08,0.07,0.18,0.12,0.2,0.09,0.08,0.09,0.03,0.36,0.15,0.02
Garbagnate Milanese,45.57438,9.07537,IT,25974,3176322,Garbagnate Milanese,0.09,0.06,0.21,0.22,0.28,0.1,0.23,0.17,0.1,0.28,0.22,0.01
Gallipoli,40.05594,17.99088,IT,19176,3176366,Gallipoli,0.08,0.28,0.1,0.0,0.05,0.1,0.02,0.05,0.0,0.15,0.17,0.09
Galliate,45.47942,8.69815,IT,15699,3176379,Galliate,0.11,0.06,0.2,0.21,0.29,0.12,0.17,0.1,0.08,0.3,0.21,0.01
Gallarate,45.66019,8.79164,IT,50439,3176391,Gallarate,0.16,0.04,0.24,0.24,0.2,0.1,0.15,0.13,0.06,0.46,0.29,0.01
Galatina,40.17416,18.17032,IT,19569,3176407,Galatina,0.08,0.28,0.1,0.0,0.05,0.1,0.02,0.05,0.0,0.15,0.17,0.09
Gaeta,41.21408,13.57082,IT,19936,3176438,Gaeta,0.08,0.29,0.34,0.09,0.17,0.09,0.02,0.07,0.03,0.33,0.46,0.11
Fuorigrotta,40.83333,14.2,IT,76521,3176477,Fuorigrotta,0.11,0.38,0.28,0.04,0.08,0.03,0.01,0.06,0.04,0.25,0.45,0.11
Frosinone,41.63976,13.34109,IT,44505,3176515,Frosinone,0.07,0.25,0.29,0.06,0.15,0.06,0.02,0.07,0.04,0.3,0.37,0.1
Frattaminore,40.9558,14.27201,IT,15487,3176560,Frattaminore,0.1,0.39,0.34,0.05,0.13,0.05,0.02,0.06,0.06,0.26,0.38,0.1
Frattamaggiore,40.9414,14.27588,IT,29822,3176561,Frattamaggiore,0.1,0.39,0.34,0.05,0.13,0.05,0.02,0.06,0.06,0.26,0.38,0.1
Frascati,41.8091,12.67942,IT,20036,3176589,Frascati,0.08,0.21,0.31,0.08,0.19,0.06,0.03,0.11,0.05,0.31,0.31,0.09
Francavilla Fontana,40.53123,17.58522,IT,33415,3176603,Francavilla Fontana,0.07,0.18,0.11,0.01,0.1,0.09,0.02,0.11,0.02,0.16,0.13,0.06
Francavilla al Mare,42.42158,14.28217,IT,21095,3176605,Francavilla al Mare,0.04,0.18,0.11,0.02,0.13,0.08,0.03,0.08,0.06,0.09,0.13,0.08
Fossano,44.55077,7.71922,IT,18773,3176639,Fossano,0.25,0.11,0.17,0.21,0.21,0.14,0.14,0.11,0.03,0.33,0.32,0.0
Fornacelle,43.92377,11.03525,IT,17278,3176722,Fornacelle,0.1,0.16,0.31,0.11,0.14,0.04,0.04,0.04,0.03,0.18,0.12,0.07
Formigine,44.57268,10.84737,IT,34328,3176733,Formigine,0.02,0.12,0.15,0.07,0.18,0.12,0.07,0.12,0.1,0.1,0.1,0.01
Formia,41.25632,13.60888,IT,28521,3176738,Formia,0.08,0.29,0.34,0.09,0.17,0.09,0.02,0.07,0.03,0.33,0.46,0.11
Forlì,44.22177,12.04144,IT,116696,3176746,Forlì,0.02,0.29,0.13,0.05,0.09,0.13,0.06,0.06,0.13,0.1,0.11,0.05
Forio,40.73757,13.86003,IT,15969,3176748,Forio,0.11,0.38,0.28,0.04,0.08,0.03,0.01,0.06,0.04,0.25,0.45,0.11
Fondi,41.35787,13.42718,IT,39762,3176843,Fondi,0.08,0.29,0.34,0.09,0.17,0.09,0.02,0.07,0.03,0.33,0.46,0.11
Follonica,42.92779,10.76451,IT,21163,3176849,Follonica,0.07,0.17,0.18,0.08,0.14,0.03,0.03,0.03,0.03,0.13,0.24,0.06
Foligno,42.95488,12.70268,IT,56918,3176854,Foligno,0.06,0.16,0.27,0.08,0.18,0.05,0.01,0.07,0.03,0.16,0.14,0.07
Foggia,41.45845,15.55188,IT,137032,3176885,Foggia,0.03,0.09,0.12,0.02,0.12,0.06,0.03,0.09,0.03,0.13,0.08,0.04
Fiumicino,41.77093,12.23662,IT,34556,3176923,Fiumicino,0.07,0.21,0.22,0.05,0.11,0.03,0.02,0.07,0.05,0.32,0.39,0.09
Florence,43.77925,11.24626,IT,367150,3176959,Florence,0.09,0.16,0.27,0.09,0.13,0.05,0.03,0.03,0.02,0.16,0.12,0.06
Fiorano,44.53889,10.81166,IT,16278,3176970,Fiorano,0.02,0.12,0.15,0.07,0.18,0.12,0.07,0.12,0.1,0.1,0.1,0.01
Fidenza,44.86694,10.06039,IT,21952,3177029,Fidenza,0.03,0.1,0.14,0.11,0.17,0.11,0.07,0.13,0.11,0.14,0.13,0.01
Ferrara,44.83804,11.62057,IT,132009,3177090,Ferrara,0.02,0.17,0.16,0.05,0.11,0.14,0.09,0.12,0.11,0.1,0.08,0.03
Fermo,43.16296,13.72274,IT,18109,3177099,Fermo,0.04,0.17,0.14,0.04,0.19,0.09,0.04,0.08,0.07,0.08,0.1,0.07
Fasano,40.83625,17.36007,IT,22593,3177171,Fasano,0.08,0.15,0.12,0.02,0.12,0.08,0.03,0.09,0.03,0.17,0.12,0.06
Fano,43.84052,13.01665,IT,60978,3177219,Fano,0.03,0.24,0.15,0.05,0.09,0.1,0.04,0.07,0.11,0.08,0.09,0.07
Falconara Marittima,43.62558,13.39954,IT,25948,3177250,Falconara Marittima,0.03,0.22,0.15,0.05,0.08,0.09,0.03,0.06,0.1,0.07,0.09,0.07
Faenza,44.29007,11.87948,IT,41714,3177300,Faenza,0.02,0.29,0.13,0.05,0.09,0.13,0.06,0.06,0.13,0.1,0.11,0.05
Fabriano,43.33941,12.90327,IT,23230,3177315,Fabriano,0.04,0.19,0.16,0.06,0.15,0.11,0.04,0.08,0.1,0.08,0.08,0.05
Este,45.22338,11.66379,IT,16963,3177337,Este,0.04,0.12,0.19,0.07,0.14,0.13,0.1,0.16,0.08,0.12,0.12,0.02
Ercolano,40.80783,14.35012,IT,53576,3177363,Ercolano,0.11,0.38,0.28,0.04,0.08,0.03,0.01,0.06,0.04,0.25,0.45,0.11
Erba,45.8088,9.22609,IT,16431,3177372,Erba,0.1,0.04,0.21,0.24,0.22,0.11,0.21,0.16,0.09,0.34,0.23,0.01
Empoli,43.71795,10.94758,IT,34394,3177400,Empoli,0.1,0.16,0.31,0.11,0.14,0.04,0.04,0.04,0.03,0.18,0.12,0.07
Eboli,40.61747,15.05693,IT,26183,3177438,Eboli,0.14,0.27,0.39,0.05,0.09,0.05,0.02,0.08,0.03,0.15,0.25,0.11
Domodossola,46.1165,8.29313,IT,17778,3177532,Domodossola,0.26,0.05,0.26,0.25,0.21,0.11,0.16,0.13,0.07,0.58,0.35,0.02
Desio,45.61831,9.20249,IT,41960,3177608,Desio,0.06,0.05,0.2,0.18,0.2,0.09,0.16,0.16,0.1,0.22,0.19,0.01
Desenzano del Garda,45.47127,10.53559,IT,22665,3177610,Desenzano del Garda,0.03,0.08,0.14,0.11,0.19,0.14,0.09,0.14,0.09,0.13,0.11,0.01
Dalmine,45.64933,9.60617,IT,22881,3177650,Dalmine,0.03,0.06,0.16,0.17,0.19,0.12,0.17,0.19,0.18,0.16,0.15,0.01
Cusano,45.55187,9.18373,IT,18904,3177664,Cusano,0.06,0.05,0.2,0.18,0.2,0.09,0.16,0.16,0.1,0.22,0.19,0.01
Cuneo,44.39071,7.54828,IT,55980,3177700,Cuneo,0.19,0.05,0.16,0.2,0.34,0.19,0.17,0.15,0.04,0.39,0.29,0.0
Cremona,45.13325,10.02129,IT,71223,3177838,Cremona,0.03,0.08,0.15,0.14,0.19,0.14,0.1,0.15,0.13,0.15,0.13,0.01
Crema,45.36264,9.68176,IT,31481,3177841,Crema,0.03,0.08,0.15,0.14,0.21,0.13,0.13,0.2,0.17,0.15,0.15,0.01
Corsico,45.43099,9.11093,IT,33669,3178004,Corsico,0.09,0.06,0.21,0.22,0.28,0.1,0.23,0.17,0.1,0.28,0.22,0.01
Correggio,44.76737,10.78345,IT,15571,3178019,Correggio,0.02,0.12,0.15,0.07,0.18,0.12,0.07,0.12,0.1,0.1,0.1,0.01
Cornaredo,45.50128,9.02681,IT,20098,3178074,Cornaredo,0.09,0.06,0.21,0.22,0.28,0.1,0.23,0.17,0.1,0.28,0.22,0.01
Cormano,45.54917,9.15964,IT,20031,3178087,Cormano,0.06,0.05,0.2,0.18,0.2,0.09,0.16,0.16,0.1,0.22,0.19,0.01
Cordenons,45.9836,12.70038,IT,15962,3178112,Cordenons,0.09,0.1,0.22,0.1,0.18,0.13,0.09,0.19,0.09,0.24,0.17,0.01
Corato,41.15171,16.41143,IT,46505,3178131,Corato,0.07,0.11,0.14,0.04,0.11,0.11,0.03,0.1,0.04,0.15,0.1,0.06
Copertino,40.26821,18.0543,IT,23489,3178141,Copertino,0.07,0.24,0.09,0.01,0.06,0.1,0.01,0.09,0.01,0.16,0.17,0.07
Conversano,40.96836,17.11329,IT,22661,3178147,Conversano,0.07,0.12,0.14,0.03,0.09,0.1,0.03,0.09,0.02,0.14,0.12,0.06
Conegliano,45.88805,12.30201,IT,30765,3178197,Conegliano,0.1,0.09,0.2,0.13,0.17,0.12,0.06,0.14,0.08,0.24,0.16,0.01
Como,45.80819,9.0832,IT,84808,3178229,Como,0.11,0.06,0.2,0.21,0.29,0.12,0.17,0.1,0.08,0.3,0.21,0.01
Cologno Monzese,45.53004,9.27795,IT,45786,3178283,Cologno Monzese,0.06,0.05,0.2,0.18,0.2,0.09,0.16,0.16,0.1,0.22,0.19,0.01
Collegno,45.07873,7.56735,IT,46524,3178388,Collegno,0.21,0.08,0.14,0.17,0.25,0.16,0.06,0.09,0.01,0.26,0.22,0.01
Colleferro,41.72722,13.00481,IT,20736,3178398,Colleferro,0.08,0.21,0.31,0.08,0.19,0.06,0.03,0.11,0.05,0.31,0.31,0.09
Colle di Val d'Elsa,43.42107,11.12739,IT,16625,3178402,Colle di Val d'Elsa,0.09,0.16,0.27,0.09,0.13,0.05,0.03,0.03,0.02,0.16,0.12,0.06
Civitavecchia,42.09325,11.79674,IT,47543,3178587,Civitavecchia,0.07,0.21,0.22,0.05,0.11,0.03,0.02,0.07,0.05,0.32,0.39,0.09
Città di Castello,43.46556,12.2375,IT,22497,3178619,Città di Castello,0.08,0.19,0.22,0.09,0.12,0.07,0.02,0.08,0.06,0.16,0.15,0.07
Cisterna di Latina,41.5908,12.82808,IT,27362,3178631,Cisterna di Latina,0.08,0.24,0.26,0.05,0.12,0.03,0.02,0.07,0.04,0.29,0.39,0.11
Ciriè,45.23486,7.60125,IT,17439,3178650,Ciriè,0.21,0.08,0.14,0.17,0.25,0.16,0.06,0.09,0.01,0.26,0.22,0.01
Cinisello Balsamo,45.55823,9.21495,IT,75943,3178671,Cinisello Balsamo,0.06,0.05,0.2,0.18,0.2,0.09,0.16,0.16,0.1,0.22,0.19,0.01
Ciampino,41.80064,12.60158,IT,38277,3178738,Ciampino,0.07,0.21,0.26,0.05,0.14,0.03,0.03,0.07,0.05,0.28,0.34,0.09
Chivasso,45.19093,7.88981,IT,23017,3178745,Chivasso,0.23,0.08,0.16,0.19,0.26,0.12,0.07,0.1,0.03,0.3,0.26,0.01
Chioggia,45.21857,12.27774,IT,41897,3178784,Chioggia,0.04,0.14,0.19,0.07,0.16,0.13,0.11,0.19,0.1,0.11,0.13,0.02
Chieti,42.34827,14.16494,IT,44444,3178796,Chieti,0.04,0.2,0.1,0.06,0.26,0.15,0.08,0.1,0.12,0.21,0.17,0.08
Chieri,45.01054,7.82133,IT,36749,3178818,Chieri,0.21,0.08,0.14,0.17,0.25,0.16,0.06,0.09,0.01,0.26,0.22,0.01
Chiavari,44.31771,9.32241,IT,26572,3178832,Chiavari,0.16,0.13,0.39,0.14,0.09,0.04,0.04,0.07,0.09,0.36,0.19,0.06
Chiari,45.53763,9.92699,IT,15541,3178850,Chiari,0.04,0.05,0.16,0.16,0.17,0.13,0.14,0.14,0.13,0.18,0.14,0.01
Cesenatico,44.19987,12.3991,IT,18925,3178956,Cesenatico,0.02,0.28,0.14,0.04,0.08,0.12,0.03,0.05,0.07,0.07,0.09,0.05
Cesena,44.1391,12.24315,IT,97137,3178957,Cesena,0.02,0.28,0.14,0.04,0.08,0.12,0.03,0.05,0.07,0.07,0.09,0.05
Cesano Maderno,45.62915,9.15189,IT,36986,3178972,Cesano Maderno,0.09,0.06,0.21,0.22,0.28,0.1,0.23,0.17,0.1,0.28,0.22,0.01
Cervia,44.26204,12.34812,IT,28700,3178998,Cervia,0.02,0.28,0.14,0.04,0.08,0.12,0.03,0.05,0.07,0.07,0.09,0.05
Cerveteri,41.9908,12.09082,IT,15883,3178999,Cerveteri,0.07,0.21,0.22,0.05,0.11,0.03,0.02,0.07,0.05,0.32,0.39,0.09
Cernusco sul Naviglio,45.52526,9.33297,IT,29078,3179066,Cernusco sul Naviglio,0.06,0.05,0.2,0.18,0.2,0.09,0.16,0.16,0.1,0.22,0.19,0.01
Cerignola,41.26523,15.89559,IT,54056,3179075,Cerignola,0.06,0.1,0.14,0.02,0.09,0.07,0.02,0.06,0.04,0.16,0.08,0.05
Cercola,40.86043,14.35733,IT,17821,3179109,Cercola,0.11,0.38,0.28,0.04,0.08,0.03,0.01,0.06,0.04,0.25,0.45,0.11
Cento,44.73099,11.28716,IT,18191,3179162,Cento,0.02,0.16,0.15,0.04,0.11,0.12,0.12,0.11,0.09,0.09,0.08,0.02
Ceglie Messapica,40.6462,17.51661,IT,16536,3179218,Ceglie Messapica,0.08,0.15,0.12,0.02,0.12,0.08,0.03,0.09,0.03,0.17,0.12,0.06
Cecina,43.30621,10.51729,IT,22018,3179235,Cecina,0.07,0.19,0.2,0.09,0.16,0.05,0.02,0.03,0.04,0.16,0.14,0.09
Cava Dè Tirreni,40.69954,14.70773,IT,53130,3179337,Cava Dè Tirreni,0.15,0.37,0.45,0.06,0.16,0.07,0.03,0.1,0.06,0.28,0.31,0.12
Cattolica,43.96182,12.73631,IT,16189,3179347,Cattolica,0.03,0.24,0.15,0.05,0.09,0.1,0.04,0.07,0.11,0.08,0.09,0.07
Castiglione delle Stiviere,45.3902,10.48619,IT,18530,3179415,Castiglione delle Stiviere,0.03,0.08,0.14,0.11,0.19,0.14,0.09,0.14,0.09,0.13,0.11,0.01
Castel Volturno,41.03288,13.94354,IT,21881,3179443,Castel Volturno,0.11,0.38,0.28,0.04,0.08,0.03,0.01,0.06,0.04,0.25,0.45,0.11
Castel Maggiore,44.57707,11.36071,IT,16068,3179560,Castel Maggiore,0.02,0.16,0.15,0.04,0.11,0.12,0.12,0.11,0.09,0.09,0.08,0.02
Castellammare di Stabia,40.70211,14.48685,IT,66164,3179661,Castellammare di Stabia,0.1,0.39,0.34,0.05,0.13,0.05,0.02,0.06,0.06,0.26,0.38,0.1
Castelfranco Veneto,45.67146,11.92755,IT,25545,3179684,Castelfranco Veneto,0.1,0.08,0.19,0.13,0.14,0.13,0.1,0.12,0.07,0.25,0.14,0.01
Castelfranco Emilia,44.59445,11.04979,IT,17315,3179686,Castelfranco Emilia,0.02,0.16,0.15,0.04,0.11,0.12,0.12,0.11,0.09,0.09,0.08,0.02
Cassino,41.48581,13.82835,IT,21074,3179781,Cassino,0.08,0.38,0.31,0.06,0.14,0.05,0.02,0.08,0.04,0.3,0.41,0.09
Cassano d'Adda,45.52637,9.51528,IT,17267,3179795,Cassano d'Adda,0.04,0.05,0.19,0.15,0.18,0.1,0.16,0.16,0.11,0.19,0.16,0.01
Casoria,40.90751,14.293,IT,73918,3179806,Casoria,0.1,0.39,0.34,0.05,0.13,0.05,0.02,0.06,0.06,0.26,0.38,0.1
Caserta,41.07262,14.33231,IT,72844,3179866,Caserta,0.1,0.39,0.34,0.05,0.13,0.05,0.02,0.06,0.06,0.26,0.38,0.1
Cascina,43.67557,10.55494,IT,40512,3179977,Cascina,0.08,0.15,0.25,0.1,0.17,0.05,0.03,0.04,0.06,0.19,0.12,0.08
Casamassima,40.95653,16.92075,IT,18380,3180133,Casamassima,0.07,0.12,0.14,0.03,0.09,0.1,0.03,0.09,0.02,0.14,0.12,0.06
Casalnuovo di Napoli,40.90969,14.34205,IT,45796,3180172,Casalnuovo di Napoli,0.1,0.39,0.34,0.05,0.13,0.05,0.02,0.06,0.06,0.26,0.38,0.1
Casale Monferrato,45.13338,8.4525,IT,33213,3180208,Casale Monferrato,0.11,0.08,0.17,0.17,0.32,0.12,0.14,0.11,0.06,0.26,0.19,0.01
Casalecchio di Reno,44.47563,11.27495,IT,33789,3180224,Casalecchio di Reno,0.02,0.19,0.15,0.04,0.16,0.14,0.06,0.08,0.09,0.12,0.08,0.03
Casal di Principe,41.00996,14.13013,IT,20589,3180240,Casal di Principe,0.11,0.38,0.28,0.04,0.08,0.03,0.01,0.06,0.04,0.25,0.45,0.11
Carugate,45.54983,9.34044,IT,15368,3180389,Carugate,0.06,0.05,0.2,0.18,0.2,0.09,0.16,0.16,0.1,0.22,0.19,0.01
Carrara,44.07926,10.09789,IT,58666,3180423,Carrara,0.16,0.18,0.44,0.16,0.11,0.04,0.05,0.04,0.04,0.29,0.13,0.12
Carpi Centro,44.78237,10.8777,IT,71148,3180445,Carpi Centro,0.02,0.16,0.14,0.05,0.13,0.1,0.07,0.11,0.07,0.07,0.08,0.02
Carmagnola,44.84963,7.72032,IT,23012,3180496,Carmagnola,0.16,0.09,0.15,0.17,0.29,0.16,0.09,0.1,0.03,0.27,0.24,0.0
Cardito,40.9459,14.29952,IT,22239,3180541,Cardito,0.1,0.39,0.34,0.05,0.13,0.05,0.02,0.06,0.06,0.26,0.38,0.1
Carate Brianza,45.67574,9.23723,IT,15404,3180581,Carate Brianza,0.09,0.06,0.21,0.22,0.28,0.1,0.23,0.17,0.1,0.28,0.22,0.01
Capua,41.10519,14.21269,IT,15438,3180601,Capua,0.1,0.39,0.34,0.05,0.13,0.05,0.02,0.06,0.06,0.26,0.38,0.1
Capannori,43.84171,10.57271,IT,41116,3180733,Capannori,0.08,0.15,0.25,0.1,0.17,0.05,0.03,0.04,0.06,0.19,0.12,0.08
Cantù,45.74096,9.13084,IT,39917,3180758,Cantù,0.08,0.04,0.21,0.22,0.22,0.1,0.2,0.16,0.1,0.31,0.22,0.01
Canosa di Puglia,41.21954,16.06768,IT,29847,3180792,Canosa di Puglia,0.06,0.1,0.14,0.02,0.09,0.07,0.02,0.06,0.04,0.16,0.08,0.05
Campobasso,41.55947,14.66737,IT,49230,3180991,Campobasso,0.04,0.21,0.15,0.04,0.17,0.11,0.07,0.09,0.05,0.21,0.16,0.08
Campi Bisenzio,43.8245,11.13027,IT,32871,3181018,Campi Bisenzio,0.09,0.16,0.27,0.09,0.13,0.05,0.03,0.03,0.02,0.16,0.12,0.06
Camaiore,43.94265,10.29754,IT,26746,3181125,Camaiore,0.12,0.15,0.33,0.13,0.14,0.04,0.04,0.04,0.04,0.21,0.11,0.09
Caivano,40.95753,14.30591,IT,34604,3181258,Caivano,0.1,0.39,0.34,0.05,0.13,0.05,0.02,0.06,0.06,0.26,0.38,0.1
Busto Arsizio,45.61128,8.84914,IT,83405,3181355,Busto Arsizio,0.11,0.06,0.2,0.21,0.29,0.12,0.17,0.1,0.08,0.3,0.21,0.01
Bussolengo,45.46903,10.85371,IT,15170,3181359,Bussolengo,0.03,0.08,0.14,0.11,0.19,0.14,0.09,0.14,0.09,0.13,0.11,0.01
Brusciano,40.92237,14.42386,IT,15238,3181471,Brusciano,0.1,0.39,0.34,0.05,0.13,0.05,0.02,0.06,0.06,0.26,0.38,0.1
Brugherio,45.55301,9.29907,IT,33061,3181495,Brugherio,0.06,0.05,0.2,0.18,0.2,0.09,0.16,0.16,0.1,0.22,0.19,0.01
Brindisi,40.63215,17.93607,IT,87141,3181528,Brindisi,0.07,0.21,0.11,0.01,0.07,0.09,0.02,0.1,0.02,0.11,0.14,0.07
Bresso,45.53792,9.18921,IT,25712,3181548,Bresso,0.06,0.05,0.2,0.18,0.2,0.09,0.16,0.16,0.1,0.22,0.19,0.01
Bressanone,46.71503,11.65598,IT,15868,3181550,Bressanone,0.02,0.0,0.05,0.09,0.17,0.07,0.08,0.12,0.03,0.25,0.07,0.01
Brescia,45.53558,10.21472,IT,200423,3181554,Brescia,0.04,0.05,0.16,0.16,0.17,0.13,0.14,0.14,0.13,0.18,0.14,0.01
Bra,44.69776,7.85128,IT,24072,3181631,Bra,0.16,0.09,0.15,0.17,0.29,0.16,0.09,0.1,0.03,0.27,0.24,0.0
Bovisio-Masciago,45.61019,9.15301,IT,16542,3181641,Bovisio-Masciago,0.06,0.05,0.2,0.18,0.2,0.09,0.16,0.16,0.1,0.22,0.19,0.01
Boscoreale,40.77274,14.48118,IT,26861,3181683,Boscoreale,0.1,0.39,0.34,0.05,0.13,0.05,0.02,0.06,0.06,0.26,0.38,0.1
Borgomanero,45.69873,8.4623,IT,20430,3181790,Borgomanero,0.16,0.04,0.24,0.24,0.2,0.1,0.15,0.13,0.06,0.46,0.29,0.01
Bolzano,46.49067,11.33982,IT,107436,3181913,Bolzano,0.03,0.0,0.08,0.13,0.11,0.04,0.07,0.11,0.02,0.29,0.12,0.01
Bologna,44.49381,11.33875,IT,394843,3181928,Bologna,0.02,0.19,0.15,0.04,0.16,0.14,0.06,0.08,0.09,0.12,0.08,0.03
Bollate,45.54647,9.12054,IT,35235,3181931,Bollate,0.09,0.06,0.21,0.22,0.28,0.1,0.23,0.17,0.1,0.28,0.22,0.01
Bitonto,41.11006,16.69086,IT,51661,3181995,Bitonto,0.05,0.09,0.15,0.01,0.06,0.09,0.02,0.07,0.04,0.13,0.09,0.06
Bisceglie,41.24264,16.50104,IT,55385,3182007,Bisceglie,0.05,0.09,0.15,0.01,0.06,0.09,0.02,0.07,0.04,0.13,0.09,0.06
Biella,45.56304,8.05796,IT,43030,3182043,Biella,0.33,0.07,0.2,0.23,0.21,0.1,0.12,0.1,0.06,0.45,0.35,0.02
Bergamo,45.69601,9.66721,IT,121200,3182164,Bergamo,0.04,0.05,0.16,0.16,0.17,0.13,0.14,0.14,0.13,0.18,0.14,0.01
Benevento,41.1307,14.77816,IT,58418,3182179,Benevento,0.1,0.38,0.39,0.06,0.18,0.07,0.03,0.1,0.07,0.28,0.31,0.08
Belluno,46.14262,12.2156,IT,25064,3182210,Belluno,0.12,0.06,0.18,0.17,0.17,0.15,0.18,0.16,0.09,0.31,0.16,0.01
Battipaglia,40.60861,14.98209,IT,47104,3182272,Battipaglia,0.14,0.27,0.39,0.05,0.09,0.05,0.02,0.08,0.03,0.15,0.25,0.11
Bastia umbra,43.06425,12.54612,IT,17831,3182289,Bastia umbra,0.05,0.17,0.23,0.08,0.16,0.06,0.02,0.08,0.04,0.19,0.19,0.06
Bassano del Grappa,45.76656,11.72739,IT,38224,3182297,Bassano del Grappa,0.1,0.08,0.19,0.13,0.14,0.13,0.1,0.12,0.07,0.25,0.14,0.01
Barra,40.84255,14.31849,IT,36642,3182336,Barra,0.11,0.38,0.28,0.04,0.08,0.03,0.01,0.06,0.04,0.25,0.45,0.11
Barletta,41.31429,16.28165,IT,93279,3182340,Barletta,0.04,0.08,0.13,0.01,0.08,0.07,0.02,0.05,0.03,0.17,0.09,0.06
Bari,41.12066,16.86982,IT,316491,3182351,Bari,0.05,0.09,0.15,0.01,0.06,0.09,0.02,0.07,0.04,0.13,0.09,0.06
Bareggio,45.47927,8.99789,IT,16546,3182361,Bareggio,0.09,0.06,0.21,0.22,0.28,0.1,0.23,0.17,0.1,0.28,0.22,0.01
Bagnoli,40.81322,14.16807,IT,23333,3182518,Bagnoli,0.11,0.38,0.28,0.04,0.08,0.03,0.01,0.06,0.04,0.25,0.45,0.11
Bacoli,40.79672,14.07349,IT,25590,3182599,Bacoli,0.11,0.38,0.28,0.04,0.08,0.03,0.01,0.06,0.04,0.25,0.45,0.11
Avezzano,42.02896,13.42641,IT,37808,3182636,Avezzano,0.08,0.27,0.35,0.09,0.22,0.09,0.03,0.15,0.06,0.42,0.31,0.12
Aversa,40.97259,14.20745,IT,52974,3182640,Aversa,0.1,0.39,0.34,0.05,0.13,0.05,0.02,0.06,0.06,0.26,0.38,0.1
Avellino,40.91494,14.79103,IT,48104,3182650,Avellino,0.09,0.33,0.35,0.06,0.19,0.08,0.03,0.13,0.06,0.25,0.25,0.07
Asti,44.90162,8.20751,IT,74348,3182714,Asti,0.08,0.08,0.14,0.11,0.22,0.09,0.1,0.1,0.03,0.28,0.16,0.01
Ascoli Piceno,42.85351,13.57395,IT,41741,3182749,Ascoli Piceno,0.04,0.17,0.14,0.04,0.19,0.09,0.04,0.08,0.07,0.08,0.1,0.07
Arzignano,45.52027,11.33446,IT,21247,3182757,Arzignano,0.04,0.1,0.17,0.08,0.17,0.15,0.14,0.16,0.09,0.13,0.12,0.01
Arzano,40.90959,14.26519,IT,34933,3182765,Arzano,0.1,0.39,0.34,0.05,0.13,0.05,0.02,0.06,0.06,0.26,0.38,0.1
Ariccia,41.72063,12.6723,IT,17487,3182851,Ariccia,0.1,0.22,0.37,0.1,0.22,0.1,0.03,0.17,0.05,0.34,0.29,0.11
Arezzo,43.46276,11.88068,IT,100734,3182884,Arezzo,0.08,0.19,0.22,0.09,0.12,0.07,0.02,0.08,0.06,0.16,0.15,0.07
Arese,45.55048,9.07741,IT,19138,3182886,Arese,0.09,0.06,0.21,0.22,0.28,0.1,0.23,0.17,0.1,0.28,0.22,0.01
Ardea,41.60742,12.54158,IT,17078,3182897,Ardea,0.07,0.21,0.26,0.05,0.14,0.03,0.03,0.07,0.05,0.28,0.34,0.09
Arcore,45.62675,9.32454,IT,16690,3182904,Arcore,0.09,0.06,0.21,0.22,0.28,0.1,0.23,0.17,0.1,0.28,0.22,0.01
Aprilia,41.59452,12.65419,IT,74977,3182957,Aprilia,0.08,0.24,0.26,0.05,0.12,0.03,0.02,0.07,0.04,0.29,0.39,0.11
Aosta,45.73764,7.31722,IT,35261,3182997,Aosta,0.17,0.0,0.08,0.21,0.28,0.22,0.26,0.2,0.13,0.33,0.28,0.02
Anzio,41.45263,12.62157,IT,45403,3183005,Anzio,0.07,0.21,0.26,0.05,0.14,0.03,0.03,0.07,0.05,0.28,0.34,0.09
Angri,40.73815,14.5707,IT,31632,3183063,Angri,0.1,0.39,0.34,0.05,0.13,0.05,0.02,0.06,0.06,0.26,0.38,0.1
Andria,41.23117,16.29797,IT,99784,3183072,Andria,0.06,0.09,0.15,0.01,0.1,0.09,0.02,0.09,0.04,0.16,0.09,0.06
Ancona,43.5942,13.50337,IT,89994,3183089,Ancona,0.04,0.19,0.14,0.03,0.09,0.09,0.02,0.05,0.07,0.06,0.07,0.07
Altamura,40.82664,16.54952,IT,70539,3183178,Altamura,0.05,0.14,0.1,0.05,0.11,0.1,0.01,0.11,0.0,0.17,0.08,0.03
Alpignano,45.09346,7.52392,IT,16598,3183187,Alpignano,0.21,0.08,0.14,0.17,0.25,0.16,0.06,0.09,0.01,0.26,0.22,0.01
Alghero,40.55969,8.31953,IT,34261,3183284,Alghero,0.03,0.11,0.15,0.04,0.21,0.1,0.0,0.05,0.05,0.14,0.16,0.07
Alessandria,44.90924,8.61007,IT,92104,3183299,Alessandria,0.08,0.08,0.14,0.11,0.22,0.09,0.1,0.1,0.03,0.28,0.16,0.01
Albignasego,45.34705,11.86781,IT,16477,3183319,Albignasego,0.04,0.12,0.19,0.07,0.14,0.13,0.1,0.16,0.08,0.12,0.12,0.02
Albenga,44.04997,8.21829,IT,17103,3183343,Albenga,0.26,0.04,0.22,0.17,0.19,0.09,0.17,0.09,0.06,0.48,0.32,0.04
Albano Laziale,41.72748,12.659,IT,26684,3183356,Albano Laziale,0.08,0.18,0.31,0.09,0.21,0.07,0.02,0.1,0.05,0.27,0.23,0.08
Alba,44.6999,8.0347,IT,24923,3183364,Alba,0.13,0.07,0.14,0.14,0.28,0.12,0.07,0.07,0.02,0.26,0.17,0.0
Agropoli,40.34923,14.99067,IT,17335,3183412,Agropoli,0.14,0.27,0.39,0.05,0.09,0.05,0.02,0.08,0.03,0.15,0.25,0.11
Afragola,40.92298,14.30935,IT,64470,3183455,Afragola,0.1,0.39,0.34,0.05,0.13,0.05,0.02,0.06,0.06,0.26,0.38,0.1
Adelfia,41.0033,16.87208,IT,16756,3183472,Adelfia,0.07,0.11,0.14,0.04,0.11,0.11,0.03,0.1,0.04,0.15,0.1,0.06
Acqui Terme,44.67552,8.46934,IT,17828,3183490,Acqui Terme,0.09,0.06,0.14,0.11,0.19,0.08,0.1,0.08,0.03,0.35,0.15,0.01
Acquaviva delle Fonti,40.89704,16.8433,IT,20536,3183494,Acquaviva delle Fonti,0.07,0.11,0.14,0.04,0.11,0.11,0.03,0.1,0.04,0.15,0.1,0.06
Acilia-Castel Fusano-Ostia Antica,41.76337,12.33078,IT,129362,3183539,Acilia-Castel Fusano-Ostia Antica,0.07,0.21,0.22,0.05,0.11,0.03,0.02,0.07,0.05,0.32,0.39,0.09
Acerra,40.94477,14.3714,IT,59910,3183541,Acerra,0.1,0.39,0.34,0.05,0.13,0.05,0.02,0.06,0.06,0.26,0.38,0.1
Abbiategrasso,45.39821,8.91678,IT,32784,3183573,Abbiategrasso,0.09,0.06,0.21,0.22,0.28,0.1,0.23,0.17,0.1,0.28,0.22,0.01
Abano Terme,45.35753,11.78725,IT,18224,3183587,Abano Terme,0.04,0.12,0.19,0.07,0.14,0.13,0.1,0.16,0.08,0.12,0.12,0.02
Spinea-Orgnano,45.49107,12.155,IT,23710,3219114,Spinea-Orgnano,0.04,0.14,0.19,0.07,0.16,0.13,0.11,0.19,0.1,0.11,0.13,0.02
Verbania,45.92136,8.55183,IT,31070,6457398,Verbania,0.16,0.04,0.24,0.24,0.2,0.1,0.15,0.13,0.06,0.46,0.29,0.01
Lumezzane,45.64789,10.26487,IT,23712,6534216,Lumezzane,0.03,0.05,0.15,0.15,0.15,0.13,0.11,0.12,0.07,0.18,0.12,0.01
Guidonia Montecelio,41.99362,12.72238,IT,67516,6534228,Guidonia Montecelio,0.07,0.21,0.26,0.05,0.14,0.03,0.03,0.07,0.05,0.28,0.34,0.09
Lamezia Terme,38.96255,16.30938,IT,70501,6534232,Lamezia Terme,0.12,0.28,0.18,0.03,0.02,0.07,0.02,0.07,0.01,0.19,0.18,0.12
Caronno Pertusella,45.59777,9.04634,IT,16377,6534234,Caronno Pertusella,0.09,0.06,0.21,0.22,0.28,0.1,0.23,0.17,0.1,0.28,0.22,0.01
Cassano Magnago,45.67206,8.82691,IT,21208,6534235,Cassano Magnago,0.16,0.04,0.24,0.24,0.2,0.1,0.15,0.13,0.06,0.46,0.29,0.01
San Felice A Cancello,41.01702,14.48736,IT,16571,6534252,San Felice A Cancello,0.1,0.39,0.34,0.05,0.13,0.05,0.02,0.06,0.06,0.26,0.38,0.1
San Nicola la Strada,41.05237,14.33334,IT,21147,6534253,San Nicola la Strada,0.1,0.39,0.34,0.05,0.13,0.05,0.02,0.06,0.06,0.26,0.38,0.1
Quarto,40.87822,14.14352,IT,37683,6534256,Quarto,0.1,0.39,0.34,0.05,0.13,0.05,0.02,0.06,0.06,0.26,0.38,0.1
Orta di Atella,40.96441,14.26854,IT,24750,6534264,Orta di Atella,0.1,0.39,0.34,0.05,0.13,0.05,0.02,0.06,0.06,0.26,0.38,0.1
Casavatore,40.89921,14.27663,IT,18663,6534267,Casavatore,0.1,0.39,0.34,0.05,0.13,0.05,0.02,0.06,0.06,0.26,0.38,0.1
Volla,40.87363,14.34085,IT,22911,6534268,Volla,0.11,0.38,0.28,0.04,0.08,0.03,0.01,0.06,0.04,0.25,0.45,0.11
Gravina di Catania,37.56085,15.06292,IT,26524,6534275,Gravina di Catania,0.02,0.17,0.07,0.04,0.03,0.04,0.0,0.11,0.06,0.37,0.13,0.04
Cesano Boscone,45.44207,9.09445,IT,23368,6534280,Cesano Boscone,0.09,0.06,0.21,0.22,0.28,0.1,0.23,0.17,0.1,0.28,0.22,0.01
Tor Lupara,41.99771,12.61814,IT,20843,6534284,Tor Lupara,0.07,0.18,0.27,0.08,0.15,0.05,0.02,0.05,0.04,0.26,0.25,0.07
Torvaianica,41.62112,12.46197,IT,17235,6620312,Torvaianica,0.07,0.21,0.26,0.05,0.14,0.03,0.03,0.07,0.05,0.28,0.34,0.09
Casal Palocco,41.74845,12.34726,IT,32706,6698333,Casal Palocco,0.07,0.21,0.22,0.05,0.11,0.03,0.02,0.07,0.05,0.32,0.39,0.09
Bellaria-Igea Marina,44.14255,12.47154,IT,17635,8224092,Bellaria-Igea Marina,0.02,0.28,0.14,0.04,0.08,0.12,0.03,0.05,0.07,0.07,0.09,0.05
Villanova,41.96357,12.75633,IT,15117,8378910,Villanova,0.07,0.21,0.26,0.05,0.14,0.03,0.03,0.07,0.05,0.28,0.34,0.09
Marina di Ardea-Tor San Lorenzo,41.55439,12.54115,IT,20216,8394392,Marina di Ardea-Tor San Lorenzo,0.07,0.21,0.26,0.05,0.14,0.03,0.03,0.07,0.05,0.28,0.34,0.09
San Paolo,41.12476,16.79258,IT,29800,8948703,San Paolo,0.05,0.09,0.15,0.01,0.06,0.09,0.02,0.07,0.04,0.13,0.09,0.06
Monterusciello,40.86874,14.08276,IT,29125,8948704,Monterusciello,0.1,0.39,0.34,0.05,0.13,0.05,0.02,0.06,0.06,0.26,0.38,0.1
Romano Banco,45.42309,9.10707,IT,26163,8948705,Romano Banco,0.09,0.06,0.21,0.22,0.28,0.1,0.23,0.17,0.1,0.28,0.22,0.01
Casa Santa,38.02514,12.5484,IT,23880,8948706,Casa Santa,0.05,0.21,0.1,0.01,0.04,0.01,0.0,0.04,0.06,0.17,0.26,0.03
Arpino,40.88882,14.32015,IT,19988,8948708,Arpino,0.1,0.39,0.34,0.05,0.13,0.05,0.02,0.06,0.06,0.26,0.38,0.1
Paolo VI,40.52218,17.27401,IT,17330,8948709,Paolo VI,0.07,0.18,0.11,0.01,0.1,0.07,0.02,0.07,0.01,0.2,0.13,0.06
Corigliano Scalo,39.62713,16.51368,IT,15136,9003711,Corigliano Scalo,0.05,0.19,0.13,0.01,0.02,0.04,0.0,0.01,0.01,0.22,0.12,0.08
Stella,40.86027,14.25223,IT,30483,10294260,Stella,0.11,0.38,0.28,0.04,0.08,0.03,0.01,0.06,0.04,0.25,0.45,0.11
San Carlo All'Arena,40.86511,14.26291,IT,69094,10295350,San Carlo All'Arena,0.11,0.38,0.28,0.04,0.08,0.03,0.01,0.06,0.04,0.25,0.45,0.11
Chiaia,40.83255,14.22677,IT,38356,12070058,Chiaia,0.11,0.38,0.28,0.04,0.08,0.03,0.01,0.06,0.04,0.25,0.45,0.11
Chiaiano,40.88101,14.20759,IT,23396,12070059,Chiaiano,0.1,0.39,0.34,0.05,0.13,0.05,0.02,0.06,0.06,0.26,0.38,0.1
Vicaria,40.86151,14.27328,IT,15062,12070060,Vicaria,0.11,0.38,0.28,0.04,0.08,0.03,0.01,0.06,0.04,0.25,0.45,0.11
San Ferdinando,40.83342,14.24751,IT,18404,12070061,San Ferdinando,0.11,0.38,0.28,0.04,0.08,0.03,0.01,0.06,0.04,0.25,0.45,0.11
Pendino,40.84708,14.26321,IT,16848,12070063,Pendino,0.11,0.38,0.28,0.04,0.08,0.03,0.01,0.06,0.04,0.25,0.45,0.11
Arenella,40.85734,14.2228,IT,67634,12070064,Arenella,0.1,0.38,0.39,0.06,0.18,0.07,0.03,0.1,0.07,0.28,0.31,0.08
Avvocata,40.85432,14.24325,IT,33001,12070065,Avvocata,0.1,0.39,0.34,0.05,0.13,0.05,0.02,0.06,0.06,0.26,0.38,0.1
Montecalvario,40.84436,14.24555,IT,23050,12070066,Montecalvario,0.11,0.38,0.28,0.04,0.08,0.03,0.01,0.06,0.04,0.25,0.45,0.11
Scampia,40.90347,14.23736,IT,39060,12070067,Scampia,0.1,0.39,0.34,0.05,0.13,0.05,0.02,0.06,0.06,0.26,0.38,0.1
San Pietro a Patierno,40.88566,14.29008,IT,17324,12070069,San Pietro a Patierno,0.1,0.39,0.34,0.05,0.13,0.05,0.02,0.06,0.06,0.26,0.38,0.1
San Lorenzo,40.85686,14.26481,IT,48078,12070070,San Lorenzo,0.11,0.38,0.28,0.04,0.08,0.03,0.01,0.06,0.04,0.25,0.45,0.11
Monte Rosello,40.73542,8.56771,IT,45000,12188754,Monte Rosello,0.03,0.11,0.15,0.04,0.21,0.1,0.0,0.05,0.05,0.14,0.16,0.07
Arcella,45.42178,11.88755,IT,44000,12188755,Arcella,0.07,0.1,0.17,0.09,0.19,0.11,0.05,0.15,0.09,0.15,0.15,0.01
Casal de' Pazzi,41.92884,12.56582,IT,27206,12188855,Casal de' Pazzi,0.07,0.18,0.27,0.08,0.15,0.05,0.02,0.05,0.04,0.26,0.25,0.07
Giardinetti-Tor Vergata,41.85305,12.61853,IT,20680,12188858,Giardinetti-Tor Vergata,0.07,0.21,0.26,0.05,0.14,0.03,0.03,0.07,0.05,0.28,0.34,0.09
Casal Bertone,41.89821,12.53413,IT,16273,12188859,Casal Bertone,0.07,0.21,0.26,0.05,0.14,0.03,0.03,0.07,0.05,0.28,0.34,0.09
