name,latitude,longitude,country,population,id,city,jan,feb,mar,apr,may,jun,jul,aug,sep,oct,nov,dec
Żabbar,35.87611,14.535,MT,15648,2562266,Żabbar,0.07,0.1,0.04,0.07,0.0,0.0,0.0,0.02,0.16,0.05,0.08,0.11
Sliema,35.9125,14.50194,MT,22591,2562501,Sliema,0.07,0.1,0.04,0.07,0.0,0.0,0.0,0.02,0.16,0.05,0.08,0.11
San Pawl il-Baħar,35.95064,14.41561,MT,32042,2562541,San Pawl il-Baħar,0.07,0.1,0.04,0.07,0.0,0.0,0.0,0.02,0.16,0.05,0.08,0.11
Qormi,35.87601,14.472,MT,16801,2562629,Qormi,0.07,0.1,0.04,0.07,0.0,0.0,0.0,0.02,0.16,0.05,0.08,0.11
Mosta,35.90917,14.42556,MT,23482,2562704,Mosta,0.07,0.1,0.04,0.07,0.0,0.0,0.0,0.02,0.16,0.05,0.08,0.11
Birkirkara,35.89722,14.46111,MT,24356,2563191,Birkirkara,0.07,0.1,0.04,0.07,0.0,0.0,0.0,0.02,0.16,0.05,0.08,0.11
