name,latitude,longitude,country,population,id,city,jan,feb,mar,apr,may,jun,jul,aug,sep,oct,nov,dec
Alta,69.96887,23.27165,NO,15094,847633,Alta,0.01,0.0,0.0,0.01,0.08,0.2,0.05,0.13,0.08,0.04,0.08,0.0
Trondheim,63.43049,10.39506,NO,147139,3133880,Trondheim,0.01,0.0,0.01,0.08,0.03,0.1,0.05,0.21,0.27,0.18,0.03,0.13
Tromsø,69.6489,18.95508,NO,64448,3133895,Tromsø,0.02,0.0,0.0,0.04,0.14,0.33,0.04,0.19,0.18,0.12,0.15,0.02
Tønsberg,59.26754,10.40762,NO,38914,3134331,Tønsberg,0.05,0.0,0.0,0.05,0.03,0.04,0.07,0.06,0.15,0.06,0.11,0.03
Steinkjer,64.01487,11.49537,NO,20000,3136947,Steinkjer,0.01,0.0,0.02,0.08,0.03,0.13,0.04,0.23,0.3,0.15,0.04,0.1
Stavanger,58.97005,5.73332,NO,144877,3137115,Stavanger,0.26,0.12,0.03,0.09,0.08,0.1,0.06,0.29,0.55,0.36,0.18,0.14
Skien,59.20962,9.60897,NO,50595,3139075,Skien,0.09,0.01,0.0,0.07,0.04,0.05,0.06,0.1,0.2,0.07,0.19,0.11
Sarpsborg,59.28391,11.10962,NO,56559,3140084,Sarpsborg,0.07,0.01,0.0,0.05,0.03,0.05,0.05,0.07,0.16,0.06,0.1,0.05
Sandnes,58.85244,5.73521,NO,85386,3140321,Sandnes,0.26,0.12,0.03,0.09,0.08,0.1,0.06,0.29,0.55,0.36,0.18,0.14
Sandefjord,59.13118,10.21665,NO,64345,3140390,Sandefjord,0.06,0.01,0.0,0.06,0.03,0.05,0.07,0.09,0.2,0.07,0.18,0.06
Porsgrunn,59.14054,9.6561,NO,34377,3142657,Porsgrunn,0.09,0.01,0.0,0.07,0.04,0.05,0.06,0.1,0.2,0.07,0.19,0.11
Oslo,59.91273,10.74609,NO,580000,3143244,Oslo,0.02,0.0,0.0,0.06,0.03,0.05,0.07,0.08,0.15,0.06,0.14,0.04
Nesttun,60.31821,5.35317,NO,35638,3144631,Nesttun,0.22,0.09,0.05,0.14,0.08,0.11,0.1,0.36,0.79,0.49,0.17,0.18
Moss,59.43403,10.65771,NO,49668,3145375,Moss,0.05,0.0,0.0,0.05,0.03,0.04,0.07,0.06,0.15,0.06,0.11,0.03
Molde,62.73752,7.15912,NO,31967,3145580,Molde,0.05,0.02,0.04,0.1,0.04,0.1,0.06,0.29,0.59,0.43,0.03,0.21
Mo i Rana,66.31278,14.14278,NO,18866,3145614,Mo i Rana,0.01,0.0,0.0,0.05,0.09,0.21,0.06,0.38,0.31,0.19,0.14,0.02
Lillestrøm,59.95597,11.04918,NO,89684,3147465,Lillestrøm,0.02,0.0,0.0,0.06,0.03,0.05,0.07,0.08,0.15,0.06,0.14,0.04
Lillehammer,61.11514,10.46628,NO,28425,3147474,Lillehammer,0.0,0.0,0.0,0.03,0.04,0.05,0.06,0.13,0.12,0.04,0.08,0.02
Levanger,63.74644,11.29963,NO,20171,3147698,Levanger,0.01,0.0,0.02,0.07,0.03,0.11,0.05,0.23,0.28,0.16,0.03,0.12
Larvik,59.05328,10.03517,NO,23113,3148129,Larvik,0.09,0.01,0.0,0.07,0.04,0.05,0.06,0.1,0.2,0.07,0.19,0.11
Kristiansund,63.11045,7.72795,NO,24013,3149312,Kristiansund,0.06,0.03,0.05,0.1,0.04,0.11,0.07,0.28,0.53,0.44,0.05,0.25
Kristiansand,58.14671,7.9956,NO,93205,3149318,Kristiansand,0.12,0.03,0.01,0.07,0.05,0.08,0.07,0.12,0.23,0.09,0.17,0.14
Kongsvinger,60.19049,11.99772,NO,17949,3149533,Kongsvinger,0.01,0.0,0.0,0.06,0.04,0.07,0.06,0.08,0.1,0.05,0.09,0.04
Kongsberg,59.66858,9.65017,NO,17667,3149563,Kongsberg,0.02,0.0,0.0,0.06,0.03,0.05,0.1,0.11,0.21,0.04,0.15,0.03
Horten,59.41721,10.48343,NO,27178,3151770,Horten,0.04,0.0,0.0,0.05,0.03,0.04,0.07,0.08,0.17,0.05,0.13,0.04
Haugesund,59.41378,5.268,NO,40321,3153623,Haugesund,0.24,0.11,0.04,0.14,0.08,0.12,0.12,0.32,0.62,0.42,0.18,0.17
Harstad,68.79833,16.54165,NO,20953,3153823,Harstad,0.01,0.01,0.0,0.06,0.13,0.26,0.06,0.22,0.24,0.18,0.14,0.04
Hamar,60.7945,11.06798,NO,29479,3154084,Hamar,0.0,0.0,0.0,0.04,0.05,0.06,0.05,0.13,0.11,0.05,0.09,0.02
Halden,59.12478,11.38754,NO,21970,3154209,Halden,0.07,0.01,0.01,0.05,0.03,0.07,0.04,0.09,0.15,0.06,0.09,0.05
Grimstad,58.3405,8.59343,NO,24017,3155041,Grimstad,0.08,0.01,0.01,0.07,0.04,0.06,0.06,0.09,0.2,0.06,0.13,0.12
Gjøvik,60.79574,10.69155,NO,17596,3155573,Gjøvik,0.0,0.0,0.0,0.03,0.05,0.06,0.05,0.13,0.12,0.05,0.09,0.02
Fredrikstad,59.2181,10.9298,NO,83761,3156529,Fredrikstad,0.07,0.01,0.0,0.05,0.03,0.05,0.05,0.07,0.16,0.06,0.1,0.05
Drammen,59.74389,10.20449,NO,103007,3159016,Drammen,0.04,0.0,0.0,0.05,0.03,0.04,0.07,0.08,0.17,0.05,0.13,0.04
Bodø,67.28,14.40501,NO,34073,3160881,Bodø,0.02,0.0,0.02,0.07,0.11,0.21,0.06,0.34,0.31,0.23,0.14,0.1
Bergen,60.39299,5.32415,NO,285911,3161732,Bergen,0.21,0.08,0.05,0.15,0.08,0.14,0.1,0.36,0.91,0.56,0.14,0.22
Asker,59.83333,10.43721,NO,61906,3162657,Asker,0.02,0.0,0.0,0.06,0.03,0.05,0.07,0.08,0.16,0.06,0.13,0.04
Arendal,58.46151,8.77253,NO,30916,3162955,Arendal,0.08,0.01,0.01,0.07,0.04,0.06,0.06,0.09,0.2,0.06,0.13,0.12
Ålesund,62.47225,6.15492,NO,52626,3163392,Ålesund,0.05,0.02,0.03,0.1,0.04,0.11,0.09,0.34,0.66,0.47,0.03,0.21
Ytrebygda,60.30504,5.28236,NO,24044,6697344,Ytrebygda,0.22,0.09,0.05,0.14,0.08,0.11,0.1,0.36,0.79,0.49,0.17,0.18
