name,latitude,longitude,country,population,id,city,jan,feb,mar,apr,may,jun,jul,aug,sep,oct,nov,dec
Udomlya,57.87944,34.9925,RU,32373,452949,Udomlya,0.01,0.0,0.01,0.09,0.06,0.09,0.14,0.11,0.12,0.04,0.02,0.0
Sosnovka,60.01667,30.35,RU,66227,461698,Sosnovka,0.01,0.0,0.02,0.06,0.03,0.06,0.09,0.12,0.14,0.04,0.03,0.01
Sasovo,54.35369,41.91986,RU,29858,461699,Sasovo,0.0,0.03,0.0,0.06,0.03,0.03,0.08,0.01,0.05,0.06,0.01,0.0
Zyuzino,55.65608,37.56846,RU,121000,461740,Zyuzino,0.0,0.0,0.0,0.05,0.05,0.07,0.11,0.02,0.07,0.04,0.01,0.0
Zyablikovo,55.61667,37.76667,RU,129000,461835,Zyablikovo,0.0,0.0,0.0,0.05,0.06,0.06,0.11,0.03,0.07,0.04,0.01,0.0
Zverevo,48.02108,40.12282,RU,24978,461910,Zverevo,0.01,0.02,0.06,0.04,0.04,0.03,0.07,0.0,0.03,0.04,0.02,0.02
Zvenigorod,55.73401,36.85918,RU,16395,461920,Zvenigorod,0.0,0.0,0.0,0.04,0.06,0.08,0.12,0.03,0.08,0.04,0.01,0.0
Zlatoust,55.17111,59.65083,RU,191366,462444,Zlatoust,0.0,0.0,0.0,0.04,0.07,0.14,0.13,0.12,0.04,0.07,0.0,0.0
Zimovniki,47.1474,42.4721,RU,17678,462522,Zimovniki,0.03,0.02,0.05,0.03,0.01,0.0,0.07,0.0,0.02,0.04,0.02,0.03
Zhulebino,55.7,37.85,RU,150000,462745,Zhulebino,0.0,0.0,0.0,0.05,0.05,0.07,0.11,0.03,0.07,0.04,0.01,0.0
Zhukovskiy,55.59528,38.12028,RU,97200,462755,Zhukovskiy,0.0,0.0,0.0,0.05,0.05,0.06,0.1,0.03,0.06,0.05,0.01,0.0
Zhukovka,53.53381,33.73075,RU,19690,462822,Zhukovka,0.01,0.0,0.0,0.04,0.04,0.13,0.16,0.02,0.04,0.05,0.01,0.0
Zhirnovsk,50.98448,44.77347,RU,17887,462984,Zhirnovsk,0.0,0.03,0.02,0.05,0.02,0.01,0.1,0.01,0.05,0.06,0.0,0.01
Zhigulevsk,53.39972,49.49528,RU,57094,463082,Zhigulevsk,0.0,0.0,0.0,0.05,0.01,0.02,0.07,0.02,0.04,0.05,0.01,0.0
Zherdevka,51.84861,41.46056,RU,16019,463217,Zherdevka,0.0,0.03,0.01,0.07,0.05,0.02,0.1,0.0,0.08,0.06,0.0,0.01
Zheleznovodsk,44.13944,43.01972,RU,24632,463340,Zheleznovodsk,0.02,0.03,0.12,0.03,0.08,0.05,0.09,0.11,0.06,0.04,0.06,0.02
Zheleznogorsk,52.331,35.3711,RU,97900,463343,Zheleznogorsk,0.01,0.02,0.01,0.04,0.06,0.04,0.16,0.0,0.04,0.06,0.0,0.0
Zheleznodorozhnyy,55.744,38.01684,RU,141648,463355,Zheleznodorozhnyy,0.0,0.0,0.0,0.06,0.04,0.06,0.1,0.03,0.07,0.05,0.01,0.0
Zernograd,46.84518,40.30834,RU,29268,463637,Zernograd,0.04,0.03,0.07,0.03,0.04,0.02,0.04,0.0,0.02,0.04,0.04,0.03
Zelenokumsk,44.40694,43.88056,RU,41306,463824,Zelenokumsk,0.02,0.04,0.08,0.01,0.02,0.01,0.07,0.03,0.02,0.04,0.05,0.03
Zelenogradsk,54.95893,20.47668,RU,15644,463828,Zelenogradsk,0.07,0.01,0.02,0.09,0.09,0.04,0.11,0.07,0.06,0.07,0.02,0.05
Zelenograd,55.9825,37.18139,RU,215727,463829,Zelenograd,0.0,0.0,0.0,0.05,0.06,0.09,0.12,0.03,0.09,0.04,0.01,0.0
Zelenodolsk,55.84376,48.51784,RU,99600,463835,Zelenodolsk,0.0,0.0,0.0,0.07,0.03,0.05,0.06,0.03,0.05,0.05,0.02,0.0
Zelenchukskaya,43.85804,41.5894,RU,21117,463885,Zelenchukskaya,0.01,0.04,0.13,0.04,0.22,0.08,0.09,0.09,0.13,0.08,0.03,0.02
Zavolzh’ye,56.64051,43.39446,RU,42900,464101,Zavolzh’ye,0.0,0.01,0.0,0.05,0.03,0.06,0.1,0.05,0.07,0.06,0.02,0.0
Zavety Il’icha,56.04284,37.85153,RU,20000,464176,Zavety Il’icha,0.0,0.0,0.0,0.06,0.05,0.07,0.1,0.02,0.09,0.05,0.01,0.0
Zarechnyy,53.20356,45.19227,RU,63579,464625,Zarechnyy,0.0,0.01,0.0,0.07,0.03,0.02,0.1,0.02,0.05,0.06,0.01,0.0
Zaraysk,54.7605,38.87841,RU,24637,464687,Zaraysk,0.0,0.01,0.0,0.08,0.03,0.04,0.1,0.02,0.06,0.05,0.01,0.0
Zapolyarnyy,69.41541,30.81355,RU,17789,464790,Zapolyarnyy,0.0,0.0,0.0,0.01,0.04,0.07,0.06,0.13,0.09,0.02,0.02,0.0
Zamoskvorech’ye,55.73333,37.63333,RU,55000,465057,Zamoskvorech’ye,0.0,0.0,0.0,0.05,0.05,0.07,0.11,0.03,0.07,0.04,0.01,0.0
Zainsk,55.3195,52.06942,RU,42044,465543,Zainsk,0.0,0.0,0.0,0.08,0.04,0.05,0.07,0.06,0.04,0.06,0.02,0.0
Yur’yev-Pol’skiy,56.50339,39.67911,RU,19906,466215,Yur’yev-Pol’skiy,0.0,0.0,0.0,0.06,0.04,0.05,0.11,0.05,0.08,0.05,0.02,0.0
Yoshkar-Ola,56.63877,47.89078,RU,268272,466806,Yoshkar-Ola,0.0,0.0,0.0,0.06,0.04,0.09,0.09,0.04,0.06,0.08,0.02,0.0
Yeysk,46.7055,38.2739,RU,87814,466885,Yeysk,0.04,0.04,0.04,0.02,0.02,0.03,0.04,0.0,0.05,0.04,0.03,0.06
Yessentukskaya,44.0328,42.8813,RU,19956,466989,Yessentukskaya,0.01,0.03,0.12,0.03,0.12,0.05,0.09,0.13,0.07,0.03,0.05,0.02
Yessentuki,44.04444,42.86056,RU,81015,466990,Yessentuki,0.01,0.05,0.13,0.02,0.1,0.03,0.07,0.07,0.07,0.04,0.04,0.03
Yershov,51.3513,48.2766,RU,23681,467120,Yershov,0.0,0.0,0.01,0.05,0.02,0.01,0.06,0.0,0.03,0.02,0.01,0.0
Yemva,62.58999,50.85939,RU,16404,467525,Yemva,0.0,0.0,0.0,0.01,0.06,0.11,0.1,0.06,0.11,0.1,0.02,0.0
Yelizavetinskaya,45.04616,38.79491,RU,19306,467854,Yelizavetinskaya,0.06,0.05,0.1,0.05,0.06,0.03,0.03,0.0,0.05,0.06,0.09,0.11
Yelets,52.62366,38.50169,RU,115688,467978,Yelets,0.0,0.02,0.01,0.05,0.05,0.02,0.13,0.0,0.04,0.05,0.0,0.0
Yelan’,50.949,43.73781,RU,15181,468063,Yelan’,0.01,0.04,0.02,0.06,0.03,0.01,0.14,0.01,0.06,0.06,0.0,0.01
Yelabuga,55.76127,52.06493,RU,72643,468082,Yelabuga,0.0,0.0,0.0,0.08,0.04,0.06,0.08,0.08,0.04,0.07,0.02,0.0
Yegor’yevsk,55.38283,39.03233,RU,85200,468250,Yegor’yevsk,0.0,0.0,0.0,0.06,0.03,0.05,0.09,0.02,0.07,0.05,0.01,0.0
Yegorlykskaya,46.56564,40.65621,RU,17978,468307,Yegorlykskaya,0.04,0.03,0.06,0.03,0.04,0.01,0.06,0.0,0.02,0.05,0.04,0.04
Yefremov,53.14806,38.09924,RU,45497,468390,Yefremov,0.0,0.02,0.0,0.05,0.03,0.02,0.09,0.0,0.04,0.06,0.0,0.0
Yasnyy,51.0333,59.8742,RU,17359,468657,Yasnyy,0.0,0.0,0.02,0.06,0.02,0.03,0.02,0.02,0.02,0.03,0.0,0.0
Yasnogorsk,54.48082,37.69854,RU,18022,468671,Yasnogorsk,0.0,0.0,0.0,0.06,0.03,0.03,0.11,0.03,0.05,0.04,0.01,0.0
Yasenevo,55.60686,37.51991,RU,180000,468809,Yasenevo,0.0,0.0,0.0,0.06,0.07,0.06,0.12,0.04,0.07,0.04,0.01,0.0
Yartsevo,55.06491,32.69693,RU,52706,468866,Yartsevo,0.01,0.0,0.0,0.05,0.04,0.1,0.12,0.05,0.09,0.04,0.01,0.0
Yaroslavl,57.62987,39.87368,RU,608722,468902,Yaroslavl,0.0,0.0,0.0,0.05,0.07,0.06,0.13,0.07,0.11,0.06,0.02,0.0
Yaransk,57.30331,47.88611,RU,19557,469005,Yaransk,0.0,0.0,0.0,0.03,0.03,0.08,0.12,0.04,0.07,0.08,0.02,0.0
Yanaul,56.2751,54.9338,RU,27963,469178,Yanaul,0.0,0.0,0.0,0.06,0.07,0.08,0.05,0.08,0.08,0.07,0.01,0.0
Yagry,64.59417,39.81028,RU,40000,469707,Yagry,0.0,0.0,0.0,0.03,0.02,0.13,0.05,0.18,0.11,0.07,0.01,0.0
Yablonovskiy,44.98901,38.94324,RU,33431,469844,Yablonovskiy,0.06,0.04,0.11,0.05,0.05,0.03,0.03,0.0,0.05,0.08,0.08,0.11
Vyshniy Volochëk,57.59125,34.56453,RU,53800,470252,Vyshniy Volochëk,0.01,0.0,0.01,0.07,0.04,0.12,0.12,0.1,0.11,0.04,0.02,0.0
Vyselki,45.58128,39.66409,RU,18746,470338,Vyselki,0.06,0.05,0.08,0.03,0.03,0.02,0.04,0.0,0.06,0.09,0.07,0.09
Vyksa,55.3175,42.17444,RU,61664,470444,Vyksa,0.0,0.02,0.0,0.06,0.02,0.06,0.09,0.02,0.06,0.06,0.01,0.0
Vykhino-Zhulebino,55.70196,37.81178,RU,216000,470451,Vykhino-Zhulebino,0.0,0.0,0.0,0.05,0.05,0.07,0.11,0.03,0.07,0.04,0.01,0.0
Vyborg,60.70763,28.75283,RU,78633,470546,Vyborg,0.02,0.0,0.01,0.04,0.02,0.06,0.06,0.08,0.14,0.06,0.03,0.01
Vyazniki,56.24057,42.15563,RU,39243,470666,Vyazniki,0.0,0.01,0.0,0.06,0.03,0.06,0.11,0.04,0.07,0.06,0.02,0.0
Vyaz’ma,55.20997,34.29695,RU,55500,470676,Vyaz’ma,0.0,0.0,0.0,0.04,0.03,0.11,0.1,0.05,0.1,0.04,0.01,0.0
Vyatskiye Polyany,56.22602,51.06557,RU,39534,470734,Vyatskiye Polyany,0.0,0.0,0.0,0.08,0.04,0.07,0.09,0.07,0.05,0.09,0.02,0.0
Vsevolozhsk,60.01512,30.67314,RU,48224,471101,Vsevolozhsk,0.01,0.0,0.01,0.07,0.03,0.06,0.1,0.12,0.1,0.03,0.02,0.0
Votkinsk,57.04865,53.98717,RU,98633,471430,Votkinsk,0.0,0.0,0.0,0.06,0.06,0.09,0.06,0.05,0.09,0.1,0.01,0.0
Vostryakovo,55.66667,37.45,RU,30000,471456,Vostryakovo,0.0,0.0,0.0,0.05,0.05,0.07,0.11,0.02,0.07,0.04,0.01,0.0
Vostryakovo,55.39934,37.80829,RU,16509,471457,Vostryakovo,0.0,0.0,0.0,0.05,0.06,0.06,0.11,0.03,0.07,0.04,0.01,0.0
Voskresensk,55.31733,38.65264,RU,77086,471656,Voskresensk,0.0,0.0,0.0,0.06,0.03,0.05,0.09,0.02,0.06,0.05,0.01,0.0
Voronezh,51.67204,39.1843,RU,1047549,472045,Voronezh,0.0,0.01,0.01,0.07,0.06,0.03,0.11,0.0,0.07,0.06,0.0,0.01
Altuf’yevskiy,55.88333,37.58333,RU,54000,472072,Altuf’yevskiy,0.0,0.0,0.0,0.05,0.06,0.08,0.11,0.02,0.09,0.04,0.01,0.0
Vorob’yovo,55.71667,37.53333,RU,30000,472079,Vorob’yovo,0.0,0.0,0.0,0.05,0.05,0.07,0.11,0.02,0.07,0.04,0.01,0.0
Volzhsky,48.78583,44.77973,RU,323293,472231,Volzhsky,0.01,0.02,0.03,0.02,0.0,0.0,0.09,0.0,0.03,0.02,0.01,0.02
Volzhsk,55.86638,48.3594,RU,58000,472234,Volzhsk,0.0,0.0,0.0,0.07,0.03,0.06,0.07,0.03,0.05,0.05,0.02,0.0
Vol’sk,52.04541,47.37993,RU,70500,472278,Vol’sk,0.0,0.0,0.0,0.04,0.04,0.01,0.08,0.01,0.04,0.04,0.0,0.0
Volokolamsk,56.03361,35.96944,RU,25000,472433,Volokolamsk,0.01,0.0,0.0,0.03,0.06,0.1,0.12,0.04,0.08,0.04,0.01,0.0
Vologda,59.2239,39.88398,RU,312420,472459,Vologda,0.0,0.0,0.0,0.05,0.07,0.07,0.13,0.09,0.15,0.09,0.01,0.0
Volkhov,59.9258,32.33819,RU,45673,472722,Volkhov,0.01,0.0,0.02,0.08,0.04,0.06,0.1,0.12,0.1,0.03,0.03,0.0
Nagornyy,55.65,37.61667,RU,76000,472732,Nagornyy,0.0,0.0,0.0,0.05,0.05,0.07,0.11,0.02,0.07,0.04,0.01,0.0
Volgorechensk,57.43931,41.15553,RU,17700,472750,Volgorechensk,0.0,0.0,0.0,0.04,0.08,0.05,0.13,0.07,0.1,0.06,0.02,0.0
Volgograd,48.71939,44.50183,RU,1013533,472757,Volgograd,0.01,0.03,0.03,0.02,0.01,0.0,0.1,0.01,0.03,0.02,0.01,0.02
Volgodonsk,47.51361,42.15139,RU,167731,472761,Volgodonsk,0.03,0.02,0.06,0.03,0.01,0.0,0.08,0.0,0.02,0.03,0.02,0.03
Novovladykino,55.85,37.58333,RU,50000,473127,Novovladykino,0.0,0.0,0.0,0.05,0.05,0.07,0.11,0.02,0.07,0.04,0.01,0.0
Vladimir,56.13655,40.39658,RU,357024,473247,Vladimir,0.0,0.0,0.0,0.06,0.03,0.04,0.09,0.05,0.07,0.05,0.02,0.0
Vladikavkaz,43.03667,44.66778,RU,306258,473249,Vladikavkaz,0.03,0.02,0.09,0.07,0.09,0.09,0.12,0.15,0.04,0.03,0.02,0.02
Vidnoye,55.55239,37.70967,RU,51721,473778,Vidnoye,0.0,0.0,0.0,0.05,0.06,0.06,0.11,0.03,0.07,0.04,0.01,0.0
Vichuga,57.21276,41.93012,RU,39071,473788,Vichuga,0.0,0.0,0.0,0.04,0.06,0.04,0.13,0.08,0.08,0.06,0.02,0.0
Veshnyaki,55.72393,37.81952,RU,122000,473972,Veshnyaki,0.0,0.0,0.0,0.05,0.05,0.07,0.11,0.03,0.07,0.04,0.01,0.0
Vereshchagino,58.07894,54.6557,RU,22451,475777,Vereshchagino,0.0,0.0,0.0,0.04,0.07,0.11,0.12,0.03,0.07,0.09,0.02,0.0
Venëv,54.35533,38.26843,RU,15700,475881,Venëv,0.0,0.01,0.0,0.07,0.03,0.03,0.11,0.02,0.05,0.05,0.01,0.0
Vel’sk,61.07006,42.0983,RU,23126,475938,Vel’sk,0.0,0.0,0.0,0.02,0.04,0.1,0.14,0.07,0.13,0.1,0.01,0.0
Velikiy Ustyug,60.76186,46.31352,RU,32642,476062,Velikiy Ustyug,0.0,0.0,0.0,0.02,0.05,0.1,0.15,0.07,0.14,0.11,0.01,0.0
Velikiye Luki,56.34,30.54517,RU,103149,476077,Velikiye Luki,0.02,0.0,0.0,0.05,0.04,0.09,0.13,0.05,0.07,0.05,0.01,0.01
Vatutino,55.88441,37.69055,RU,50000,476368,Vatutino,0.0,0.0,0.0,0.06,0.05,0.07,0.1,0.02,0.09,0.05,0.01,0.0
Valuyki,50.2035,38.1067,RU,35887,477192,Valuyki,0.01,0.01,0.05,0.05,0.06,0.04,0.17,0.0,0.05,0.04,0.0,0.02
Valday,57.97826,33.24737,RU,18549,477301,Valday,0.01,0.0,0.01,0.11,0.05,0.1,0.12,0.14,0.11,0.06,0.02,0.0
Vagonoremont,55.9,37.55,RU,50000,477377,Vagonoremont,0.0,0.0,0.0,0.05,0.06,0.08,0.11,0.02,0.09,0.04,0.01,0.0
Uzlovaya,53.98179,38.17118,RU,58458,477494,Uzlovaya,0.0,0.02,0.0,0.06,0.03,0.03,0.11,0.01,0.05,0.05,0.01,0.0
Uvarovo,51.98486,42.26147,RU,28771,477626,Uvarovo,0.0,0.04,0.01,0.08,0.05,0.02,0.08,0.01,0.08,0.05,0.0,0.01
Uva,56.99081,52.18517,RU,19143,477656,Uva,0.0,0.0,0.0,0.07,0.06,0.09,0.09,0.05,0.06,0.1,0.02,0.0
Ust’-Labinsk,45.21077,39.68914,RU,44088,478044,Ust’-Labinsk,0.06,0.04,0.1,0.05,0.03,0.02,0.03,0.0,0.06,0.12,0.06,0.09
Ust’-Katav,54.9366,58.1757,RU,25046,478071,Ust’-Katav,0.0,0.0,0.0,0.03,0.09,0.12,0.15,0.1,0.07,0.07,0.0,0.0
Ust’-Dzheguta,44.0834,41.9763,RU,34001,478130,Ust’-Dzheguta,0.01,0.05,0.13,0.02,0.12,0.03,0.08,0.06,0.08,0.05,0.03,0.03
Usman’,52.04662,39.7288,RU,19910,478317,Usman’,0.0,0.02,0.01,0.07,0.07,0.02,0.12,0.0,0.09,0.05,0.0,0.0
Uryupinsk,50.8047,42.0138,RU,41644,478544,Uryupinsk,0.01,0.03,0.02,0.04,0.03,0.01,0.12,0.01,0.06,0.06,0.0,0.02
Urus-Martan,43.13053,45.53791,RU,41480,478581,Urus-Martan,0.04,0.04,0.1,0.06,0.05,0.05,0.1,0.13,0.04,0.03,0.05,0.02
Uritsk,59.83889,30.17528,RU,55037,478724,Uritsk,0.01,0.0,0.01,0.08,0.04,0.07,0.12,0.12,0.09,0.03,0.02,0.0
Unecha,52.84294,32.68761,RU,29028,479028,Unecha,0.02,0.0,0.0,0.04,0.03,0.11,0.17,0.02,0.06,0.04,0.0,0.0
Ulyanovsk,54.32824,48.38657,RU,626540,479123,Ulyanovsk,0.0,0.0,0.0,0.08,0.02,0.03,0.07,0.02,0.05,0.06,0.01,0.0
Ukhta,63.56705,53.68348,RU,102187,479411,Ukhta,0.0,0.0,0.0,0.01,0.06,0.09,0.06,0.05,0.08,0.1,0.01,0.0
Uglich,57.5275,38.33167,RU,37732,479532,Uglich,0.0,0.0,0.0,0.05,0.05,0.07,0.14,0.06,0.13,0.08,0.02,0.0
Ufa,54.74306,55.96779,RU,1120547,479561,Ufa,0.0,0.0,0.0,0.05,0.05,0.06,0.07,0.07,0.07,0.06,0.01,0.0
Uchkeken,43.93778,42.51167,RU,15118,479687,Uchkeken,0.01,0.03,0.12,0.05,0.2,0.07,0.09,0.13,0.12,0.05,0.02,0.01
Uchaly,54.35806,59.43611,RU,37788,479703,Uchaly,0.0,0.0,0.0,0.02,0.06,0.06,0.1,0.04,0.03,0.03,0.0,0.0
Tyrnyauz,43.38278,42.91833,RU,20104,479933,Tyrnyauz,0.01,0.02,0.11,0.12,0.26,0.19,0.29,0.26,0.19,0.1,0.03,0.01
Tver,56.85836,35.90057,RU,420065,480060,Tver,0.01,0.0,0.0,0.04,0.05,0.08,0.14,0.04,0.13,0.05,0.01,0.0
Tuymazy,54.60666,53.7097,RU,68829,480089,Tuymazy,0.0,0.0,0.0,0.04,0.04,0.03,0.06,0.04,0.06,0.03,0.01,0.0
Tutayev,57.88529,39.5406,RU,43828,480122,Tutayev,0.0,0.0,0.0,0.05,0.07,0.07,0.14,0.08,0.13,0.07,0.02,0.0
Tula,54.19609,37.61822,RU,482873,480562,Tula,0.0,0.0,0.0,0.06,0.03,0.02,0.11,0.02,0.05,0.05,0.01,0.0
Tuchkovo,55.60111,36.46806,RU,16826,480685,Tuchkovo,0.0,0.0,0.0,0.05,0.05,0.08,0.12,0.03,0.07,0.04,0.01,0.0
Tuapse,44.1053,39.0802,RU,64234,480716,Tuapse,0.13,0.08,0.21,0.06,0.04,0.04,0.05,0.01,0.2,0.29,0.14,0.27
Tsimlyansk,47.64611,42.10194,RU,15341,480876,Tsimlyansk,0.02,0.03,0.05,0.03,0.02,0.01,0.08,0.0,0.02,0.03,0.02,0.02
Trubchevsk,52.58031,33.76574,RU,16100,481350,Trubchevsk,0.01,0.02,0.0,0.03,0.04,0.06,0.18,0.01,0.05,0.04,0.0,0.0
Troparëvo,55.65625,37.48496,RU,118000,481453,Troparëvo,0.0,0.0,0.0,0.05,0.05,0.07,0.11,0.02,0.07,0.04,0.01,0.0
Troitskaya,43.30664,44.98395,RU,23745,481605,Troitskaya,0.03,0.02,0.1,0.04,0.06,0.1,0.1,0.11,0.03,0.02,0.03,0.02
Troitsk,55.48498,37.30736,RU,37591,481608,Troitsk,0.0,0.0,0.0,0.05,0.06,0.07,0.13,0.04,0.07,0.04,0.01,0.0
Tosno,59.54,30.8775,RU,40198,481964,Tosno,0.01,0.0,0.01,0.09,0.03,0.06,0.14,0.14,0.09,0.05,0.02,0.0
Torzhok,57.0436,34.96221,RU,48546,481985,Torzhok,0.01,0.0,0.0,0.05,0.03,0.1,0.11,0.05,0.12,0.04,0.01,0.0
Tomilino,55.65619,37.94713,RU,28310,482260,Tomilino,0.0,0.0,0.0,0.06,0.04,0.06,0.1,0.03,0.07,0.05,0.01,0.0
Tolyatti,53.5303,49.3461,RU,702879,482283,Tolyatti,0.0,0.0,0.0,0.06,0.01,0.02,0.07,0.02,0.04,0.05,0.01,0.0
Timashyovsk,45.61694,38.94528,RU,53940,482965,Timashyovsk,0.07,0.04,0.08,0.03,0.04,0.03,0.04,0.0,0.06,0.07,0.08,0.09
Tikhvin,59.64511,33.52937,RU,62075,483019,Tikhvin,0.01,0.0,0.02,0.1,0.05,0.07,0.09,0.15,0.1,0.04,0.04,0.0
Tikhoretsk,45.85472,40.12528,RU,64387,483029,Tikhoretsk,0.06,0.05,0.08,0.02,0.06,0.02,0.05,0.0,0.06,0.09,0.05,0.06
Teykovo,56.85796,40.53692,RU,36015,483137,Teykovo,0.0,0.0,0.0,0.05,0.05,0.04,0.1,0.08,0.09,0.06,0.02,0.0
Terek,43.48333,44.13611,RU,21180,483495,Terek,0.03,0.02,0.1,0.04,0.05,0.11,0.09,0.11,0.03,0.02,0.02,0.02
Tyoply Stan,55.62047,37.49338,RU,125000,483551,Tyoply Stan,0.0,0.0,0.0,0.06,0.07,0.06,0.12,0.04,0.07,0.04,0.01,0.0
Temryuk,45.27055,37.38716,RU,36546,483661,Temryuk,0.06,0.06,0.05,0.01,0.03,0.03,0.06,0.0,0.08,0.02,0.07,0.08
Tekstil’shchiki,55.70033,37.74271,RU,100000,483826,Tekstil’shchiki,0.0,0.0,0.0,0.05,0.05,0.07,0.11,0.03,0.07,0.04,0.01,0.0
Tbilisskaya,45.36333,40.19,RU,24446,483883,Tbilisskaya,0.06,0.05,0.11,0.04,0.04,0.01,0.03,0.01,0.05,0.12,0.07,0.07
Tambov,52.73169,41.44326,RU,293661,484646,Tambov,0.0,0.03,0.0,0.07,0.06,0.03,0.1,0.01,0.07,0.06,0.0,0.0
Agidel’,55.9077,53.9355,RU,19217,484856,Agidel’,0.0,0.0,0.0,0.07,0.05,0.07,0.04,0.09,0.08,0.07,0.02,0.0
Taganrog,47.23627,38.9053,RU,279056,484907,Taganrog,0.03,0.04,0.06,0.03,0.02,0.02,0.04,0.0,0.04,0.04,0.03,0.06
Taganskiy,55.73333,37.66667,RU,116000,484912,Taganskiy,0.0,0.0,0.0,0.05,0.05,0.07,0.11,0.03,0.07,0.04,0.01,0.0
Syzran’,53.1585,48.4681,RU,189338,484972,Syzran’,0.0,0.0,0.0,0.05,0.02,0.02,0.05,0.02,0.05,0.06,0.01,0.0
Syktyvkar,61.664,50.815,RU,245083,485239,Syktyvkar,0.0,0.0,0.0,0.02,0.08,0.1,0.09,0.05,0.1,0.1,0.02,0.0
Svobody,44.02556,43.05028,RU,17661,485432,Svobody,0.02,0.05,0.12,0.01,0.07,0.01,0.07,0.07,0.06,0.03,0.04,0.02
Sviblovo,55.85,37.63333,RU,60000,485630,Sviblovo,0.0,0.0,0.0,0.05,0.05,0.07,0.11,0.03,0.07,0.04,0.01,0.0
Svetogorsk,61.11213,28.86321,RU,15733,485639,Svetogorsk,0.02,0.0,0.01,0.04,0.02,0.06,0.07,0.08,0.11,0.05,0.02,0.01
Svetlyy,54.67501,20.13473,RU,22119,485660,Svetlyy,0.07,0.01,0.02,0.09,0.09,0.04,0.11,0.07,0.06,0.07,0.02,0.05
Svetlograd,45.33528,42.85472,RU,39727,485698,Svetlograd,0.03,0.04,0.09,0.02,0.05,0.0,0.07,0.03,0.04,0.04,0.03,0.03
Suvorovskaya,44.1901,42.6595,RU,17261,485871,Suvorovskaya,0.02,0.05,0.12,0.01,0.07,0.01,0.07,0.07,0.06,0.03,0.04,0.02
Suvorov,54.1223,36.49657,RU,21059,485888,Suvorov,0.0,0.0,0.0,0.05,0.04,0.03,0.08,0.02,0.04,0.05,0.01,0.0
Surovikino,48.60734,42.84621,RU,20677,486071,Surovikino,0.02,0.03,0.04,0.04,0.01,0.01,0.1,0.0,0.03,0.03,0.02,0.02
Surkhakhi,43.1875,44.90194,RU,16215,486110,Surkhakhi,0.03,0.02,0.09,0.07,0.09,0.09,0.12,0.15,0.04,0.03,0.02,0.02
Sukhinichi,54.09989,35.34254,RU,16100,486665,Sukhinichi,0.0,0.0,0.0,0.05,0.04,0.05,0.11,0.03,0.04,0.05,0.01,0.0
Stupino,54.90083,38.07083,RU,60999,486968,Stupino,0.0,0.0,0.0,0.06,0.05,0.04,0.11,0.04,0.05,0.04,0.01,0.0
Strunino,56.37328,38.58321,RU,15483,487095,Strunino,0.0,0.0,0.0,0.06,0.03,0.06,0.12,0.03,0.08,0.05,0.01,0.0
Stroitel’,50.78816,36.47751,RU,18636,487147,Stroitel’,0.01,0.02,0.02,0.06,0.05,0.03,0.22,0.0,0.04,0.03,0.0,0.02
Strogino,55.81838,37.41224,RU,152000,487150,Strogino,0.0,0.0,0.0,0.05,0.05,0.07,0.11,0.02,0.07,0.04,0.01,0.0
Sterlitamak,53.62462,55.95015,RU,267231,487495,Sterlitamak,0.0,0.0,0.02,0.05,0.05,0.04,0.07,0.05,0.05,0.08,0.01,0.0
Stavropol’,45.0428,41.9734,RU,433931,487846,Stavropol’,0.02,0.05,0.11,0.02,0.07,0.02,0.07,0.08,0.06,0.05,0.05,0.05
Staryy Oskol,51.29667,37.84167,RU,226977,487928,Staryy Oskol,0.01,0.02,0.02,0.07,0.07,0.03,0.17,0.0,0.05,0.03,0.0,0.01
Staroshcherbinovskaya,46.6268,38.6739,RU,18785,488635,Staroshcherbinovskaya,0.03,0.04,0.05,0.03,0.02,0.03,0.05,0.0,0.05,0.04,0.02,0.06
Starominskaya,46.53,39.04972,RU,30461,488742,Starominskaya,0.04,0.04,0.05,0.03,0.04,0.03,0.07,0.0,0.05,0.04,0.03,0.06
Starodub,52.58501,32.76314,RU,18539,488852,Starodub,0.02,0.01,0.0,0.03,0.03,0.11,0.16,0.01,0.05,0.04,0.0,0.0
Staraya Russa,57.99439,31.36081,RU,34303,489088,Staraya Russa,0.02,0.0,0.01,0.09,0.04,0.07,0.11,0.08,0.07,0.07,0.02,0.01
Staraya Kupavna,55.80799,38.1805,RU,22099,489162,Staraya Kupavna,0.0,0.0,0.0,0.06,0.05,0.05,0.1,0.03,0.07,0.05,0.01,0.0
Staraya Derevnya,59.98834,30.24296,RU,35000,489226,Staraya Derevnya,0.01,0.0,0.02,0.06,0.03,0.06,0.09,0.12,0.14,0.04,0.03,0.01
Sovetsk,57.58475,48.95844,RU,17869,490067,Sovetsk,0.0,0.0,0.0,0.04,0.03,0.09,0.09,0.05,0.08,0.08,0.03,0.0
Sovetsk,55.08392,21.87851,RU,43309,490068,Sovetsk,0.07,0.01,0.01,0.09,0.04,0.05,0.12,0.06,0.04,0.05,0.03,0.05
Sosnovyy Bor,59.8996,29.08574,RU,68563,490172,Sosnovyy Bor,0.02,0.0,0.02,0.05,0.02,0.06,0.07,0.14,0.25,0.11,0.04,0.02
Sosnovaya Polyana,59.83528,30.14667,RU,48271,490377,Sosnovaya Polyana,0.01,0.0,0.01,0.08,0.04,0.07,0.12,0.12,0.09,0.03,0.02,0.0
Sosnogorsk,63.60229,53.88175,RU,29343,490391,Sosnogorsk,0.0,0.0,0.0,0.01,0.06,0.09,0.07,0.06,0.09,0.11,0.01,0.0
Sortavala,61.71233,30.70953,RU,20760,490466,Sortavala,0.02,0.0,0.0,0.06,0.02,0.07,0.09,0.13,0.11,0.06,0.02,0.01
Sorochinsk,52.4338,53.1583,RU,30731,490554,Sorochinsk,0.0,0.0,0.01,0.05,0.05,0.02,0.06,0.02,0.04,0.04,0.01,0.0
Solntsevo,55.63711,37.38115,RU,120000,490971,Solntsevo,0.0,0.0,0.0,0.05,0.05,0.07,0.11,0.02,0.07,0.04,0.01,0.0
Solnechnogorsk,56.18333,36.98333,RU,58891,490996,Solnechnogorsk,0.0,0.0,0.0,0.05,0.07,0.09,0.13,0.03,0.09,0.05,0.01,0.0
Sol’-Iletsk,51.1631,54.99176,RU,27419,491019,Sol’-Iletsk,0.0,0.0,0.01,0.06,0.04,0.02,0.04,0.02,0.03,0.05,0.0,0.0
Solikamsk,59.6316,56.7685,RU,100812,491023,Solikamsk,0.0,0.0,0.0,0.02,0.12,0.16,0.06,0.07,0.07,0.15,0.01,0.0
Sokol’niki,55.80202,37.67159,RU,57000,491250,Sokol’niki,0.0,0.0,0.0,0.05,0.05,0.07,0.11,0.03,0.07,0.04,0.01,0.0
Sokol,55.8,37.51667,RU,57000,491280,Sokol,0.0,0.0,0.0,0.05,0.05,0.07,0.11,0.02,0.07,0.04,0.01,0.0
Sokol,59.46167,40.12056,RU,42174,491281,Sokol,0.0,0.0,0.0,0.05,0.07,0.09,0.09,0.09,0.14,0.09,0.01,0.0
Sofrino,56.15,37.93333,RU,15265,491352,Sofrino,0.0,0.0,0.0,0.06,0.05,0.07,0.12,0.03,0.1,0.05,0.01,0.0
Sochi,43.59917,39.72569,RU,327608,491422,Sochi,0.15,0.09,0.22,0.11,0.09,0.06,0.09,0.07,0.14,0.18,0.24,0.22
Sobinka,55.98553,40.01111,RU,20458,491480,Sobinka,0.0,0.0,0.0,0.06,0.02,0.04,0.1,0.05,0.07,0.05,0.01,0.0
Smolensk,54.77944,32.04371,RU,330025,491687,Smolensk,0.01,0.0,0.0,0.04,0.05,0.1,0.17,0.05,0.09,0.04,0.01,0.0
Slobodskoy,58.73222,50.17722,RU,32361,491882,Slobodskoy,0.0,0.0,0.0,0.02,0.05,0.11,0.12,0.05,0.09,0.08,0.03,0.0
Slobodka,55.86667,37.58333,RU,20000,491895,Slobodka,0.0,0.0,0.0,0.05,0.05,0.07,0.11,0.02,0.07,0.04,0.01,0.0
Slavyansk-na-Kubani,45.2558,38.1256,RU,65196,492094,Slavyansk-na-Kubani,0.06,0.05,0.08,0.02,0.04,0.02,0.03,0.0,0.04,0.03,0.09,0.09
Slantsy,59.11817,28.09137,RU,36209,492162,Slantsy,0.02,0.0,0.02,0.07,0.02,0.05,0.07,0.1,0.11,0.08,0.03,0.01
Skopin,53.82486,39.55053,RU,24357,492376,Skopin,0.0,0.03,0.0,0.08,0.03,0.02,0.1,0.0,0.04,0.04,0.01,0.0
Skhodnya,55.94806,37.29778,RU,18897,492448,Skhodnya,0.0,0.0,0.0,0.05,0.06,0.09,0.12,0.03,0.09,0.04,0.01,0.0
Sim,54.993,57.6982,RU,15632,492944,Sim,0.0,0.0,0.0,0.03,0.09,0.11,0.15,0.1,0.07,0.06,0.0,0.0
Sibay,52.71806,58.66583,RU,61590,493160,Sibay,0.0,0.0,0.0,0.04,0.07,0.02,0.05,0.03,0.04,0.03,0.0,0.0
Shuya,56.84865,41.38833,RU,60705,493231,Shuya,0.0,0.0,0.0,0.04,0.04,0.05,0.12,0.09,0.08,0.05,0.02,0.0
Shushary,59.80917,30.38167,RU,15503,493316,Shushary,0.01,0.0,0.01,0.08,0.04,0.07,0.13,0.12,0.09,0.03,0.02,0.0
Shumerlya,55.5005,46.41288,RU,35220,493463,Shumerlya,0.0,0.01,0.0,0.06,0.03,0.07,0.1,0.03,0.05,0.07,0.02,0.0
Mikhaylovsk,45.12833,42.02556,RU,59198,493702,Mikhaylovsk,0.02,0.05,0.1,0.03,0.06,0.01,0.07,0.07,0.07,0.05,0.05,0.04
Shilovo,54.3204,40.874,RU,16159,494427,Shilovo,0.0,0.03,0.0,0.08,0.02,0.03,0.09,0.01,0.06,0.05,0.01,0.0
Sheksna,59.20998,38.51066,RU,21197,495062,Sheksna,0.0,0.0,0.0,0.06,0.06,0.12,0.1,0.1,0.15,0.1,0.02,0.0
Shebekino,50.40967,36.9136,RU,45194,495112,Shebekino,0.01,0.01,0.03,0.06,0.07,0.04,0.18,0.0,0.03,0.03,0.0,0.02
Shchukino,55.8,37.45,RU,102000,495136,Shchukino,0.0,0.0,0.0,0.05,0.05,0.07,0.11,0.02,0.07,0.04,0.01,0.0
Shchigry,51.87555,36.90432,RU,19198,495206,Shchigry,0.0,0.02,0.01,0.04,0.04,0.03,0.15,0.0,0.04,0.05,0.0,0.01
Shcherbinka,55.49972,37.55972,RU,28065,495260,Shcherbinka,0.0,0.0,0.0,0.06,0.07,0.06,0.12,0.04,0.07,0.04,0.01,0.0
Shchelkovo,55.92497,37.97218,RU,113000,495344,Shchelkovo,0.0,0.0,0.0,0.06,0.05,0.06,0.1,0.03,0.09,0.05,0.01,0.0
Shchëkino,54.00513,37.52194,RU,60700,495394,Shchëkino,0.0,0.01,0.0,0.05,0.03,0.02,0.1,0.02,0.05,0.05,0.01,0.0
Shatura,55.57253,39.53682,RU,30069,495518,Shatura,0.0,0.0,0.0,0.06,0.03,0.06,0.08,0.03,0.07,0.05,0.01,0.0
Shar’ya,58.36909,45.51558,RU,29800,495619,Shar’ya,0.0,0.0,0.0,0.03,0.06,0.08,0.1,0.08,0.09,0.08,0.02,0.0
Shali,43.14806,45.90194,RU,25000,495957,Shali,0.03,0.05,0.09,0.04,0.03,0.03,0.12,0.11,0.03,0.03,0.03,0.02
Shakhun’ya,57.67579,46.61136,RU,22400,496012,Shakhun’ya,0.0,0.0,0.0,0.04,0.06,0.07,0.11,0.05,0.08,0.08,0.03,0.0
Shakhty,47.70911,40.21443,RU,221312,496015,Shakhty,0.02,0.02,0.06,0.03,0.03,0.02,0.06,0.0,0.02,0.04,0.02,0.02
Severskaya,44.85407,38.67686,RU,22849,496267,Severskaya,0.06,0.05,0.13,0.05,0.08,0.05,0.04,0.0,0.06,0.1,0.09,0.13
Severo-Zadonsk,54.03481,38.40172,RU,16569,496269,Severo-Zadonsk,0.0,0.02,0.0,0.07,0.03,0.03,0.12,0.01,0.05,0.05,0.01,0.0
Severoural’sk,60.15328,59.95205,RU,33500,496275,Severoural’sk,0.0,0.0,0.0,0.03,0.08,0.1,0.07,0.05,0.02,0.07,0.0,0.0
Severomorsk,69.06889,33.41622,RU,53921,496278,Severomorsk,0.0,0.0,0.0,0.01,0.04,0.09,0.05,0.12,0.05,0.02,0.03,0.0
Severodvinsk,64.5635,39.8302,RU,194292,496285,Severodvinsk,0.0,0.0,0.0,0.03,0.02,0.13,0.05,0.18,0.11,0.07,0.01,0.0
Severnyy,55.93583,37.54889,RU,200000,496348,Severnyy,0.0,0.0,0.0,0.05,0.06,0.08,0.11,0.02,0.09,0.04,0.01,0.0
Setun’,55.71667,37.41667,RU,20000,496456,Setun’,0.0,0.0,0.0,0.05,0.05,0.07,0.11,0.02,0.07,0.04,0.01,0.0
Sestroretsk,60.09801,29.96378,RU,37248,496478,Sestroretsk,0.01,0.0,0.02,0.06,0.03,0.06,0.09,0.12,0.14,0.04,0.03,0.01
Sertolovo,60.1444,30.20165,RU,43622,496519,Sertolovo,0.01,0.0,0.02,0.06,0.03,0.06,0.1,0.13,0.12,0.04,0.02,0.0
Serpukhov,54.91578,37.41114,RU,128158,496527,Serpukhov,0.0,0.0,0.0,0.06,0.05,0.03,0.12,0.04,0.06,0.04,0.01,0.0
Sergiyev Posad,56.3,38.13333,RU,109252,496638,Sergiyev Posad,0.0,0.0,0.0,0.06,0.04,0.06,0.12,0.03,0.09,0.05,0.01,0.0
Sergach,55.53079,45.46611,RU,22361,496802,Sergach,0.0,0.02,0.0,0.06,0.03,0.07,0.09,0.03,0.04,0.05,0.02,0.0
Serdobsk,52.45861,44.21689,RU,36652,496934,Serdobsk,0.0,0.03,0.0,0.08,0.04,0.02,0.09,0.01,0.06,0.04,0.01,0.0
Semiluki,51.6821,39.0302,RU,26257,497206,Semiluki,0.01,0.01,0.02,0.06,0.06,0.03,0.12,0.0,0.07,0.06,0.0,0.01
Semikarakorsk,47.51675,40.80577,RU,23583,497218,Semikarakorsk,0.02,0.03,0.06,0.03,0.04,0.01,0.06,0.0,0.02,0.03,0.02,0.03
Semënovskoye,55.68333,37.55,RU,50000,497271,Semënovskoye,0.0,0.0,0.0,0.05,0.05,0.07,0.11,0.02,0.07,0.04,0.01,0.0
Semënov,56.78749,44.49297,RU,24300,497450,Semënov,0.0,0.01,0.0,0.05,0.04,0.06,0.1,0.03,0.08,0.05,0.02,0.0
Sel’tso,53.36831,34.10328,RU,18167,497610,Sel’tso,0.01,0.0,0.0,0.03,0.04,0.11,0.16,0.02,0.04,0.04,0.0,0.0
Segezha,63.74147,34.32218,RU,33354,497927,Segezha,0.0,0.0,0.0,0.01,0.02,0.13,0.05,0.18,0.11,0.08,0.01,0.0
Satka,55.0425,59.04,RU,49384,498418,Satka,0.0,0.0,0.0,0.04,0.09,0.15,0.13,0.11,0.06,0.08,0.0,0.0
Sarov,54.93583,43.32352,RU,88000,498525,Sarov,0.0,0.02,0.0,0.05,0.03,0.06,0.12,0.03,0.06,0.06,0.01,0.0
Saratov,51.54056,46.00861,RU,844858,498677,Saratov,0.0,0.01,0.01,0.05,0.02,0.01,0.1,0.02,0.06,0.05,0.0,0.0
Sarapul,56.47633,53.79782,RU,98830,498687,Sarapul,0.0,0.0,0.0,0.07,0.06,0.08,0.06,0.08,0.08,0.08,0.01,0.0
Saransk,54.1838,45.1749,RU,318841,498698,Saransk,0.0,0.01,0.0,0.07,0.02,0.04,0.08,0.02,0.03,0.05,0.01,0.0
Saraktash,51.78771,56.36091,RU,17413,498708,Saraktash,0.0,0.0,0.01,0.07,0.04,0.02,0.02,0.02,0.03,0.05,0.0,0.0
Saint Petersburg,59.93863,30.31413,RU,5351935,498817,Saint Petersburg,0.01,0.0,0.02,0.06,0.03,0.06,0.09,0.12,0.14,0.04,0.03,0.01
Samara,53.20007,50.15,RU,1163399,499099,Samara,0.0,0.0,0.0,0.05,0.02,0.02,0.07,0.02,0.04,0.04,0.01,0.0
Sal’sk,46.4747,41.54114,RU,61000,499161,Sal’sk,0.04,0.02,0.07,0.02,0.02,0.01,0.06,0.0,0.02,0.06,0.04,0.05
Salavat,53.38365,55.90773,RU,159893,499292,Salavat,0.0,0.0,0.02,0.05,0.05,0.04,0.07,0.05,0.05,0.08,0.01,0.0
Safonovo,55.11091,33.23728,RU,46000,499453,Safonovo,0.01,0.0,0.0,0.05,0.03,0.12,0.12,0.05,0.09,0.04,0.01,0.0
Rzhev,56.26241,34.32817,RU,62246,499717,Rzhev,0.01,0.0,0.0,0.04,0.04,0.11,0.1,0.05,0.12,0.03,0.01,0.0
Rybnoye,54.72774,39.51731,RU,19159,499975,Rybnoye,0.0,0.01,0.0,0.08,0.02,0.04,0.1,0.02,0.05,0.06,0.01,0.0
Rybinsk,58.0446,38.84259,RU,216724,500004,Rybinsk,0.0,0.0,0.0,0.06,0.07,0.07,0.14,0.08,0.13,0.09,0.03,0.0
Rybatskoye,59.8393,30.49873,RU,55076,500019,Rybatskoye,0.01,0.0,0.01,0.08,0.04,0.07,0.13,0.12,0.09,0.03,0.02,0.0
Ryazhsk,53.7038,40.1109,RU,22041,500047,Ryazhsk,0.0,0.03,0.0,0.07,0.03,0.03,0.09,0.0,0.04,0.04,0.01,0.0
Ryazan’,54.6269,39.6916,RU,538962,500096,Ryazan’,0.0,0.02,0.0,0.08,0.02,0.04,0.11,0.02,0.05,0.06,0.01,0.0
Ruzayevka,54.06387,44.9509,RU,49311,500299,Ruzayevka,0.0,0.01,0.0,0.08,0.02,0.04,0.08,0.02,0.04,0.05,0.01,0.0
Rublëvo,55.78514,37.35481,RU,20000,500843,Rublëvo,0.0,0.0,0.0,0.05,0.05,0.08,0.11,0.02,0.07,0.04,0.01,0.0
Rtishchevo,52.26041,43.78745,RU,44013,500886,Rtishchevo,0.0,0.03,0.0,0.08,0.04,0.01,0.1,0.01,0.06,0.05,0.0,0.0
Rostov-na-Donu,47.23135,39.72328,RU,1130305,501175,Rostov-na-Donu,0.03,0.03,0.06,0.03,0.05,0.01,0.04,0.0,0.02,0.05,0.03,0.04
Rostov,57.1914,39.41394,RU,31039,501183,Rostov,0.0,0.0,0.0,0.05,0.04,0.06,0.12,0.07,0.12,0.06,0.02,0.0
Rostokino,55.83333,37.66667,RU,37000,501187,Rostokino,0.0,0.0,0.0,0.05,0.05,0.07,0.11,0.03,0.07,0.04,0.01,0.0
Rossosh’,51.1209,38.5116,RU,64323,501215,Rossosh’,0.01,0.01,0.02,0.08,0.07,0.02,0.14,0.0,0.06,0.05,0.0,0.01
Rossosh’,50.19828,39.56726,RU,62000,501231,Rossosh’,0.01,0.01,0.03,0.05,0.05,0.02,0.2,0.0,0.04,0.04,0.01,0.02
Roslavl’,53.95387,32.86409,RU,56971,501283,Roslavl’,0.01,0.0,0.0,0.04,0.03,0.15,0.18,0.03,0.06,0.05,0.01,0.0
Roshal’,55.66853,39.87488,RU,21951,501320,Roshal’,0.0,0.0,0.0,0.05,0.02,0.04,0.08,0.04,0.07,0.05,0.01,0.0
Rodniki,57.10513,41.73048,RU,27681,501730,Rodniki,0.0,0.0,0.0,0.04,0.05,0.04,0.11,0.08,0.09,0.05,0.02,0.0
Revda,56.80097,59.93028,RU,61785,502011,Revda,0.0,0.0,0.0,0.03,0.06,0.12,0.11,0.09,0.05,0.06,0.0,0.0
Reutov,55.76111,37.8575,RU,78370,502018,Reutov,0.0,0.0,0.0,0.05,0.05,0.07,0.11,0.03,0.07,0.04,0.01,0.0
Razumnoye,50.53439,36.68462,RU,15529,502400,Razumnoye,0.01,0.02,0.03,0.05,0.07,0.04,0.19,0.0,0.04,0.03,0.0,0.02
Rayevskiy,54.0658,54.9468,RU,20060,502540,Rayevskiy,0.0,0.0,0.0,0.04,0.06,0.03,0.08,0.04,0.05,0.04,0.01,0.0
Rasskazovo,52.66384,41.88915,RU,45957,502793,Rasskazovo,0.0,0.03,0.0,0.07,0.05,0.03,0.09,0.01,0.07,0.05,0.0,0.0
Ramenskoye,55.56694,38.23028,RU,96000,502965,Ramenskoye,0.0,0.0,0.0,0.05,0.04,0.06,0.09,0.03,0.06,0.05,0.01,0.0
Ramenki,55.7,37.5,RU,130000,502971,Ramenki,0.0,0.0,0.0,0.05,0.05,0.07,0.11,0.02,0.07,0.04,0.01,0.0
Pyatigorsk,44.04861,43.05944,RU,142865,503550,Pyatigorsk,0.02,0.03,0.12,0.03,0.08,0.05,0.09,0.11,0.06,0.04,0.06,0.02
Pushkino,56.01722,37.86667,RU,102816,503977,Pushkino,0.0,0.0,0.0,0.06,0.05,0.07,0.1,0.02,0.09,0.05,0.01,0.0
Pushkin,59.71417,30.39642,RU,92889,504003,Pushkin,0.01,0.0,0.01,0.08,0.04,0.07,0.13,0.12,0.09,0.03,0.02,0.0
Pushchino,54.83373,37.61138,RU,20072,504042,Pushchino,0.0,0.0,0.0,0.06,0.04,0.03,0.11,0.04,0.06,0.04,0.01,0.0
Pugachev,52.01333,48.8025,RU,41375,504250,Pugachev,0.0,0.0,0.0,0.04,0.04,0.01,0.05,0.0,0.03,0.03,0.01,0.0
Pskov,57.8136,28.3496,RU,210501,504341,Pskov,0.01,0.0,0.01,0.08,0.03,0.08,0.05,0.14,0.07,0.08,0.04,0.01
Protvino,54.86821,37.21583,RU,37329,504576,Protvino,0.0,0.0,0.0,0.06,0.04,0.02,0.1,0.04,0.05,0.04,0.01,0.0
Proletarsk,46.70289,41.72717,RU,19493,504831,Proletarsk,0.04,0.02,0.06,0.02,0.01,0.01,0.07,0.0,0.02,0.05,0.04,0.04
Prokhladnyy,43.75741,44.0297,RU,60800,504935,Prokhladnyy,0.03,0.03,0.12,0.05,0.06,0.11,0.11,0.1,0.04,0.04,0.05,0.02
Priyutovo,53.9,53.93333,RU,20847,505014,Priyutovo,0.0,0.0,0.0,0.04,0.05,0.03,0.08,0.04,0.05,0.03,0.01,0.0
Privolzhskiy,51.40944,46.04833,RU,31849,505057,Privolzhskiy,0.0,0.01,0.01,0.05,0.02,0.01,0.1,0.02,0.06,0.05,0.0,0.0
Privolzhsk,57.38698,41.28666,RU,17864,505060,Privolzhsk,0.0,0.0,0.0,0.04,0.08,0.05,0.13,0.07,0.1,0.06,0.02,0.0
Priozërsk,61.03928,30.12907,RU,18300,505230,Priozërsk,0.01,0.0,0.01,0.04,0.02,0.05,0.07,0.11,0.1,0.05,0.02,0.0
Primorsko-Akhtarsk,46.04817,38.17929,RU,33102,505259,Primorsko-Akhtarsk,0.05,0.05,0.05,0.02,0.03,0.03,0.03,0.0,0.06,0.03,0.05,0.07
Pridonskoy,51.6826,39.0676,RU,16896,505421,Pridonskoy,0.01,0.01,0.02,0.06,0.06,0.03,0.12,0.0,0.07,0.06,0.0,0.01
Povorino,51.1945,42.2457,RU,18004,505806,Povorino,0.01,0.03,0.02,0.06,0.04,0.02,0.11,0.01,0.08,0.06,0.0,0.02
Kotlovka,55.65928,37.60404,RU,64000,506043,Kotlovka,0.0,0.0,0.0,0.05,0.05,0.07,0.11,0.02,0.07,0.04,0.01,0.0
Annino,55.58333,37.6,RU,30000,506117,Annino,0.0,0.0,0.0,0.06,0.07,0.06,0.12,0.04,0.07,0.04,0.01,0.0
Polyarnyye Zori,67.36611,32.49806,RU,15092,506762,Polyarnyye Zori,0.0,0.0,0.0,0.01,0.03,0.1,0.02,0.12,0.09,0.04,0.01,0.0
Polyarnyy,69.19889,33.44778,RU,17332,506763,Polyarnyy,0.0,0.0,0.0,0.01,0.05,0.07,0.05,0.12,0.07,0.03,0.03,0.0
Pokrovskoye-Streshnëvo,55.80797,37.45814,RU,55000,507338,Pokrovskoye-Streshnëvo,0.0,0.0,0.0,0.05,0.05,0.07,0.11,0.02,0.07,0.04,0.01,0.0
Pokrov,55.91797,39.17242,RU,15867,507599,Pokrov,0.0,0.0,0.0,0.06,0.02,0.04,0.1,0.04,0.07,0.05,0.01,0.0
Pokhvistnevo,53.65237,52.12738,RU,28300,507624,Pokhvistnevo,0.0,0.0,0.0,0.05,0.03,0.02,0.04,0.02,0.04,0.03,0.01,0.0
Podporozh’ye,60.91124,34.17064,RU,19600,508034,Podporozh’ye,0.01,0.0,0.01,0.04,0.03,0.08,0.07,0.14,0.13,0.04,0.02,0.0
Podolsk,55.42419,37.55472,RU,179400,508101,Podolsk,0.0,0.0,0.0,0.06,0.07,0.06,0.12,0.04,0.07,0.04,0.01,0.0
Pochep,52.9331,33.44702,RU,15100,508656,Pochep,0.01,0.0,0.0,0.04,0.04,0.08,0.15,0.02,0.05,0.04,0.0,0.0
Ryazanskiy,55.73333,37.76667,RU,101000,508751,Ryazanskiy,0.0,0.0,0.0,0.05,0.05,0.07,0.11,0.03,0.07,0.04,0.01,0.0
Plavsk,53.70944,37.29194,RU,16763,509052,Plavsk,0.0,0.02,0.0,0.05,0.03,0.02,0.1,0.01,0.05,0.06,0.01,0.0
Pikalëvo,59.51833,34.16639,RU,22072,509598,Pikalëvo,0.01,0.0,0.01,0.1,0.04,0.09,0.1,0.13,0.12,0.06,0.03,0.0
Petushki,55.92639,39.46104,RU,15866,509697,Petushki,0.0,0.0,0.0,0.05,0.02,0.04,0.1,0.04,0.07,0.05,0.01,0.0
Petrozavodsk,61.78491,34.34691,RU,279190,509820,Petrozavodsk,0.0,0.0,0.0,0.04,0.04,0.08,0.1,0.16,0.1,0.04,0.01,0.0
Petrovskaya,55.55,37.78333,RU,30000,509981,Petrovskaya,0.0,0.0,0.0,0.05,0.06,0.06,0.11,0.03,0.07,0.04,0.01,0.0
Petrovsk,52.30639,45.39167,RU,33622,509987,Petrovsk,0.0,0.02,0.0,0.07,0.03,0.01,0.1,0.03,0.06,0.06,0.0,0.0
Petrodvorets,59.89565,29.80145,RU,61973,510225,Petrodvorets,0.02,0.0,0.02,0.05,0.03,0.05,0.08,0.13,0.18,0.06,0.03,0.01
Peterhof,59.88333,29.9,RU,73199,510291,Peterhof,0.01,0.0,0.02,0.06,0.03,0.06,0.09,0.12,0.14,0.04,0.03,0.01
Pestovo,58.59382,35.80244,RU,15910,510364,Pestovo,0.0,0.0,0.01,0.1,0.05,0.07,0.16,0.1,0.13,0.06,0.02,0.0
Pervouralsk,56.90528,59.94361,RU,133600,510808,Pervouralsk,0.0,0.0,0.0,0.03,0.05,0.13,0.12,0.1,0.05,0.05,0.0,0.0
Perm,58.01046,56.25017,RU,982419,511196,Perm,0.0,0.0,0.0,0.05,0.08,0.12,0.08,0.04,0.06,0.1,0.02,0.0
Pereslavl’-Zalesskiy,56.73934,38.85626,RU,40283,511359,Pereslavl’-Zalesskiy,0.0,0.0,0.0,0.05,0.04,0.07,0.12,0.05,0.09,0.06,0.02,0.0
Novo-Peredelkino,55.64528,37.33583,RU,115536,511510,Novo-Peredelkino,0.0,0.0,0.0,0.05,0.05,0.08,0.11,0.02,0.07,0.04,0.01,0.0
Penza,53.20066,45.00464,RU,523553,511565,Penza,0.0,0.02,0.0,0.07,0.04,0.02,0.09,0.02,0.05,0.05,0.0,0.0
Pechora,65.14717,57.22439,RU,46113,511794,Pechora,0.0,0.0,0.0,0.01,0.04,0.11,0.05,0.12,0.09,0.06,0.01,0.0
Pavlovskiy Posad,55.78187,38.65025,RU,60051,512023,Pavlovskiy Posad,0.0,0.0,0.0,0.07,0.03,0.05,0.09,0.03,0.07,0.05,0.01,0.0
Pavlovskaya,46.1377,39.7832,RU,31133,512051,Pavlovskaya,0.05,0.05,0.08,0.03,0.04,0.02,0.04,0.0,0.06,0.06,0.04,0.06
Pavlovsk,59.68333,30.43472,RU,16087,512052,Pavlovsk,0.01,0.0,0.01,0.08,0.04,0.07,0.13,0.12,0.09,0.03,0.02,0.0
Pavlovsk,50.45778,40.10806,RU,26565,512053,Pavlovsk,0.01,0.02,0.03,0.06,0.06,0.02,0.18,0.0,0.05,0.05,0.01,0.02
Pashkovskiy,45.02366,39.10436,RU,43634,512382,Pashkovskiy,0.06,0.04,0.11,0.05,0.05,0.03,0.03,0.0,0.05,0.08,0.08,0.11
Pallasovka,50.05,46.88333,RU,17139,513042,Pallasovka,0.0,0.01,0.02,0.02,0.01,0.0,0.04,0.0,0.04,0.03,0.01,0.01
Ozëry,54.85998,38.55062,RU,25900,513378,Ozëry,0.0,0.0,0.0,0.07,0.03,0.04,0.1,0.03,0.05,0.05,0.01,0.0
Ozerki,60.03947,30.31128,RU,95000,513471,Ozerki,0.01,0.0,0.02,0.06,0.03,0.06,0.09,0.12,0.14,0.04,0.03,0.01
Otradnyy,53.37596,51.3452,RU,50127,513883,Otradnyy,0.0,0.0,0.0,0.05,0.02,0.02,0.06,0.02,0.04,0.04,0.01,0.0
Otradnoye,55.86667,37.6,RU,18000,513896,Otradnoye,0.0,0.0,0.0,0.05,0.05,0.07,0.11,0.02,0.07,0.04,0.01,0.0
Otradnoye,59.7775,30.81806,RU,21397,513898,Otradnoye,0.01,0.0,0.01,0.09,0.03,0.07,0.14,0.12,0.1,0.03,0.02,0.0
Otradnaya,44.39333,41.52056,RU,22985,513911,Otradnaya,0.02,0.04,0.12,0.02,0.08,0.02,0.07,0.05,0.08,0.05,0.04,0.04
Ostrov,57.34395,28.35368,RU,24500,514171,Ostrov,0.02,0.0,0.01,0.07,0.03,0.07,0.05,0.11,0.05,0.06,0.03,0.01
Ostrogozhsk,50.8664,39.07561,RU,34403,514198,Ostrogozhsk,0.01,0.01,0.03,0.05,0.07,0.03,0.13,0.0,0.05,0.04,0.0,0.01
Ostashkov,57.14667,33.10753,RU,19563,514259,Ostashkov,0.01,0.0,0.0,0.08,0.03,0.1,0.11,0.11,0.11,0.05,0.01,0.0
Ostankinskiy,55.82957,37.61604,RU,60000,514284,Ostankinskiy,0.0,0.0,0.0,0.05,0.05,0.07,0.11,0.02,0.07,0.04,0.01,0.0
Osa,57.283,55.4589,RU,23292,514706,Osa,0.0,0.0,0.0,0.04,0.06,0.1,0.05,0.04,0.07,0.09,0.02,0.0
Orsk,51.20487,58.56685,RU,246836,514734,Orsk,0.0,0.0,0.02,0.06,0.03,0.03,0.04,0.02,0.02,0.02,0.01,0.0
Orlovskiy,46.87139,42.05917,RU,19325,514796,Orlovskiy,0.03,0.02,0.07,0.02,0.01,0.01,0.07,0.0,0.02,0.05,0.04,0.05
Orenburg,51.7727,55.0988,RU,564773,515003,Orenburg,0.0,0.0,0.01,0.05,0.05,0.01,0.04,0.02,0.03,0.05,0.0,0.0
Orël,52.96508,36.07849,RU,303696,515012,Orël,0.0,0.02,0.0,0.04,0.05,0.04,0.13,0.01,0.03,0.05,0.0,0.0
Orekhovo-Zuyevo,55.80672,38.96178,RU,120000,515024,Orekhovo-Zuyevo,0.0,0.0,0.0,0.06,0.03,0.04,0.09,0.03,0.07,0.05,0.01,0.0
Orekhovo-Borisovo Severnoye,55.61667,37.68333,RU,128000,515027,Orekhovo-Borisovo Severnoye,0.0,0.0,0.0,0.05,0.06,0.06,0.11,0.03,0.07,0.04,0.01,0.0
Sunzha,43.3195,45.04911,RU,71841,515083,Sunzha,0.03,0.02,0.1,0.04,0.05,0.08,0.1,0.11,0.02,0.02,0.04,0.02
Onega,63.9057,38.09944,RU,22693,515246,Onega,0.0,0.0,0.0,0.02,0.02,0.11,0.06,0.2,0.13,0.12,0.03,0.0
Omutninsk,58.67001,52.1932,RU,25364,515267,Omutninsk,0.0,0.0,0.0,0.02,0.07,0.14,0.11,0.08,0.08,0.1,0.02,0.0
Olenegorsk,68.1432,33.25287,RU,23670,515698,Olenegorsk,0.0,0.0,0.0,0.0,0.07,0.1,0.06,0.11,0.07,0.02,0.02,0.0
Tsotsin-Yurt,43.24206,46.00013,RU,15970,515804,Tsotsin-Yurt,0.03,0.04,0.09,0.03,0.02,0.05,0.11,0.09,0.03,0.02,0.03,0.02
Oktyabr’skiy,54.48147,53.47103,RU,108200,515879,Oktyabr’skiy,0.0,0.0,0.0,0.04,0.04,0.03,0.05,0.04,0.05,0.03,0.01,0.0
Oktyabr’sk,53.16722,48.70056,RU,26306,515938,Oktyabr’sk,0.0,0.0,0.0,0.05,0.02,0.02,0.05,0.02,0.04,0.05,0.01,0.0
Odintsovo,55.67798,37.27773,RU,137041,516215,Odintsovo,0.0,0.0,0.0,0.05,0.05,0.08,0.11,0.02,0.07,0.04,0.01,0.0
Ochër,57.89035,54.72019,RU,15395,516256,Ochër,0.0,0.0,0.0,0.04,0.07,0.11,0.12,0.03,0.07,0.09,0.02,0.0
Ochakovo-Matveyevskoye,55.68432,37.44654,RU,114000,516264,Ochakovo-Matveyevskoye,0.0,0.0,0.0,0.05,0.05,0.07,0.11,0.02,0.07,0.04,0.01,0.0
Obninsk,55.09681,36.61006,RU,107392,516436,Obninsk,0.0,0.0,0.0,0.05,0.04,0.05,0.12,0.04,0.06,0.03,0.01,0.0
Nytva,57.9437,55.3396,RU,20525,516576,Nytva,0.0,0.0,0.0,0.05,0.07,0.12,0.11,0.03,0.07,0.09,0.02,0.0
Nyandoma,61.6656,40.2013,RU,22179,516647,Nyandoma,0.0,0.0,0.0,0.03,0.03,0.12,0.09,0.12,0.12,0.09,0.01,0.0
Nurlat,54.42766,50.80511,RU,34451,516716,Nurlat,0.0,0.0,0.0,0.07,0.03,0.04,0.05,0.03,0.03,0.06,0.01,0.0
Novyy Oskol,50.76331,37.86415,RU,21035,516931,Novyy Oskol,0.01,0.01,0.03,0.06,0.07,0.03,0.18,0.0,0.05,0.04,0.0,0.01
Novyye Kuz’minki,55.7,37.75,RU,143000,517121,Novyye Kuz’minki,0.0,0.0,0.0,0.05,0.05,0.07,0.11,0.03,0.07,0.04,0.01,0.0
Novyye Cherëmushki,55.7,37.58333,RU,101000,517161,Novyye Cherëmushki,0.0,0.0,0.0,0.05,0.05,0.07,0.11,0.02,0.07,0.04,0.01,0.0
Novozybkov,52.53711,31.93659,RU,42571,517269,Novozybkov,0.02,0.01,0.0,0.03,0.03,0.16,0.16,0.03,0.06,0.04,0.0,0.0
Novovoronezh,51.30719,39.21732,RU,37392,517716,Novovoronezh,0.02,0.01,0.02,0.08,0.06,0.03,0.15,0.0,0.06,0.05,0.0,0.01
Novouzensk,50.45917,48.14306,RU,16932,517739,Novouzensk,0.0,0.0,0.02,0.02,0.01,0.01,0.04,0.0,0.03,0.02,0.01,0.0
Novoul’yanovsk,54.14961,48.38907,RU,17139,517766,Novoul’yanovsk,0.0,0.0,0.0,0.08,0.02,0.03,0.07,0.02,0.05,0.06,0.01,0.0
Novotroitsk,51.20301,58.32665,RU,106186,517836,Novotroitsk,0.0,0.0,0.02,0.06,0.03,0.03,0.04,0.02,0.02,0.02,0.0,0.0
Novotitarovskaya,45.23756,38.98059,RU,22630,517842,Novotitarovskaya,0.07,0.04,0.09,0.04,0.05,0.03,0.04,0.0,0.06,0.07,0.09,0.1
Novoshakhtinsk,47.76037,39.93335,RU,99478,517963,Novoshakhtinsk,0.02,0.02,0.06,0.03,0.04,0.01,0.06,0.0,0.02,0.04,0.02,0.03
Novorossiysk,44.72439,37.76752,RU,241856,518255,Novorossiysk,0.05,0.05,0.09,0.02,0.04,0.03,0.07,0.0,0.06,0.04,0.08,0.11
Novopokrovskaya,45.95139,40.70056,RU,19342,518325,Novopokrovskaya,0.05,0.05,0.08,0.02,0.06,0.01,0.06,0.01,0.03,0.08,0.05,0.05
Novopavlovsk,43.96222,43.63417,RU,24408,518383,Novopavlovsk,0.03,0.04,0.12,0.04,0.05,0.06,0.09,0.07,0.04,0.04,0.06,0.03
Novomoskovsk,54.0105,38.2846,RU,130982,518557,Novomoskovsk,0.0,0.02,0.0,0.06,0.03,0.03,0.11,0.01,0.05,0.05,0.01,0.0
Novomichurinsk,54.0384,39.7479,RU,20821,518602,Novomichurinsk,0.0,0.03,0.0,0.07,0.03,0.03,0.09,0.0,0.04,0.05,0.01,0.0
Novokuz’minki,55.71667,37.78333,RU,50000,518657,Novokuz’minki,0.0,0.0,0.0,0.05,0.05,0.07,0.11,0.03,0.07,0.04,0.01,0.0
Novokuybyshevsk,53.0959,49.9462,RU,111800,518659,Novokuybyshevsk,0.0,0.0,0.0,0.04,0.02,0.02,0.05,0.01,0.03,0.04,0.01,0.0
Novokubansk,45.117,41.0267,RU,36401,518682,Novokubansk,0.05,0.04,0.12,0.04,0.05,0.01,0.04,0.04,0.06,0.06,0.07,0.05
Novokhovrino,55.86667,37.5,RU,50000,518740,Novokhovrino,0.0,0.0,0.0,0.05,0.05,0.07,0.11,0.02,0.07,0.04,0.01,0.0
Novogireyevo,55.75378,37.81885,RU,95000,518879,Novogireyevo,0.0,0.0,0.0,0.05,0.05,0.07,0.11,0.03,0.07,0.04,0.01,0.0
Novodvinsk,64.4165,40.8122,RU,42900,518909,Novodvinsk,0.0,0.0,0.0,0.02,0.02,0.13,0.04,0.19,0.11,0.08,0.02,0.0
Novocherkassk,47.42096,40.09185,RU,166974,518970,Novocherkassk,0.03,0.03,0.06,0.03,0.05,0.01,0.05,0.0,0.02,0.04,0.02,0.03
Novocheboksarsk,56.11095,47.47755,RU,128468,518976,Novocheboksarsk,0.0,0.0,0.0,0.07,0.03,0.06,0.08,0.03,0.05,0.05,0.03,0.0
Novoanninskiy,50.52891,42.6707,RU,19231,519062,Novoanninskiy,0.01,0.03,0.03,0.03,0.03,0.01,0.15,0.01,0.05,0.06,0.0,0.02
Novoaleksandrovsk,45.4948,41.22075,RU,27610,519106,Novoaleksandrovsk,0.05,0.05,0.1,0.03,0.05,0.01,0.06,0.04,0.03,0.08,0.05,0.06
Velikiy Novgorod,58.52131,31.27104,RU,222868,519336,Velikiy Novgorod,0.02,0.0,0.01,0.09,0.03,0.06,0.14,0.1,0.09,0.09,0.04,0.01
Novaya Usman’,51.6301,39.4128,RU,22165,519447,Novaya Usman’,0.01,0.01,0.01,0.08,0.06,0.02,0.12,0.0,0.08,0.06,0.0,0.01
Novaya Derevnya,59.98748,30.28682,RU,20000,519711,Novaya Derevnya,0.01,0.0,0.02,0.06,0.03,0.06,0.09,0.12,0.14,0.04,0.03,0.01
Noginsk,55.86647,38.4438,RU,115979,520068,Noginsk,0.0,0.0,0.0,0.06,0.04,0.05,0.09,0.03,0.07,0.05,0.01,0.0
Nizhnyaya Tura,58.6293,59.8118,RU,22600,520204,Nizhnyaya Tura,0.0,0.0,0.0,0.03,0.07,0.12,0.1,0.07,0.04,0.04,0.01,0.0
Nizhny Tagil,57.91944,59.965,RU,381116,520494,Nizhny Tagil,0.0,0.0,0.0,0.03,0.04,0.11,0.13,0.08,0.04,0.04,0.01,0.0
Nizhniy Novgorod,56.32867,44.00205,RU,1259013,520555,Nizhniy Novgorod,0.0,0.02,0.0,0.06,0.02,0.07,0.1,0.04,0.07,0.06,0.02,0.0
Nizhniy Lomov,53.53041,43.67663,RU,23835,520574,Nizhniy Lomov,0.0,0.03,0.0,0.08,0.03,0.04,0.11,0.01,0.05,0.04,0.01,0.0
Nizhnekamsk,55.63657,51.82447,RU,234297,521118,Nizhnekamsk,0.0,0.0,0.0,0.08,0.04,0.06,0.09,0.07,0.04,0.08,0.02,0.0
Nikulino,55.66943,37.46598,RU,30000,521416,Nikulino,0.0,0.0,0.0,0.05,0.05,0.07,0.11,0.02,0.07,0.04,0.01,0.0
Nikol’skoye,55.68333,37.48333,RU,50000,521500,Nikol’skoye,0.0,0.0,0.0,0.05,0.05,0.07,0.11,0.02,0.07,0.04,0.01,0.0
Nikol’skoye,59.70056,30.78472,RU,19280,521509,Nikol’skoye,0.01,0.0,0.01,0.09,0.03,0.07,0.14,0.12,0.1,0.03,0.02,0.0
Nikol’sk,53.71886,46.07118,RU,24300,521776,Nikol’sk,0.0,0.01,0.0,0.08,0.02,0.03,0.08,0.02,0.04,0.06,0.01,0.0
Nikolayevsk,50.02824,45.45953,RU,16044,521874,Nikolayevsk,0.0,0.02,0.02,0.02,0.02,0.0,0.1,0.0,0.05,0.03,0.01,0.02
Nikel,69.41285,30.22198,RU,15596,522260,Nikel,0.0,0.0,0.0,0.01,0.04,0.07,0.06,0.13,0.09,0.02,0.03,0.0
Nezlobnaya,44.11806,43.40278,RU,18412,522301,Nezlobnaya,0.02,0.03,0.13,0.04,0.06,0.06,0.1,0.08,0.06,0.05,0.07,0.03
Nevinnomyssk,44.6333,41.9444,RU,134345,522377,Nevinnomyssk,0.03,0.04,0.1,0.03,0.05,0.01,0.06,0.07,0.06,0.05,0.05,0.05
Nevel’,56.02094,29.92844,RU,17832,522410,Nevel’,0.02,0.0,0.0,0.04,0.05,0.08,0.14,0.06,0.07,0.05,0.01,0.01
Nesterovskaya,43.23861,45.05028,RU,19186,522470,Nesterovskaya,0.04,0.03,0.1,0.06,0.06,0.06,0.1,0.14,0.03,0.03,0.04,0.02
Nerekhta,57.45881,40.57471,RU,25352,522594,Nerekhta,0.0,0.0,0.0,0.04,0.06,0.05,0.13,0.07,0.12,0.06,0.02,0.0
Nelidovo,56.22107,32.77738,RU,25349,522775,Nelidovo,0.01,0.0,0.0,0.06,0.04,0.1,0.09,0.07,0.11,0.04,0.01,0.0
Neftekamsk,56.092,54.2661,RU,126805,522942,Neftekamsk,0.0,0.0,0.0,0.07,0.06,0.07,0.03,0.08,0.09,0.07,0.02,0.0
Neftegorsk,52.802,51.166,RU,19542,522945,Neftegorsk,0.0,0.0,0.0,0.05,0.03,0.02,0.05,0.01,0.03,0.02,0.01,0.0
Nazran’,43.22597,44.77323,RU,164131,523064,Nazran’,0.03,0.02,0.09,0.07,0.08,0.07,0.11,0.14,0.04,0.03,0.02,0.02
Nar'yan-Mar,67.63869,53.00371,RU,18041,523392,Nar'yan-Mar,0.0,0.0,0.0,0.0,0.01,0.07,0.02,0.08,0.08,0.04,0.02,0.0
Nartkala,43.5575,43.85083,RU,33390,523405,Nartkala,0.03,0.03,0.12,0.05,0.06,0.11,0.11,0.1,0.04,0.04,0.05,0.02
Naro-Fominsk,55.38752,36.73307,RU,72632,523426,Naro-Fominsk,0.0,0.0,0.0,0.04,0.05,0.08,0.13,0.04,0.07,0.04,0.01,0.0
Nalchik,43.49806,43.61889,RU,239300,523523,Nalchik,0.02,0.02,0.1,0.03,0.07,0.07,0.08,0.11,0.04,0.05,0.07,0.02
Nakhabino,55.84854,37.17789,RU,31715,523553,Nakhabino,0.0,0.0,0.0,0.05,0.05,0.08,0.11,0.02,0.07,0.04,0.01,0.0
Naberezhnyye Chelny,55.72545,52.41122,RU,509870,523750,Naberezhnyye Chelny,0.0,0.0,0.0,0.08,0.04,0.07,0.07,0.1,0.04,0.06,0.02,0.0
Mytishchi,55.91163,37.73076,RU,160542,523812,Mytishchi,0.0,0.0,0.0,0.06,0.05,0.07,0.1,0.02,0.09,0.05,0.01,0.0
Murom,55.575,42.0426,RU,126931,524294,Murom,0.0,0.02,0.0,0.06,0.02,0.05,0.09,0.02,0.07,0.05,0.01,0.0
Murmansk,68.97917,33.09251,RU,295374,524305,Murmansk,0.0,0.0,0.0,0.01,0.04,0.1,0.05,0.13,0.05,0.02,0.03,0.0
Mtsensk,53.27657,36.57334,RU,47609,524640,Mtsensk,0.0,0.02,0.0,0.05,0.04,0.04,0.13,0.01,0.04,0.06,0.0,0.0
Mozhga,56.44469,52.22763,RU,47270,524699,Mozhga,0.0,0.0,0.0,0.09,0.05,0.08,0.09,0.06,0.05,0.09,0.02,0.0
Mozhaysk,55.50194,36.02722,RU,31557,524712,Mozhaysk,0.0,0.0,0.0,0.04,0.05,0.09,0.14,0.03,0.08,0.04,0.01,0.0
Mozdok,43.74359,44.65177,RU,40823,524736,Mozdok,0.04,0.03,0.12,0.04,0.03,0.08,0.11,0.07,0.02,0.02,0.04,0.02
Mostovskoy,44.41222,40.79361,RU,25188,524809,Mostovskoy,0.04,0.04,0.13,0.03,0.08,0.02,0.06,0.04,0.09,0.07,0.04,0.04
Moscow,55.75222,37.61556,RU,10381222,524901,Moscow,0.0,0.0,0.0,0.05,0.05,0.07,0.11,0.02,0.07,0.04,0.01,0.0
Morshansk,53.44354,41.81065,RU,43311,525138,Morshansk,0.0,0.03,0.0,0.06,0.03,0.04,0.08,0.01,0.06,0.05,0.01,0.0
Morozovsk,48.35502,41.82627,RU,29289,525162,Morozovsk,0.02,0.03,0.05,0.03,0.02,0.02,0.13,0.0,0.02,0.03,0.02,0.01
Monino,55.84244,38.19362,RU,19852,525396,Monino,0.0,0.0,0.0,0.06,0.05,0.05,0.1,0.03,0.07,0.05,0.01,0.0
Monchegorsk,67.93972,32.87389,RU,49868,525404,Monchegorsk,0.0,0.0,0.0,0.0,0.07,0.1,0.06,0.12,0.07,0.02,0.02,0.0
Mineralnye Vody,44.21028,43.13528,RU,76280,526480,Mineralnye Vody,0.02,0.04,0.11,0.01,0.06,0.03,0.09,0.07,0.05,0.03,0.05,0.03
Millerovo,48.92265,40.39673,RU,38527,526558,Millerovo,0.01,0.03,0.05,0.04,0.03,0.03,0.1,0.01,0.03,0.04,0.02,0.02
Mikhaylovka,50.06,43.2379,RU,58898,527012,Mikhaylovka,0.01,0.03,0.03,0.03,0.01,0.01,0.15,0.01,0.04,0.04,0.01,0.02
Mikhalkovo,55.68333,37.43333,RU,30000,527057,Mikhalkovo,0.0,0.0,0.0,0.05,0.05,0.07,0.11,0.02,0.07,0.04,0.01,0.0
Michurinsk,52.8978,40.4907,RU,93499,527191,Michurinsk,0.0,0.02,0.01,0.06,0.06,0.02,0.06,0.01,0.06,0.06,0.0,0.0
Metallostroy,59.80083,30.54778,RU,26361,527361,Metallostroy,0.01,0.0,0.01,0.08,0.04,0.07,0.13,0.12,0.09,0.03,0.02,0.0
Menzelinsk,55.72706,53.10258,RU,16858,527529,Menzelinsk,0.0,0.0,0.0,0.07,0.04,0.06,0.06,0.09,0.05,0.06,0.02,0.0
Mendeleyevsk,55.90819,52.29047,RU,22969,527579,Mendeleyevsk,0.0,0.0,0.0,0.09,0.04,0.06,0.08,0.09,0.05,0.07,0.02,0.0
Meleuz,52.96467,55.93277,RU,65362,527717,Meleuz,0.0,0.0,0.01,0.04,0.05,0.04,0.07,0.03,0.05,0.07,0.0,0.0
Melenki,55.3343,41.6295,RU,15902,527740,Melenki,0.0,0.02,0.0,0.06,0.02,0.05,0.09,0.02,0.07,0.05,0.02,0.0
Medvezh’yegorsk,62.91713,34.45689,RU,16551,527888,Medvezh’yegorsk,0.0,0.0,0.0,0.02,0.04,0.11,0.08,0.16,0.13,0.07,0.01,0.0
Medvedovskaya,45.45151,39.02485,RU,16941,527968,Medvedovskaya,0.07,0.04,0.08,0.03,0.04,0.03,0.04,0.0,0.06,0.07,0.08,0.09
Medvedevo,56.63388,47.80405,RU,16407,528056,Medvedevo,0.0,0.0,0.0,0.06,0.03,0.08,0.09,0.04,0.06,0.08,0.02,0.0
Mednogorsk,51.4128,57.595,RU,30676,528109,Mednogorsk,0.0,0.0,0.02,0.06,0.03,0.02,0.03,0.02,0.03,0.05,0.0,0.0
Maykop,44.60778,40.10583,RU,141970,528293,Maykop,0.05,0.04,0.16,0.05,0.1,0.03,0.03,0.02,0.07,0.13,0.05,0.07
Matveyevskoye,55.71112,37.47502,RU,30000,528454,Matveyevskoye,0.0,0.0,0.0,0.05,0.05,0.07,0.11,0.02,0.07,0.04,0.01,0.0
Marks,51.71111,46.74861,RU,32929,529073,Marks,0.0,0.01,0.01,0.04,0.03,0.01,0.07,0.01,0.05,0.04,0.0,0.0
Mar’ino,55.65,37.71667,RU,243000,529237,Mar’ino,0.0,0.0,0.0,0.05,0.05,0.07,0.11,0.03,0.07,0.04,0.01,0.0
Manturovo,58.32889,44.76406,RU,18817,529505,Manturovo,0.0,0.0,0.0,0.03,0.07,0.07,0.12,0.08,0.1,0.09,0.02,0.0
Yaroslavskiy,55.88333,37.71667,RU,91000,530088,Yaroslavskiy,0.0,0.0,0.0,0.06,0.05,0.07,0.1,0.02,0.09,0.05,0.01,0.0
Maloyaroslavets,55.01457,36.47185,RU,32669,530849,Maloyaroslavets,0.0,0.0,0.0,0.05,0.04,0.05,0.12,0.04,0.06,0.03,0.01,0.0
Malgobek,43.51118,44.58821,RU,43400,531129,Malgobek,0.02,0.02,0.1,0.04,0.05,0.1,0.09,0.1,0.02,0.02,0.02,0.02
Malakhovka,55.64776,38.02486,RU,18399,531820,Malakhovka,0.0,0.0,0.0,0.06,0.04,0.06,0.1,0.03,0.07,0.05,0.01,0.0
Makhachkala,42.97638,47.50236,RU,596356,532096,Makhachkala,0.02,0.03,0.06,0.01,0.02,0.01,0.05,0.09,0.0,0.01,0.02,0.02
Magnitogorsk,53.41861,59.04722,RU,413351,532288,Magnitogorsk,0.0,0.0,0.0,0.03,0.05,0.04,0.08,0.02,0.03,0.03,0.0,0.0
Lyudinovo,53.86639,34.44778,RU,41392,532459,Lyudinovo,0.0,0.0,0.0,0.04,0.04,0.1,0.14,0.02,0.04,0.05,0.0,0.0
Lyublino,55.67738,37.76005,RU,172000,532535,Lyublino,0.0,0.0,0.0,0.05,0.05,0.07,0.11,0.03,0.07,0.04,0.01,0.0
Lyubertsy,55.67719,37.89322,RU,154650,532615,Lyubertsy,0.0,0.0,0.0,0.06,0.04,0.06,0.1,0.03,0.07,0.05,0.01,0.0
Lytkarino,55.58271,37.90516,RU,50619,532657,Lytkarino,0.0,0.0,0.0,0.05,0.05,0.06,0.1,0.03,0.06,0.05,0.01,0.0
Lys’va,58.10861,57.80528,RU,68660,532675,Lys’va,0.0,0.0,0.0,0.04,0.09,0.13,0.12,0.07,0.07,0.1,0.01,0.0
Lyskovo,56.03282,45.0422,RU,23570,532715,Lyskovo,0.0,0.02,0.0,0.06,0.03,0.08,0.1,0.02,0.07,0.05,0.02,0.0
Luzhniki,55.71599,37.55376,RU,30000,533067,Luzhniki,0.0,0.0,0.0,0.05,0.05,0.07,0.11,0.02,0.07,0.04,0.01,0.0
Lukhovitsy,54.97661,39.0444,RU,32387,533543,Lukhovitsy,0.0,0.0,0.0,0.07,0.03,0.05,0.09,0.02,0.06,0.05,0.01,0.0
Luga,58.73722,29.84528,RU,40114,533690,Luga,0.01,0.0,0.01,0.08,0.03,0.06,0.13,0.09,0.09,0.07,0.03,0.01
Losino-Petrovskiy,55.86959,38.20065,RU,22116,534015,Losino-Petrovskiy,0.0,0.0,0.0,0.06,0.05,0.05,0.1,0.03,0.07,0.05,0.01,0.0
Lomonosov,59.90612,29.77253,RU,42505,534341,Lomonosov,0.02,0.0,0.02,0.05,0.03,0.05,0.08,0.13,0.18,0.06,0.03,0.01
Lodeynoye Pole,60.726,33.55306,RU,22164,534560,Lodeynoye Pole,0.01,0.0,0.02,0.06,0.03,0.07,0.09,0.17,0.16,0.05,0.02,0.0
Lobnya,56.00972,37.48194,RU,61772,534595,Lobnya,0.0,0.0,0.0,0.05,0.06,0.08,0.11,0.02,0.09,0.04,0.01,0.0
Livny,52.42534,37.60689,RU,46779,534701,Livny,0.0,0.02,0.01,0.04,0.04,0.03,0.13,0.0,0.04,0.05,0.0,0.0
Liski,50.98405,39.51545,RU,55939,534838,Liski,0.01,0.01,0.02,0.06,0.07,0.02,0.13,0.01,0.06,0.04,0.0,0.01
Lipetsk,52.60311,39.57076,RU,509735,535121,Lipetsk,0.0,0.02,0.01,0.05,0.06,0.02,0.09,0.0,0.06,0.05,0.0,0.0
Likino-Dulevo,55.7083,38.9542,RU,31100,535243,Likino-Dulevo,0.0,0.0,0.0,0.06,0.03,0.04,0.09,0.03,0.07,0.05,0.01,0.0
Likhobory,55.85,37.56667,RU,50000,535270,Likhobory,0.0,0.0,0.0,0.05,0.05,0.07,0.11,0.02,0.07,0.04,0.01,0.0
Lianozovo,55.89783,37.5868,RU,86000,535330,Lianozovo,0.0,0.0,0.0,0.05,0.06,0.08,0.11,0.02,0.09,0.04,0.01,0.0
L’govskiy,51.63069,35.2775,RU,23500,535334,L’govskiy,0.01,0.01,0.02,0.04,0.06,0.05,0.15,0.0,0.03,0.05,0.0,0.0
Komendantsky aerodrom,60.00448,30.27523,RU,84052,535729,Komendantsky aerodrom,0.01,0.0,0.02,0.06,0.03,0.06,0.09,0.12,0.14,0.04,0.03,0.01
Lermontov,44.10667,42.97333,RU,23369,535886,Lermontov,0.01,0.03,0.12,0.03,0.12,0.05,0.09,0.13,0.07,0.03,0.05,0.02
Leonovo,55.85,37.65,RU,30000,535966,Leonovo,0.0,0.0,0.0,0.05,0.05,0.07,0.11,0.03,0.07,0.04,0.01,0.0
Leninskiye Gory,55.7,37.56667,RU,30000,536098,Leninskiye Gory,0.0,0.0,0.0,0.05,0.05,0.07,0.11,0.02,0.07,0.04,0.01,0.0
Leninsk,48.70233,45.19798,RU,15167,536156,Leninsk,0.01,0.02,0.03,0.03,0.0,0.0,0.08,0.0,0.04,0.02,0.01,0.02
Leninogorsk,54.60256,52.46087,RU,66263,536162,Leninogorsk,0.0,0.0,0.0,0.05,0.04,0.04,0.04,0.03,0.04,0.03,0.01,0.0
Tsaritsyno,55.6254,37.65032,RU,123000,536164,Tsaritsyno,0.0,0.0,0.0,0.05,0.05,0.07,0.11,0.03,0.07,0.04,0.01,0.0
Leningradskaya,46.3214,39.3877,RU,38712,536200,Leningradskaya,0.05,0.04,0.07,0.03,0.03,0.02,0.03,0.0,0.06,0.05,0.04,0.06
Yubileyny,55.93333,37.83333,RU,32508,536206,Yubileyny,0.0,0.0,0.0,0.06,0.05,0.07,0.1,0.02,0.09,0.05,0.01,0.0
Lefortovo,55.76667,37.7,RU,91000,536398,Lefortovo,0.0,0.0,0.0,0.05,0.05,0.07,0.11,0.03,0.07,0.04,0.01,0.0
Lebedyan’,53.01942,39.16639,RU,22970,536518,Lebedyan’,0.0,0.03,0.0,0.05,0.06,0.02,0.09,0.0,0.04,0.05,0.01,0.0
Lazarevskoye,43.90886,39.33137,RU,30000,536625,Lazarevskoye,0.13,0.08,0.21,0.06,0.04,0.04,0.05,0.01,0.2,0.29,0.14,0.27
Lakinsk,56.01931,39.94848,RU,16706,537107,Lakinsk,0.0,0.0,0.0,0.06,0.02,0.04,0.1,0.05,0.07,0.05,0.01,0.0
Labinsk,44.63417,40.73556,RU,61945,537281,Labinsk,0.05,0.04,0.13,0.04,0.06,0.02,0.05,0.04,0.09,0.07,0.05,0.05
Dugulubgey,43.6625,43.53694,RU,20965,537345,Dugulubgey,0.02,0.02,0.1,0.03,0.07,0.07,0.08,0.11,0.04,0.05,0.07,0.02
Kuznetsk,53.11675,46.60037,RU,90480,537737,Kuznetsk,0.0,0.01,0.0,0.08,0.02,0.02,0.08,0.02,0.07,0.06,0.01,0.0
Kuz’minki,55.7,37.8,RU,143000,537832,Kuz’minki,0.0,0.0,0.0,0.05,0.05,0.07,0.11,0.03,0.07,0.04,0.01,0.0
Kuvandyk,51.4781,57.3552,RU,28706,538138,Kuvandyk,0.0,0.0,0.02,0.06,0.03,0.02,0.02,0.02,0.03,0.05,0.0,0.0
Kuskovo,55.73423,37.82616,RU,30000,538321,Kuskovo,0.0,0.0,0.0,0.05,0.05,0.07,0.11,0.03,0.07,0.04,0.01,0.0
Kushva,58.29056,59.75917,RU,34058,538340,Kushva,0.0,0.0,0.0,0.03,0.06,0.11,0.12,0.08,0.05,0.04,0.01,0.0
Kushchyovskaya,46.5599,39.6321,RU,29915,538416,Kushchyovskaya,0.04,0.04,0.07,0.04,0.03,0.01,0.05,0.0,0.04,0.05,0.04,0.05
Kusa,55.33833,59.44056,RU,19818,538442,Kusa,0.0,0.0,0.0,0.04,0.08,0.14,0.1,0.11,0.06,0.08,0.0,0.0
Kur’yanovo,55.65,37.7,RU,30000,538472,Kur’yanovo,0.0,0.0,0.0,0.05,0.05,0.07,0.11,0.03,0.07,0.04,0.01,0.0
Kursk,51.73733,36.18735,RU,448733,538560,Kursk,0.01,0.02,0.02,0.04,0.04,0.04,0.15,0.0,0.05,0.05,0.0,0.01
Kurovskoye,55.58183,38.91994,RU,19173,538601,Kurovskoye,0.0,0.0,0.0,0.06,0.03,0.05,0.09,0.02,0.07,0.05,0.01,0.0
Kurganinsk,44.88,40.59861,RU,47681,538836,Kurganinsk,0.05,0.04,0.12,0.05,0.05,0.01,0.04,0.02,0.07,0.1,0.07,0.06
Kurchatov,51.6601,35.6521,RU,46600,538908,Kurchatov,0.01,0.01,0.02,0.04,0.05,0.05,0.17,0.0,0.04,0.05,0.0,0.0
Kurchaloy,43.20184,46.0881,RU,20903,538913,Kurchaloy,0.03,0.05,0.09,0.04,0.03,0.03,0.12,0.11,0.03,0.03,0.03,0.02
Kupchino,59.85278,30.35667,RU,54198,539061,Kupchino,0.01,0.0,0.01,0.08,0.04,0.07,0.12,0.12,0.09,0.03,0.02,0.0
Kungur,57.4368,56.9593,RU,66389,539147,Kungur,0.0,0.0,0.0,0.04,0.05,0.1,0.07,0.05,0.05,0.09,0.02,0.0
Kumertau,52.76667,55.78333,RU,65321,539283,Kumertau,0.0,0.0,0.01,0.04,0.06,0.03,0.06,0.03,0.04,0.06,0.0,0.0
Kulebaki,55.41333,42.5325,RU,37622,539555,Kulebaki,0.0,0.02,0.0,0.06,0.02,0.06,0.1,0.02,0.06,0.05,0.01,0.0
Kukmor,56.1855,50.8944,RU,16795,539689,Kukmor,0.0,0.0,0.0,0.08,0.04,0.07,0.09,0.07,0.05,0.09,0.02,0.0
Kudymkar,59.01306,54.65556,RU,31596,539817,Kudymkar,0.0,0.0,0.0,0.03,0.08,0.14,0.09,0.05,0.07,0.1,0.02,0.0
Kudrovo,59.90349,30.51058,RU,30000,539839,Kudrovo,0.01,0.0,0.01,0.06,0.03,0.06,0.09,0.11,0.11,0.03,0.02,0.0
Kudepsta,43.49547,39.89294,RU,17000,539907,Kudepsta,0.15,0.09,0.22,0.11,0.09,0.06,0.09,0.07,0.14,0.18,0.24,0.22
Kubinka,55.57957,36.70392,RU,25942,540030,Kubinka,0.0,0.0,0.0,0.04,0.05,0.08,0.13,0.04,0.07,0.04,0.01,0.0
Kstovo,56.14733,44.19787,RU,67242,540103,Kstovo,0.0,0.02,0.0,0.06,0.02,0.07,0.1,0.04,0.07,0.05,0.02,0.0
Krymsk,44.92934,37.99117,RU,57555,540251,Krymsk,0.05,0.05,0.09,0.02,0.04,0.03,0.07,0.0,0.06,0.04,0.08,0.11
Kropotkin,45.4375,40.57556,RU,79599,540761,Kropotkin,0.05,0.05,0.1,0.03,0.07,0.01,0.04,0.01,0.05,0.11,0.06,0.06
Kronstadt,59.99541,29.76668,RU,43005,540771,Kronstadt,0.02,0.0,0.02,0.05,0.03,0.05,0.08,0.13,0.18,0.06,0.03,0.01
Krasnyy Sulin,47.89221,40.07037,RU,44133,541404,Krasnyy Sulin,0.01,0.02,0.06,0.04,0.04,0.03,0.07,0.0,0.03,0.04,0.02,0.02
Biryulëvo Zapadnoye,55.58766,37.64282,RU,89000,541406,Biryulëvo Zapadnoye,0.0,0.0,0.0,0.05,0.06,0.06,0.11,0.03,0.07,0.04,0.01,0.0
Krasnoye Selo,59.73833,30.08944,RU,44323,542000,Krasnoye Selo,0.01,0.0,0.01,0.07,0.04,0.06,0.12,0.13,0.09,0.03,0.02,0.0
Krasnovishersk,60.40783,57.08199,RU,18185,542184,Krasnovishersk,0.0,0.0,0.0,0.02,0.11,0.17,0.09,0.08,0.09,0.17,0.01,0.0
Krasnoufimsk,56.60585,57.76686,RU,43121,542199,Krasnoufimsk,0.0,0.0,0.0,0.04,0.07,0.11,0.11,0.11,0.07,0.06,0.0,0.0
Krasnokamsk,58.0796,55.7552,RU,52689,542327,Krasnokamsk,0.0,0.0,0.0,0.05,0.07,0.13,0.09,0.03,0.06,0.1,0.02,0.0
Krasnogvardeyskoye,45.84604,41.51885,RU,16169,542334,Krasnogvardeyskoye,0.04,0.05,0.09,0.02,0.04,0.0,0.06,0.04,0.02,0.08,0.05,0.06
Krasnogorsk,55.82036,37.33017,RU,92932,542374,Krasnogorsk,0.0,0.0,0.0,0.05,0.05,0.08,0.11,0.02,0.07,0.04,0.01,0.0
Krasnodar,45.04484,38.97603,RU,899541,542420,Krasnodar,0.06,0.04,0.11,0.05,0.05,0.03,0.03,0.0,0.05,0.08,0.08,0.11
Krasnoarmeyskaya,45.36614,38.21171,RU,29009,542461,Krasnoarmeyskaya,0.06,0.05,0.08,0.02,0.04,0.02,0.03,0.0,0.04,0.03,0.09,0.09
Krasnoarmeysk,56.1,38.13333,RU,25688,542463,Krasnoarmeysk,0.0,0.0,0.0,0.06,0.04,0.06,0.1,0.03,0.08,0.05,0.01,0.0
Krasnoarmeysk,51.02389,45.69694,RU,25841,542464,Krasnoarmeysk,0.0,0.01,0.01,0.04,0.02,0.0,0.09,0.01,0.04,0.04,0.0,0.0
Presnenskiy,55.75,37.55,RU,122000,542634,Presnenskiy,0.0,0.0,0.0,0.05,0.05,0.07,0.11,0.02,0.07,0.04,0.01,0.0
Koz’modem’yansk,56.3419,46.56353,RU,22700,543018,Koz’modem’yansk,0.0,0.01,0.0,0.06,0.03,0.09,0.1,0.03,0.06,0.06,0.03,0.0
Kozhukhovo,55.7,37.66667,RU,50000,543254,Kozhukhovo,0.0,0.0,0.0,0.05,0.05,0.07,0.11,0.03,0.07,0.04,0.01,0.0
Kozeyevo,55.86667,37.61667,RU,50000,543344,Kozeyevo,0.0,0.0,0.0,0.05,0.05,0.07,0.11,0.02,0.07,0.04,0.01,0.0
Kozel’sk,54.03746,35.77159,RU,19500,543348,Kozel’sk,0.0,0.0,0.0,0.05,0.04,0.04,0.09,0.03,0.04,0.05,0.01,0.0
Kovylkino,54.03876,43.91385,RU,21400,543436,Kovylkino,0.0,0.02,0.0,0.07,0.02,0.04,0.12,0.02,0.05,0.05,0.01,0.0
Kovrov,56.35722,41.31917,RU,154224,543460,Kovrov,0.0,0.0,0.0,0.06,0.02,0.05,0.1,0.06,0.07,0.05,0.02,0.0
Kovdor,67.56616,30.47576,RU,19518,543508,Kovdor,0.0,0.0,0.0,0.0,0.04,0.1,0.04,0.14,0.1,0.03,0.01,0.0
Kotovsk,52.59047,41.50251,RU,33077,543605,Kotovsk,0.0,0.03,0.01,0.08,0.06,0.02,0.08,0.0,0.08,0.06,0.0,0.0
Kotovo,50.32113,44.80119,RU,26981,543633,Kotovo,0.0,0.03,0.02,0.03,0.02,0.0,0.13,0.01,0.05,0.04,0.0,0.01
Kotlas,61.25745,46.64963,RU,59180,543704,Kotlas,0.0,0.0,0.0,0.02,0.06,0.1,0.14,0.06,0.11,0.11,0.01,0.0
Kotel’nikovo,47.63009,43.14068,RU,19622,543728,Kotel’nikovo,0.02,0.03,0.05,0.02,0.0,0.01,0.08,0.0,0.03,0.03,0.01,0.03
Kotel’niki,55.63546,37.8445,RU,18300,543731,Kotel’niki,0.0,0.0,0.0,0.05,0.05,0.07,0.11,0.03,0.07,0.04,0.01,0.0
Kotel’nich,58.3089,48.348,RU,27600,543737,Kotel’nich,0.0,0.0,0.0,0.02,0.05,0.09,0.15,0.05,0.1,0.07,0.03,0.0
Kostroma,57.76647,40.92686,RU,277280,543878,Kostroma,0.0,0.0,0.0,0.04,0.07,0.07,0.11,0.06,0.11,0.06,0.03,0.0
Kostomuksha,64.571,30.57667,RU,30135,543899,Kostomuksha,0.0,0.0,0.0,0.01,0.01,0.16,0.03,0.11,0.12,0.07,0.01,0.0
Kosaya Gora,54.11896,37.54459,RU,17836,544293,Kosaya Gora,0.0,0.01,0.0,0.05,0.03,0.02,0.1,0.02,0.05,0.05,0.01,0.0
Koryazhma,61.31433,47.16914,RU,42627,544370,Koryazhma,0.0,0.0,0.0,0.02,0.07,0.11,0.14,0.06,0.12,0.11,0.01,0.0
Korenovsk,45.46899,39.45136,RU,41665,544896,Korenovsk,0.07,0.05,0.08,0.03,0.03,0.03,0.04,0.0,0.07,0.09,0.08,0.09
Konstantinovsk,47.58278,41.09222,RU,18876,545277,Konstantinovsk,0.02,0.03,0.06,0.03,0.03,0.01,0.06,0.0,0.02,0.04,0.02,0.02
Kondopoga,62.20565,34.26138,RU,34360,545626,Kondopoga,0.0,0.0,0.0,0.05,0.04,0.06,0.1,0.17,0.12,0.05,0.01,0.0
Konakovo,56.7,36.76667,RU,42239,545673,Konakovo,0.01,0.0,0.0,0.04,0.06,0.07,0.15,0.04,0.11,0.06,0.01,0.0
Kommunar,59.62056,30.39,RU,17358,545788,Kommunar,0.01,0.0,0.01,0.07,0.03,0.06,0.13,0.12,0.08,0.04,0.02,0.0
Kolpino,59.75069,30.58856,RU,138979,546105,Kolpino,0.01,0.0,0.01,0.08,0.04,0.07,0.13,0.12,0.09,0.03,0.02,0.0
Kolomyagi,60.02427,30.28491,RU,39945,546225,Kolomyagi,0.01,0.0,0.02,0.06,0.03,0.06,0.09,0.12,0.14,0.04,0.03,0.01
Kolomna,55.07944,38.77833,RU,147690,546230,Kolomna,0.0,0.0,0.0,0.07,0.03,0.04,0.09,0.02,0.05,0.05,0.01,0.0
Kolomenskoye,55.66667,37.68333,RU,30000,546244,Kolomenskoye,0.0,0.0,0.0,0.05,0.05,0.07,0.11,0.03,0.07,0.04,0.01,0.0
Kol’chugino,56.29929,39.38304,RU,45912,546521,Kol’chugino,0.0,0.0,0.0,0.05,0.03,0.05,0.11,0.04,0.08,0.04,0.01,0.0
Kokhma,56.93487,41.0915,RU,28984,546672,Kokhma,0.0,0.0,0.0,0.05,0.06,0.04,0.12,0.09,0.09,0.06,0.02,0.0
Klintsy,52.76033,32.23905,RU,66336,547475,Klintsy,0.02,0.01,0.0,0.04,0.03,0.16,0.16,0.02,0.06,0.04,0.0,0.0
Klin,56.33333,36.73333,RU,80778,547523,Klin,0.01,0.0,0.0,0.04,0.07,0.09,0.13,0.03,0.09,0.05,0.01,0.0
Klimovsk,55.36352,37.52984,RU,55206,547560,Klimovsk,0.0,0.0,0.0,0.05,0.06,0.04,0.11,0.04,0.07,0.04,0.01,0.0
Kizlyar,43.84712,46.71445,RU,50564,547840,Kizlyar,0.02,0.02,0.06,0.02,0.01,0.02,0.05,0.06,0.01,0.0,0.03,0.01
Kizilyurt,43.1883,46.88511,RU,33411,547849,Kizilyurt,0.02,0.03,0.08,0.03,0.02,0.02,0.12,0.15,0.01,0.02,0.03,0.02
Kizel,59.04709,57.64767,RU,21807,547875,Kizel,0.0,0.0,0.0,0.04,0.12,0.18,0.11,0.1,0.08,0.15,0.0,0.0
Kislovodsk,43.91333,42.72083,RU,132771,548114,Kislovodsk,0.01,0.03,0.13,0.05,0.16,0.06,0.08,0.14,0.09,0.04,0.02,0.01
Kirzhach,56.15273,38.85509,RU,30566,548278,Kirzhach,0.0,0.0,0.0,0.06,0.03,0.06,0.11,0.03,0.08,0.05,0.01,0.0
Kirsanov,52.65494,42.72236,RU,17975,548330,Kirsanov,0.0,0.04,0.0,0.07,0.04,0.02,0.1,0.01,0.07,0.04,0.0,0.0
Kirovsk,67.61475,33.67274,RU,29605,548391,Kirovsk,0.0,0.0,0.0,0.01,0.04,0.14,0.04,0.13,0.08,0.02,0.01,0.0
Kirovsk,59.88101,30.99507,RU,24678,548392,Kirovsk,0.01,0.0,0.02,0.08,0.02,0.06,0.12,0.13,0.1,0.03,0.03,0.0
Kirovo-Chepetsk,58.55386,50.03986,RU,90252,548395,Kirovo-Chepetsk,0.0,0.0,0.0,0.01,0.05,0.11,0.13,0.04,0.09,0.08,0.03,0.0
Kirov,58.59665,49.66007,RU,507155,548408,Kirov,0.0,0.0,0.0,0.02,0.04,0.11,0.13,0.04,0.1,0.07,0.03,0.0
Kirov,54.06686,34.29955,RU,39319,548410,Kirov,0.0,0.0,0.0,0.04,0.04,0.1,0.16,0.03,0.04,0.05,0.01,0.0
Kirishi,59.44712,32.02049,RU,56190,548442,Kirishi,0.01,0.0,0.01,0.1,0.04,0.07,0.11,0.13,0.1,0.05,0.03,0.0
Kireyevsk,53.93361,37.92792,RU,25513,548506,Kireyevsk,0.0,0.02,0.0,0.06,0.03,0.03,0.11,0.01,0.05,0.05,0.01,0.0
Kingisepp,59.37331,28.61343,RU,50566,548602,Kingisepp,0.02,0.0,0.02,0.07,0.03,0.05,0.11,0.11,0.11,0.06,0.02,0.0
Kineshma,57.43914,42.12894,RU,92983,548605,Kineshma,0.0,0.0,0.0,0.04,0.07,0.06,0.11,0.06,0.09,0.06,0.02,0.0
Kinel’-Cherkassy,53.4706,51.47431,RU,18393,548622,Kinel’-Cherkassy,0.0,0.0,0.0,0.05,0.02,0.02,0.06,0.02,0.03,0.04,0.01,0.0
Kinel’,53.22571,50.62907,RU,34336,548625,Kinel’,0.0,0.0,0.0,0.05,0.01,0.03,0.06,0.02,0.03,0.05,0.01,0.0
Kimry,56.86667,37.35,RU,52070,548652,Kimry,0.01,0.0,0.0,0.05,0.06,0.06,0.15,0.04,0.11,0.06,0.01,0.0
Kimovsk,53.97164,38.53186,RU,31947,548658,Kimovsk,0.0,0.02,0.0,0.07,0.03,0.03,0.12,0.01,0.05,0.05,0.01,0.0
Khot'kovo,56.25699,37.99544,RU,20872,549373,Khot'kovo,0.0,0.0,0.0,0.06,0.05,0.07,0.12,0.03,0.1,0.05,0.01,0.0
Khosta,43.51484,39.86825,RU,20000,549424,Khosta,0.15,0.09,0.22,0.11,0.09,0.06,0.09,0.07,0.14,0.18,0.24,0.22
Khoroshëvo-Mnevniki,55.78363,37.47137,RU,159000,549479,Khoroshëvo-Mnevniki,0.0,0.0,0.0,0.05,0.05,0.07,0.11,0.02,0.07,0.04,0.01,0.0
Kholmskiy,44.84694,38.385,RU,17494,549741,Kholmskiy,0.06,0.05,0.12,0.05,0.07,0.03,0.04,0.0,0.06,0.09,0.11,0.14
Khimki,55.89704,37.42969,RU,239967,550280,Khimki,0.0,0.0,0.0,0.05,0.06,0.08,0.11,0.02,0.09,0.04,0.01,0.0
Khasavyurt,43.2509,46.58766,RU,126829,550478,Khasavyurt,0.02,0.03,0.08,0.03,0.02,0.02,0.11,0.14,0.01,0.02,0.02,0.02
Kharabali,47.41958,47.25678,RU,18223,550671,Kharabali,0.0,0.01,0.05,0.02,0.0,0.0,0.09,0.0,0.02,0.02,0.01,0.01
Khadyzhensk,44.4258,39.5362,RU,21685,550846,Khadyzhensk,0.07,0.05,0.15,0.07,0.07,0.03,0.03,0.0,0.07,0.16,0.06,0.12
Kazan,55.78874,49.12214,RU,1243500,551487,Kazan,0.0,0.0,0.0,0.09,0.03,0.06,0.06,0.03,0.05,0.05,0.02,0.0
Katav-Ivanovsk,54.75306,58.19556,RU,19339,551794,Katav-Ivanovsk,0.0,0.0,0.0,0.05,0.1,0.12,0.15,0.11,0.08,0.08,0.0,0.0
Kastanayevo,55.71667,37.5,RU,20000,551835,Kastanayevo,0.0,0.0,0.0,0.05,0.05,0.07,0.11,0.02,0.07,0.04,0.01,0.0
Kaspiysk,42.88165,47.63919,RU,81752,551847,Kaspiysk,0.03,0.04,0.07,0.02,0.01,0.02,0.05,0.12,0.0,0.03,0.05,0.04
Kasimov,54.94111,41.39528,RU,35355,551891,Kasimov,0.0,0.02,0.0,0.05,0.02,0.05,0.09,0.02,0.07,0.05,0.01,0.0
Kashira,54.84444,38.16694,RU,40084,551964,Kashira,0.0,0.0,0.0,0.07,0.03,0.03,0.1,0.03,0.05,0.04,0.01,0.0
Kashin,57.35917,37.60806,RU,16598,551986,Kashin,0.0,0.0,0.0,0.06,0.06,0.08,0.16,0.07,0.12,0.07,0.02,0.0
Karachev,53.12255,34.98494,RU,19757,552920,Karachev,0.0,0.02,0.0,0.04,0.05,0.06,0.16,0.02,0.04,0.05,0.01,0.0
Karachayevsk,43.77399,41.91419,RU,20264,552924,Karachayevsk,0.01,0.03,0.11,0.04,0.19,0.06,0.07,0.08,0.11,0.06,0.02,0.02
Karabulak,43.30513,44.89949,RU,34511,552951,Karabulak,0.04,0.03,0.1,0.06,0.06,0.06,0.1,0.14,0.03,0.03,0.04,0.02
Karabanovo,56.31667,38.7,RU,15615,552977,Karabanovo,0.0,0.0,0.0,0.06,0.03,0.06,0.11,0.03,0.08,0.05,0.01,0.0
Kapotnya,55.63806,37.79306,RU,29594,553034,Kapotnya,0.0,0.0,0.0,0.05,0.05,0.07,0.11,0.03,0.07,0.04,0.01,0.0
Kantyshevo,43.22824,44.63322,RU,17363,553092,Kantyshevo,0.03,0.02,0.09,0.07,0.08,0.07,0.11,0.14,0.04,0.03,0.02,0.02
Kanevskaya,46.0799,38.9599,RU,45334,553152,Kanevskaya,0.05,0.05,0.07,0.03,0.03,0.03,0.03,0.0,0.06,0.04,0.05,0.07
Kandalaksha,67.15123,32.41284,RU,38431,553190,Kandalaksha,0.0,0.0,0.0,0.01,0.02,0.08,0.03,0.12,0.12,0.06,0.04,0.0
Kanash,55.50962,47.49127,RU,49886,553216,Kanash,0.0,0.0,0.0,0.06,0.03,0.06,0.08,0.04,0.05,0.05,0.02,0.0
Kamyzyak,46.10995,48.07364,RU,16191,553248,Kamyzyak,0.0,0.01,0.03,0.0,0.0,0.0,0.03,0.01,0.01,0.01,0.01,0.01
Kamyshin,50.09833,45.41601,RU,128626,553287,Kamyshin,0.0,0.02,0.02,0.02,0.02,0.0,0.1,0.0,0.05,0.03,0.01,0.02
Kamensk-Shakhtinskiy,48.31779,40.25948,RU,75814,553399,Kamensk-Shakhtinskiy,0.01,0.02,0.05,0.04,0.04,0.04,0.07,0.01,0.03,0.04,0.02,0.02
Kaluga,54.5293,36.27542,RU,340851,553915,Kaluga,0.0,0.0,0.0,0.05,0.03,0.04,0.1,0.05,0.05,0.04,0.01,0.0
Kalininsk,51.5,44.4758,RU,18685,554199,Kalininsk,0.0,0.03,0.01,0.07,0.02,0.01,0.1,0.01,0.05,0.06,0.0,0.01
Korolev,55.91417,37.82556,RU,139798,554233,Korolev,0.0,0.0,0.0,0.06,0.05,0.07,0.1,0.02,0.09,0.05,0.01,0.0
Kaliningrad,54.70649,20.51095,RU,475056,554234,Kaliningrad,0.07,0.01,0.02,0.09,0.09,0.04,0.13,0.07,0.06,0.07,0.02,0.05
Kalach-na-Donu,48.69099,43.52638,RU,27522,554397,Kalach-na-Donu,0.01,0.03,0.04,0.03,0.01,0.01,0.08,0.0,0.03,0.02,0.01,0.02
Kalach,50.41957,41.0244,RU,20449,554410,Kalach,0.01,0.03,0.02,0.05,0.04,0.01,0.15,0.01,0.07,0.05,0.01,0.02
Kachkanar,58.7002,59.4839,RU,43983,554599,Kachkanar,0.0,0.0,0.0,0.03,0.07,0.12,0.1,0.07,0.04,0.04,0.0,0.0
Kabanovo,55.74815,38.93511,RU,23414,554679,Kabanovo,0.0,0.0,0.0,0.06,0.03,0.04,0.09,0.03,0.07,0.05,0.01,0.0
Izobil’nyy,45.37092,41.70839,RU,39022,554770,Izobil’nyy,0.03,0.05,0.09,0.04,0.06,0.01,0.07,0.06,0.05,0.06,0.05,0.05
Izmaylovo,55.78677,37.80165,RU,104000,554787,Izmaylovo,0.0,0.0,0.0,0.05,0.05,0.07,0.11,0.03,0.07,0.04,0.01,0.0
Izhevsk,56.84976,53.20448,RU,648213,554840,Izhevsk,0.0,0.0,0.0,0.07,0.06,0.07,0.07,0.06,0.07,0.09,0.01,0.0
Izberbash,42.56955,47.86447,RU,42121,554894,Izberbash,0.03,0.04,0.07,0.02,0.01,0.02,0.05,0.12,0.0,0.03,0.05,0.04
Ivanteyevka,55.97111,37.92083,RU,51085,555111,Ivanteyevka,0.0,0.0,0.0,0.06,0.05,0.06,0.1,0.03,0.09,0.05,0.01,0.0
Ivanovskoye,55.76667,37.83333,RU,128000,555129,Ivanovskoye,0.0,0.0,0.0,0.05,0.05,0.07,0.11,0.03,0.07,0.04,0.01,0.0
Ivanovo,56.99719,40.97139,RU,406113,555312,Ivanovo,0.0,0.0,0.0,0.05,0.06,0.04,0.12,0.09,0.09,0.06,0.02,0.0
Istra,55.91997,36.86867,RU,33390,555746,Istra,0.01,0.0,0.0,0.04,0.07,0.09,0.13,0.03,0.09,0.04,0.01,0.0
Ishimbay,53.45446,56.04149,RU,70421,555980,Ishimbay,0.0,0.0,0.02,0.05,0.05,0.04,0.07,0.05,0.05,0.08,0.01,0.0
Ipatovo,45.71806,42.90361,RU,29073,556230,Ipatovo,0.03,0.03,0.08,0.01,0.02,0.0,0.1,0.02,0.04,0.04,0.04,0.03
Inza,53.85672,46.35622,RU,19737,556283,Inza,0.0,0.01,0.0,0.08,0.02,0.03,0.09,0.02,0.04,0.06,0.01,0.0
Inozemtsevo,44.09264,43.09113,RU,28779,556320,Inozemtsevo,0.02,0.05,0.12,0.01,0.07,0.01,0.07,0.07,0.06,0.03,0.04,0.02
Il’skiy,44.84222,38.56686,RU,22970,556951,Il’skiy,0.06,0.05,0.12,0.05,0.07,0.03,0.04,0.0,0.06,0.09,0.11,0.14
Igra,57.5549,53.0544,RU,22033,557469,Igra,0.0,0.0,0.0,0.06,0.07,0.11,0.09,0.04,0.08,0.11,0.02,0.0
Gus’-Khrustal’nyy,55.61113,40.65186,RU,62746,557775,Gus’-Khrustal’nyy,0.0,0.01,0.0,0.06,0.03,0.05,0.07,0.02,0.06,0.05,0.01,0.0
Gusev,54.59222,22.19972,RU,28690,557882,Gusev,0.05,0.01,0.01,0.08,0.04,0.04,0.13,0.08,0.04,0.04,0.03,0.05
Gul’kevichi,45.35383,40.69465,RU,34953,558066,Gul’kevichi,0.06,0.05,0.11,0.04,0.05,0.01,0.04,0.02,0.05,0.09,0.07,0.06
Gukovo,48.06212,39.9355,RU,66079,558082,Gukovo,0.01,0.02,0.06,0.04,0.04,0.03,0.07,0.0,0.03,0.04,0.02,0.02
Gudermes,43.35071,46.10925,RU,32769,558118,Gudermes,0.03,0.04,0.08,0.02,0.01,0.03,0.09,0.09,0.02,0.02,0.03,0.02
Gubkin,51.28167,37.5458,RU,87000,558146,Gubkin,0.02,0.02,0.02,0.07,0.07,0.03,0.17,0.0,0.05,0.03,0.0,0.01
Gubakha,58.83862,57.55325,RU,26605,558209,Gubakha,0.0,0.0,0.0,0.05,0.12,0.17,0.11,0.08,0.07,0.13,0.01,0.0
Gryazovets,58.88,40.2525,RU,16133,558236,Gryazovets,0.0,0.0,0.0,0.05,0.08,0.07,0.16,0.09,0.16,0.09,0.01,0.0
Gryazi,52.49657,39.93593,RU,47413,558312,Gryazi,0.0,0.02,0.01,0.06,0.08,0.02,0.08,0.0,0.08,0.05,0.0,0.0
Groznyy,43.31195,45.68895,RU,297137,558418,Groznyy,0.03,0.05,0.09,0.04,0.03,0.03,0.12,0.11,0.03,0.03,0.03,0.02
Gribanovskiy,51.45513,41.97395,RU,17220,558799,Gribanovskiy,0.01,0.03,0.01,0.06,0.04,0.02,0.11,0.0,0.08,0.06,0.0,0.01
Grazhdanka,60.03587,30.40518,RU,71128,559029,Grazhdanka,0.01,0.0,0.01,0.06,0.03,0.06,0.09,0.11,0.11,0.03,0.02,0.0
Goryachiy Klyuch,44.63083,39.13,RU,28078,559317,Goryachiy Klyuch,0.07,0.05,0.15,0.07,0.07,0.03,0.03,0.0,0.07,0.16,0.06,0.12
Goryachevodskiy,44.02361,43.09222,RU,35075,559320,Goryachevodskiy,0.02,0.03,0.12,0.03,0.08,0.05,0.09,0.11,0.06,0.04,0.06,0.02
Gorodishche,48.80454,44.47439,RU,19509,559654,Gorodishche,0.01,0.03,0.03,0.02,0.01,0.0,0.1,0.01,0.03,0.02,0.01,0.02
Gorodets,56.65493,43.47273,RU,31788,559678,Gorodets,0.0,0.01,0.0,0.05,0.03,0.06,0.1,0.05,0.07,0.06,0.02,0.0
Gorelovo,59.77234,30.13455,RU,22503,560142,Gorelovo,0.01,0.0,0.01,0.08,0.04,0.07,0.12,0.12,0.09,0.03,0.02,0.0
Gol’yanovo,55.82299,37.81306,RU,158000,560465,Gol’yanovo,0.0,0.0,0.0,0.05,0.05,0.07,0.11,0.03,0.07,0.04,0.01,0.0
Golitsyno,55.60928,36.98212,RU,16056,560756,Golitsyno,0.0,0.0,0.0,0.04,0.06,0.09,0.13,0.04,0.08,0.04,0.01,0.0
Glazov,58.1393,52.658,RU,100676,561347,Glazov,0.0,0.0,0.0,0.03,0.07,0.15,0.09,0.05,0.08,0.1,0.03,0.0
Giaginskaya,44.86208,40.07195,RU,15169,561515,Giaginskaya,0.06,0.04,0.15,0.06,0.08,0.01,0.04,0.01,0.06,0.15,0.05,0.08
Georgiyevsk,44.15194,43.46972,RU,72649,561627,Georgiyevsk,0.02,0.04,0.11,0.02,0.05,0.04,0.1,0.06,0.05,0.04,0.05,0.03
Gelendzhik,44.5622,38.0848,RU,50715,561667,Gelendzhik,0.05,0.06,0.09,0.01,0.04,0.04,0.08,0.0,0.13,0.07,0.08,0.13
Gay,51.4666,58.4552,RU,41619,561731,Gay,0.0,0.0,0.01,0.05,0.03,0.02,0.04,0.03,0.02,0.03,0.0,0.0
Gavrilov-Yam,57.30185,39.85331,RU,17351,561762,Gavrilov-Yam,0.0,0.0,0.0,0.05,0.05,0.05,0.11,0.07,0.11,0.06,0.02,0.0
Gatchina,59.57639,30.12833,RU,89761,561887,Gatchina,0.01,0.0,0.01,0.07,0.03,0.06,0.13,0.12,0.08,0.04,0.02,0.0
Galich,58.37884,42.34633,RU,18594,562161,Galich,0.0,0.0,0.0,0.04,0.06,0.08,0.15,0.09,0.13,0.09,0.02,0.0
Gagarin,55.55329,34.99684,RU,28879,562237,Gagarin,0.01,0.0,0.0,0.03,0.03,0.09,0.11,0.06,0.09,0.03,0.01,0.0
Furmanov,57.25363,41.10849,RU,38380,562309,Furmanov,0.0,0.0,0.0,0.04,0.06,0.04,0.13,0.07,0.1,0.05,0.02,0.0
Fryazino,55.96056,38.04556,RU,52255,562319,Fryazino,0.0,0.0,0.0,0.06,0.05,0.06,0.1,0.03,0.09,0.05,0.01,0.0
Fryazevo,55.73321,38.46458,RU,53212,562321,Fryazevo,0.0,0.0,0.0,0.06,0.04,0.05,0.09,0.03,0.07,0.05,0.01,0.0
Frolovo,49.77133,43.66222,RU,40882,562389,Frolovo,0.01,0.03,0.03,0.03,0.02,0.0,0.12,0.01,0.05,0.04,0.01,0.02
Fili,55.74819,37.47969,RU,80000,562820,Fili,0.0,0.0,0.0,0.05,0.05,0.07,0.11,0.02,0.07,0.04,0.01,0.0
Ezhva,61.81281,50.72834,RU,56000,563379,Ezhva,0.0,0.0,0.0,0.02,0.08,0.1,0.09,0.05,0.1,0.1,0.02,0.0
Engels,51.48389,46.10528,RU,196011,563464,Engels,0.0,0.01,0.01,0.05,0.02,0.01,0.1,0.02,0.06,0.05,0.0,0.0
Enem,44.9264,38.90584,RU,17665,563472,Enem,0.06,0.04,0.11,0.05,0.05,0.03,0.03,0.0,0.05,0.08,0.08,0.11
Elista,46.30778,44.25583,RU,106971,563514,Elista,0.01,0.01,0.06,0.01,0.01,0.0,0.09,0.0,0.03,0.02,0.03,0.02
Elektrougli,55.72445,38.20908,RU,20000,563522,Elektrougli,0.0,0.0,0.0,0.06,0.05,0.05,0.1,0.03,0.07,0.05,0.01,0.0
Elektrostal’,55.78959,38.44671,RU,144387,563523,Elektrostal’,0.0,0.0,0.0,0.06,0.04,0.05,0.09,0.03,0.07,0.05,0.01,0.0
Elektrogorsk,55.88431,38.7864,RU,20724,563524,Elektrogorsk,0.0,0.0,0.0,0.06,0.03,0.06,0.09,0.03,0.07,0.05,0.01,0.0
Ekazhevo,43.21222,44.82306,RU,25549,563551,Ekazhevo,0.03,0.02,0.09,0.07,0.08,0.07,0.11,0.14,0.04,0.03,0.02,0.02
Dzerzhinskiy,55.62945,37.85654,RU,41146,563705,Dzerzhinskiy,0.0,0.0,0.0,0.05,0.05,0.07,0.11,0.03,0.07,0.04,0.01,0.0
Dzerzhinsk,56.24143,43.45539,RU,233126,563708,Dzerzhinsk,0.0,0.02,0.0,0.06,0.03,0.07,0.1,0.04,0.06,0.05,0.02,0.0
Dyurtyuli,55.49106,54.86883,RU,31087,563719,Dyurtyuli,0.0,0.0,0.0,0.05,0.06,0.09,0.05,0.08,0.08,0.06,0.01,0.0
Dyat’kovo,53.59782,34.33825,RU,25000,563822,Dyat’kovo,0.01,0.0,0.0,0.04,0.03,0.12,0.16,0.02,0.04,0.05,0.01,0.0
Dubovka,49.05825,44.829,RU,15217,564654,Dubovka,0.01,0.03,0.04,0.02,0.01,0.0,0.1,0.0,0.04,0.02,0.01,0.02
Dubna,56.73333,37.16667,RU,60604,564719,Dubna,0.01,0.0,0.0,0.05,0.06,0.06,0.15,0.04,0.11,0.06,0.01,0.0
Dorogomilovo,55.75,37.56667,RU,68000,565197,Dorogomilovo,0.0,0.0,0.0,0.05,0.05,0.07,0.11,0.02,0.07,0.04,0.01,0.0
Donskoye,45.45518,41.97411,RU,15469,565289,Donskoye,0.04,0.05,0.09,0.03,0.05,0.01,0.07,0.05,0.04,0.05,0.05,0.06
Donskoy,53.97106,38.33627,RU,31968,565290,Donskoy,0.0,0.02,0.0,0.06,0.03,0.03,0.11,0.01,0.05,0.05,0.01,0.0
Donetsk,48.33962,39.95948,RU,50850,565348,Donetsk,0.01,0.02,0.05,0.04,0.04,0.05,0.06,0.01,0.04,0.04,0.03,0.02
Domodedovo,55.4413,37.75367,RU,53887,565381,Domodedovo,0.0,0.0,0.0,0.05,0.06,0.06,0.11,0.03,0.07,0.04,0.01,0.0
Dolgoprudnyy,55.94958,37.50183,RU,68259,565614,Dolgoprudnyy,0.0,0.0,0.0,0.05,0.06,0.08,0.11,0.02,0.09,0.04,0.01,0.0
Dobryanka,58.4644,56.4127,RU,33291,565778,Dobryanka,0.0,0.0,0.0,0.05,0.08,0.14,0.12,0.06,0.05,0.11,0.02,0.0
Dmitrov,56.34485,37.52041,RU,61607,565955,Dmitrov,0.01,0.0,0.0,0.05,0.05,0.08,0.11,0.03,0.1,0.05,0.01,0.0
Divnoye,45.90889,43.35472,RU,15700,566155,Divnoye,0.02,0.02,0.08,0.01,0.01,0.0,0.1,0.01,0.04,0.04,0.04,0.03
Dinskaya,45.21516,39.2265,RU,34573,566181,Dinskaya,0.07,0.04,0.09,0.04,0.04,0.03,0.03,0.0,0.07,0.09,0.09,0.1
Dimitrovgrad,54.21386,49.61838,RU,132226,566199,Dimitrovgrad,0.0,0.0,0.0,0.09,0.02,0.04,0.06,0.02,0.04,0.07,0.01,0.0
Desnogorsk,54.15077,33.28151,RU,32451,566384,Desnogorsk,0.01,0.0,0.0,0.04,0.03,0.13,0.16,0.04,0.07,0.06,0.01,0.0
Derbent,42.06779,48.28987,RU,105965,566532,Derbent,0.02,0.05,0.05,0.01,0.01,0.01,0.01,0.05,0.01,0.02,0.06,0.03
Dedovsk,55.86861,37.12222,RU,27001,566854,Dedovsk,0.0,0.0,0.0,0.05,0.06,0.09,0.12,0.03,0.08,0.04,0.01,0.0
Davydkovo,55.71815,37.47271,RU,30000,566976,Davydkovo,0.0,0.0,0.0,0.05,0.05,0.07,0.11,0.02,0.07,0.04,0.01,0.0
Davlekanovo,54.22145,55.03434,RU,23952,567006,Davlekanovo,0.0,0.0,0.0,0.04,0.06,0.04,0.07,0.05,0.06,0.03,0.01,0.0
Dankov,53.25155,39.15553,RU,22913,567109,Dankov,0.0,0.03,0.0,0.06,0.05,0.02,0.09,0.0,0.04,0.05,0.01,0.0
Danilov,58.1908,40.17171,RU,16808,567183,Danilov,0.0,0.0,0.0,0.04,0.07,0.09,0.15,0.08,0.15,0.07,0.02,0.0
Dagestanskiye Ogni,42.11589,48.19204,RU,27835,567290,Dagestanskiye Ogni,0.02,0.05,0.05,0.01,0.01,0.01,0.01,0.05,0.01,0.02,0.06,0.03
Dachnoye,59.84167,30.25583,RU,72822,567311,Dachnoye,0.01,0.0,0.01,0.08,0.04,0.07,0.12,0.12,0.09,0.03,0.02,0.0
Chusovoy,58.3013,57.8131,RU,50205,567434,Chusovoy,0.0,0.0,0.0,0.04,0.1,0.13,0.11,0.07,0.07,0.1,0.01,0.0
Chudovo,59.11667,31.68333,RU,17377,567774,Chudovo,0.01,0.0,0.01,0.09,0.04,0.06,0.13,0.11,0.09,0.07,0.03,0.0
Chistopol’,55.36311,50.64244,RU,62200,567990,Chistopol’,0.0,0.0,0.0,0.09,0.02,0.05,0.06,0.05,0.05,0.07,0.02,0.0
Chishmy,54.57648,55.37642,RU,22000,568012,Chishmy,0.0,0.0,0.0,0.04,0.06,0.06,0.07,0.06,0.07,0.05,0.01,0.0
Chernyanka,50.93432,37.81664,RU,15261,568587,Chernyanka,0.01,0.01,0.02,0.07,0.07,0.02,0.18,0.0,0.05,0.04,0.0,0.01
Chernyakhovsk,54.63345,21.81557,RU,45187,568595,Chernyakhovsk,0.07,0.01,0.01,0.09,0.05,0.05,0.14,0.07,0.04,0.05,0.03,0.05
Chernushka,56.50722,56.07661,RU,35942,568608,Chernushka,0.0,0.0,0.0,0.05,0.07,0.11,0.07,0.09,0.07,0.07,0.01,0.0
Chernogolovka,56.0,38.36667,RU,20483,568808,Chernogolovka,0.0,0.0,0.0,0.06,0.04,0.06,0.1,0.03,0.08,0.05,0.01,0.0
Cherkessk,44.22333,42.05778,RU,122395,569154,Cherkessk,0.01,0.04,0.11,0.01,0.07,0.02,0.06,0.06,0.05,0.04,0.03,0.03
Cherepovets,59.13333,37.9,RU,315738,569223,Cherepovets,0.0,0.0,0.01,0.07,0.06,0.13,0.09,0.1,0.15,0.09,0.02,0.0
Cherëmushki,55.66473,37.56135,RU,106587,569273,Cherëmushki,0.0,0.0,0.0,0.05,0.05,0.07,0.11,0.02,0.07,0.04,0.01,0.0
Chekhov,55.1477,37.47728,RU,75643,569591,Chekhov,0.0,0.0,0.0,0.05,0.06,0.04,0.11,0.04,0.07,0.04,0.01,0.0
Chegem,43.55862,43.59285,RU,18429,569639,Chegem,0.02,0.02,0.1,0.03,0.07,0.07,0.08,0.11,0.04,0.05,0.07,0.02
Cheboksary,56.13222,47.25194,RU,492331,569696,Cheboksary,0.0,0.0,0.0,0.07,0.03,0.07,0.09,0.03,0.06,0.06,0.02,0.0
Chaykovskiy,56.76864,54.11484,RU,86712,569742,Chaykovskiy,0.0,0.0,0.0,0.06,0.06,0.08,0.05,0.06,0.08,0.09,0.01,0.0
Chapayevsk,52.9771,49.7086,RU,70147,569955,Chapayevsk,0.0,0.0,0.0,0.04,0.02,0.02,0.05,0.01,0.03,0.04,0.01,0.0
Buzuluk,52.7807,52.2635,RU,87714,570427,Buzuluk,0.0,0.0,0.01,0.04,0.04,0.02,0.05,0.01,0.03,0.03,0.01,0.0
Buynaksk,42.819,47.1192,RU,62689,570479,Buynaksk,0.02,0.03,0.09,0.04,0.04,0.07,0.17,0.2,0.02,0.03,0.03,0.02
Buy,58.48067,41.53699,RU,26486,570508,Buy,0.0,0.0,0.0,0.04,0.06,0.08,0.15,0.09,0.15,0.08,0.02,0.0
Buturlinovka,50.8299,40.6067,RU,28581,570563,Buturlinovka,0.01,0.02,0.03,0.06,0.05,0.02,0.11,0.0,0.07,0.05,0.0,0.02
Buinsk,54.97119,48.29184,RU,20266,571155,Buinsk,0.0,0.0,0.0,0.09,0.03,0.04,0.07,0.04,0.04,0.06,0.01,0.0
Buguruslan,53.6554,52.442,RU,53511,571159,Buguruslan,0.0,0.0,0.0,0.04,0.03,0.02,0.04,0.02,0.04,0.03,0.01,0.0
Bugulma,54.5378,52.7985,RU,91900,571170,Bugulma,0.0,0.0,0.0,0.04,0.04,0.04,0.04,0.03,0.05,0.03,0.01,0.0
Budyonnovsk,44.78389,44.16583,RU,67962,571306,Budyonnovsk,0.02,0.04,0.08,0.01,0.01,0.01,0.07,0.01,0.03,0.03,0.05,0.02
Bryukhovetskaya,45.80603,38.99959,RU,22309,571420,Bryukhovetskaya,0.06,0.04,0.07,0.02,0.03,0.02,0.03,0.0,0.07,0.05,0.07,0.08
Bryansk,53.25209,34.37167,RU,427236,571476,Bryansk,0.01,0.0,0.0,0.03,0.03,0.1,0.16,0.02,0.04,0.04,0.0,0.0
Bronnitsy,55.42112,38.26188,RU,18645,571557,Bronnitsy,0.0,0.0,0.0,0.05,0.04,0.06,0.09,0.03,0.06,0.05,0.01,0.0
Brateyevo,55.63755,37.76438,RU,102000,571741,Brateyevo,0.0,0.0,0.0,0.05,0.05,0.07,0.11,0.03,0.07,0.04,0.01,0.0
Borovichi,58.38778,33.91546,RU,56571,572154,Borovichi,0.01,0.0,0.01,0.1,0.04,0.08,0.13,0.11,0.1,0.06,0.02,0.01
Borisoglebsk,51.36713,42.08494,RU,68597,572525,Borisoglebsk,0.01,0.03,0.02,0.06,0.04,0.02,0.11,0.0,0.08,0.06,0.0,0.02
Bor,56.35808,44.07477,RU,60647,572665,Bor,0.0,0.02,0.0,0.06,0.02,0.07,0.1,0.04,0.07,0.06,0.02,0.0
Bol’shaya Setun’,55.71667,37.41667,RU,20000,574675,Bol’shaya Setun’,0.0,0.0,0.0,0.05,0.05,0.07,0.11,0.02,0.07,0.04,0.01,0.0
Bologoye,57.88585,34.04876,RU,25142,575349,Bologoye,0.01,0.0,0.0,0.11,0.06,0.1,0.14,0.12,0.09,0.05,0.02,0.01
Boksitogorsk,59.47405,33.84853,RU,17366,575410,Boksitogorsk,0.01,0.0,0.01,0.1,0.05,0.09,0.1,0.13,0.11,0.06,0.03,0.0
Boguchar,49.93577,40.545,RU,15048,575457,Boguchar,0.01,0.02,0.03,0.04,0.04,0.02,0.15,0.0,0.06,0.05,0.01,0.02
Bogorodskoye,55.81353,37.71617,RU,103000,575505,Bogorodskoye,0.0,0.0,0.0,0.05,0.05,0.07,0.11,0.03,0.07,0.04,0.01,0.0
Bogorodsk,56.10513,43.51294,RU,36652,575560,Bogorodsk,0.0,0.02,0.0,0.06,0.03,0.08,0.11,0.03,0.06,0.05,0.02,0.0
Bogoroditsk,53.77166,38.12408,RU,30216,575591,Bogoroditsk,0.0,0.03,0.0,0.06,0.03,0.03,0.1,0.01,0.04,0.05,0.01,0.0
Bobrov,51.0994,40.0244,RU,20587,575948,Bobrov,0.01,0.01,0.03,0.07,0.06,0.02,0.1,0.01,0.07,0.05,0.0,0.01
Blagoveshchensk,55.035,55.97806,RU,34238,576116,Blagoveshchensk,0.0,0.0,0.0,0.05,0.05,0.07,0.06,0.06,0.08,0.06,0.01,0.0
Blagodarnyy,45.09778,43.43639,RU,35995,576172,Blagodarnyy,0.02,0.04,0.1,0.01,0.03,0.0,0.07,0.02,0.05,0.03,0.04,0.03
Biryulëvo,55.58635,37.67781,RU,144000,576279,Biryulëvo,0.0,0.0,0.0,0.05,0.06,0.06,0.11,0.03,0.07,0.04,0.01,0.0
Birsk,55.42111,55.54278,RU,41014,576317,Birsk,0.0,0.0,0.0,0.05,0.07,0.09,0.06,0.07,0.08,0.05,0.01,0.0
Bibirevo,55.88333,37.6,RU,159000,576432,Bibirevo,0.0,0.0,0.0,0.05,0.06,0.08,0.11,0.02,0.09,0.04,0.01,0.0
Bezhetsk,57.78506,36.69651,RU,28114,576566,Bezhetsk,0.0,0.0,0.01,0.07,0.09,0.1,0.17,0.05,0.15,0.07,0.02,0.0
Bezenchuk,52.982,49.4333,RU,23736,576590,Bezenchuk,0.0,0.0,0.0,0.04,0.02,0.02,0.04,0.02,0.03,0.04,0.01,0.0
Beslan,43.19217,44.54313,RU,35604,576697,Beslan,0.02,0.02,0.09,0.07,0.08,0.07,0.1,0.14,0.03,0.03,0.01,0.02
Berezniki,59.4091,56.8204,RU,167748,577206,Berezniki,0.0,0.0,0.0,0.03,0.12,0.16,0.06,0.07,0.07,0.15,0.01,0.0
Beloretsk,53.96306,58.39806,RU,70468,577881,Beloretsk,0.0,0.0,0.0,0.02,0.06,0.04,0.11,0.02,0.04,0.04,0.0,0.0
Belorechensk,44.77127,39.87879,RU,54526,577893,Belorechensk,0.06,0.04,0.15,0.06,0.08,0.01,0.04,0.01,0.06,0.15,0.05,0.08
Beloozyorskiy,55.45978,38.44358,RU,18297,577901,Beloozyorskiy,0.0,0.0,0.0,0.06,0.04,0.06,0.08,0.03,0.06,0.05,0.01,0.0
Belgorod,50.61074,36.58015,RU,345289,578072,Belgorod,0.01,0.02,0.03,0.05,0.06,0.04,0.18,0.0,0.04,0.03,0.0,0.02
Belëv,53.81194,36.13194,RU,15300,578091,Belëv,0.0,0.01,0.0,0.05,0.04,0.03,0.09,0.02,0.04,0.06,0.0,0.0
Belebey,54.11667,54.11667,RU,62582,578120,Belebey,0.0,0.0,0.0,0.04,0.05,0.03,0.08,0.04,0.05,0.03,0.01,0.0
Belaya Kalitva,48.18585,40.77424,RU,47521,578155,Belaya Kalitva,0.01,0.02,0.06,0.04,0.04,0.04,0.07,0.0,0.02,0.04,0.02,0.02
Belaya Glina,46.07802,40.86651,RU,17997,578169,Belaya Glina,0.05,0.05,0.08,0.02,0.06,0.01,0.06,0.01,0.03,0.08,0.05,0.05
Baymak,52.59333,58.3225,RU,17493,578534,Baymak,0.0,0.0,0.0,0.05,0.06,0.02,0.05,0.03,0.03,0.03,0.0,0.0
Bavly,54.39304,53.26023,RU,22982,578638,Bavly,0.0,0.0,0.0,0.04,0.04,0.04,0.05,0.04,0.05,0.03,0.01,0.0
Bataysk,47.13975,39.75181,RU,109962,578740,Bataysk,0.03,0.03,0.06,0.03,0.05,0.01,0.04,0.0,0.02,0.05,0.03,0.04
Barysh,53.65533,47.11229,RU,18547,578931,Barysh,0.0,0.0,0.0,0.08,0.03,0.02,0.08,0.02,0.05,0.06,0.01,0.0
Balezino,57.9787,53.0138,RU,16618,579432,Balezino,0.0,0.0,0.0,0.04,0.07,0.13,0.09,0.04,0.08,0.1,0.02,0.0
Balashov,51.5502,43.1667,RU,98107,579460,Balashov,0.01,0.04,0.02,0.07,0.04,0.02,0.12,0.01,0.06,0.06,0.0,0.01
Balashikha,55.80945,37.95806,RU,150103,579464,Balashikha,0.0,0.0,0.0,0.06,0.04,0.06,0.1,0.03,0.07,0.05,0.01,0.0
Balakovo,52.02782,47.8007,RU,199572,579492,Balakovo,0.0,0.0,0.0,0.04,0.04,0.01,0.08,0.01,0.04,0.04,0.0,0.0
Novaya Balakhna,56.48989,43.60114,RU,63083,579514,Novaya Balakhna,0.0,0.01,0.0,0.05,0.02,0.06,0.09,0.05,0.06,0.05,0.02,0.0
Balabanovo,55.18161,36.6606,RU,24232,579529,Balabanovo,0.0,0.0,0.0,0.05,0.05,0.06,0.13,0.04,0.07,0.04,0.01,0.0
Baksan,43.68806,43.53694,RU,37519,579574,Baksan,0.02,0.02,0.1,0.03,0.07,0.07,0.08,0.11,0.04,0.05,0.07,0.02
Bakal,54.9417,58.8083,RU,21762,579738,Bakal,0.0,0.0,0.0,0.04,0.1,0.14,0.15,0.11,0.07,0.08,0.0,0.0
Bagayevskaya,47.32411,40.38791,RU,15300,579771,Bagayevskaya,0.03,0.02,0.07,0.03,0.05,0.02,0.06,0.0,0.02,0.03,0.02,0.03
Babushkin,55.86931,37.72966,RU,86000,579870,Babushkin,0.0,0.0,0.0,0.05,0.05,0.07,0.11,0.03,0.07,0.04,0.01,0.0
Azov,47.10779,39.41648,RU,82133,580054,Azov,0.03,0.04,0.06,0.03,0.04,0.01,0.03,0.0,0.03,0.04,0.03,0.05
Avtury,43.16345,46.00152,RU,18370,580218,Avtury,0.02,0.04,0.08,0.04,0.04,0.03,0.15,0.14,0.03,0.03,0.02,0.02
Avtovo,59.87167,30.26583,RU,44667,580222,Avtovo,0.01,0.0,0.01,0.08,0.04,0.07,0.12,0.12,0.09,0.03,0.02,0.0
Atkarsk,51.87185,45.00775,RU,27554,580420,Atkarsk,0.0,0.02,0.01,0.06,0.02,0.01,0.09,0.02,0.06,0.05,0.0,0.0
Astrakhan,46.34968,48.04076,RU,533925,580497,Astrakhan,0.0,0.01,0.04,0.0,0.0,0.0,0.02,0.0,0.01,0.01,0.01,0.01
Asha,54.9973,57.2722,RU,33006,580660,Asha,0.0,0.0,0.0,0.06,0.07,0.11,0.08,0.07,0.08,0.09,0.01,0.0
Arzgir,45.37278,44.22056,RU,15838,580716,Arzgir,0.02,0.02,0.08,0.01,0.01,0.0,0.07,0.01,0.03,0.02,0.04,0.02
Arzamas,55.39485,43.83992,RU,109479,580724,Arzamas,0.0,0.02,0.0,0.06,0.02,0.08,0.11,0.02,0.06,0.05,0.01,0.0
Arsk,56.09151,49.87783,RU,17243,580850,Arsk,0.0,0.0,0.0,0.09,0.04,0.07,0.08,0.05,0.05,0.07,0.02,0.0
Armavir,44.9892,41.1234,RU,199548,580922,Armavir,0.05,0.04,0.12,0.04,0.05,0.01,0.04,0.04,0.06,0.06,0.07,0.05
Arkhangel’sk,64.5401,40.5433,RU,349742,581049,Arkhangel’sk,0.0,0.0,0.0,0.02,0.02,0.13,0.04,0.19,0.11,0.08,0.01,0.0
Argun,43.29713,45.87454,RU,28100,581126,Argun,0.03,0.05,0.09,0.04,0.03,0.03,0.12,0.11,0.03,0.03,0.03,0.02
Ardon,43.1772,44.29702,RU,18313,581179,Ardon,0.03,0.02,0.11,0.08,0.1,0.09,0.13,0.2,0.06,0.06,0.04,0.03
Apsheronsk,44.46472,39.73417,RU,40451,581313,Apsheronsk,0.06,0.04,0.18,0.04,0.09,0.03,0.03,0.02,0.05,0.16,0.05,0.08
Aprelevka,55.55194,37.0801,RU,17780,581321,Aprelevka,0.0,0.0,0.0,0.04,0.06,0.09,0.13,0.04,0.08,0.04,0.01,0.0
Apatity,67.56414,33.4031,RU,61186,581357,Apatity,0.0,0.0,0.0,0.01,0.04,0.13,0.03,0.11,0.08,0.03,0.01,0.0
Anna,51.4842,40.4299,RU,19148,581671,Anna,0.01,0.02,0.01,0.08,0.07,0.02,0.12,0.01,0.08,0.06,0.0,0.01
Andreyevskoye,55.55487,37.92566,RU,20000,581928,Andreyevskoye,0.0,0.0,0.0,0.05,0.05,0.06,0.1,0.03,0.06,0.05,0.01,0.0
Anapa,44.89497,37.31623,RU,53600,582182,Anapa,0.06,0.07,0.05,0.01,0.03,0.04,0.04,0.0,0.08,0.02,0.06,0.08
Amin’yevo,55.7,37.46667,RU,30000,582266,Amin’yevo,0.0,0.0,0.0,0.05,0.05,0.07,0.11,0.02,0.07,0.04,0.01,0.0
Al’met’yevsk,54.90442,52.3154,RU,140437,582432,Al’met’yevsk,0.0,0.0,0.0,0.07,0.03,0.05,0.05,0.04,0.05,0.05,0.02,0.0
Aleksin,54.50503,37.0674,RU,66885,582750,Aleksin,0.0,0.0,0.0,0.05,0.03,0.02,0.1,0.04,0.05,0.04,0.01,0.0
Alekseyevka,55.63,37.8,RU,78000,582846,Alekseyevka,0.0,0.0,0.0,0.05,0.05,0.07,0.11,0.03,0.07,0.04,0.01,0.0
Alekseyevka,50.63092,38.6903,RU,39848,582956,Alekseyevka,0.01,0.01,0.03,0.06,0.06,0.02,0.14,0.0,0.05,0.04,0.0,0.01
Aleksandrovskoye,44.71417,43.00083,RU,28006,582993,Aleksandrovskoye,0.02,0.04,0.11,0.01,0.06,0.02,0.08,0.04,0.08,0.04,0.04,0.03
Aleksandrovsk,59.1581,57.5695,RU,15486,583041,Aleksandrovsk,0.0,0.0,0.0,0.04,0.13,0.2,0.07,0.09,0.07,0.16,0.01,0.0
Aleksandrov,56.39516,38.71216,RU,64088,583350,Aleksandrov,0.0,0.0,0.0,0.05,0.04,0.06,0.12,0.04,0.09,0.05,0.01,0.0
Alatyr’,54.8421,46.5813,RU,42156,583437,Alatyr’,0.0,0.01,0.0,0.08,0.03,0.04,0.07,0.04,0.04,0.05,0.01,0.0
Levoberezhnyy,55.85,37.48333,RU,52000,583589,Levoberezhnyy,0.0,0.0,0.0,0.05,0.05,0.07,0.11,0.02,0.07,0.04,0.01,0.0
Aksay,47.25838,39.86675,RU,38871,583673,Aksay,0.03,0.03,0.06,0.03,0.05,0.01,0.04,0.0,0.02,0.05,0.03,0.04
Akhtyrskiy,44.8546,38.3031,RU,19468,583785,Akhtyrskiy,0.06,0.05,0.1,0.03,0.05,0.02,0.03,0.0,0.04,0.05,0.09,0.11
Akhtubinsk,48.27955,46.17217,RU,44551,583798,Akhtubinsk,0.01,0.02,0.03,0.02,0.0,0.0,0.09,0.0,0.03,0.02,0.01,0.01
Agryz,56.52034,52.99422,RU,18601,583983,Agryz,0.0,0.0,0.0,0.08,0.05,0.07,0.09,0.07,0.07,0.09,0.02,0.0
Afipskiy,44.90005,38.84265,RU,18209,584126,Afipskiy,0.06,0.05,0.1,0.05,0.06,0.03,0.03,0.0,0.05,0.06,0.09,0.11
Adler,43.42896,39.92391,RU,70200,584243,Adler,0.15,0.09,0.22,0.11,0.09,0.06,0.09,0.07,0.14,0.18,0.24,0.22
Achkhoy-Martan,43.18997,45.28373,RU,16779,584298,Achkhoy-Martan,0.03,0.03,0.09,0.03,0.04,0.07,0.09,0.1,0.03,0.02,0.03,0.02
Abinsk,44.86803,38.15728,RU,34668,584441,Abinsk,0.06,0.05,0.1,0.03,0.05,0.02,0.03,0.0,0.04,0.05,0.09,0.11
Abdulino,53.7,53.66667,RU,21195,584471,Abdulino,0.0,0.0,0.0,0.05,0.04,0.03,0.07,0.03,0.04,0.03,0.01,0.0
Vasil’yevo,55.83007,48.71729,RU,16800,611182,Vasil’yevo,0.0,0.0,0.0,0.08,0.03,0.06,0.06,0.03,0.05,0.05,0.02,0.0
Ryl’sk,51.5655,34.6822,RU,17007,695019,Ryl’sk,0.02,0.01,0.01,0.03,0.06,0.06,0.17,0.0,0.04,0.05,0.0,0.0
Neftekumsk,44.75583,44.9925,RU,27716,797781,Neftekumsk,0.02,0.02,0.07,0.01,0.0,0.01,0.11,0.02,0.02,0.02,0.05,0.02
Alagir,43.04222,44.22222,RU,19665,802078,Alagir,0.02,0.03,0.14,0.14,0.28,0.22,0.28,0.34,0.24,0.16,0.06,0.03
Persianovka,47.52972,39.41833,RU,15730,802714,Persianovka,0.02,0.03,0.06,0.03,0.04,0.01,0.04,0.0,0.03,0.04,0.02,0.04
Annino,55.58316,37.26019,RU,30000,819552,Annino,0.0,0.0,0.0,0.05,0.06,0.07,0.13,0.04,0.07,0.04,0.01,0.0
Dagomys,43.66974,39.66863,RU,20000,823674,Dagomys,0.15,0.09,0.22,0.11,0.09,0.06,0.09,0.07,0.14,0.18,0.24,0.22
Pavlovo,55.9686,43.0912,RU,63338,827329,Pavlovo,0.0,0.02,0.0,0.06,0.03,0.08,0.12,0.03,0.06,0.05,0.02,0.0
Belidzhi,41.89184,48.41247,RU,16078,828055,Belidzhi,0.02,0.05,0.05,0.01,0.01,0.01,0.01,0.05,0.01,0.02,0.06,0.03
Lesnoy,58.63667,59.80222,RU,23834,829005,Lesnoy,0.0,0.0,0.0,0.03,0.07,0.12,0.1,0.07,0.04,0.04,0.01,0.0
Trëkhgornyy,54.815,58.45917,RU,34500,830844,Trëkhgornyy,0.0,0.0,0.0,0.04,0.1,0.12,0.15,0.11,0.07,0.08,0.0,0.0
Mirnyy,62.76409,40.33746,RU,28000,831129,Mirnyy,0.0,0.0,0.0,0.03,0.02,0.1,0.08,0.12,0.11,0.09,0.01,0.0
Znamensk,48.5842,45.7338,RU,31922,831130,Znamensk,0.01,0.02,0.03,0.02,0.0,0.0,0.08,0.0,0.03,0.02,0.01,0.02
Zarechnyy,53.13333,46.58333,RU,62139,831165,Zarechnyy,0.0,0.01,0.0,0.07,0.02,0.02,0.08,0.02,0.06,0.06,0.01,0.0
Kochubeyevskoye,44.64417,41.84528,RU,28491,841006,Kochubeyevskoye,0.02,0.04,0.11,0.02,0.06,0.01,0.05,0.06,0.06,0.04,0.05,0.05
Vnukovo,55.61194,37.29611,RU,20000,857689,Vnukovo,0.0,0.0,0.0,0.05,0.06,0.07,0.13,0.04,0.07,0.04,0.01,0.0
Moskovskiy,55.59911,37.35495,RU,15435,857690,Moskovskiy,0.0,0.0,0.0,0.05,0.06,0.07,0.13,0.04,0.07,0.04,0.01,0.0
Usinsk,65.99389,57.52806,RU,44078,863061,Usinsk,0.0,0.0,0.0,0.0,0.03,0.08,0.03,0.12,0.09,0.05,0.01,0.0
Obukhovo,59.84389,30.45111,RU,45664,873901,Obukhovo,0.01,0.0,0.01,0.08,0.04,0.07,0.13,0.12,0.09,0.03,0.02,0.0
Staryy Malgobek,43.54437,44.59592,RU,46334,874045,Staryy Malgobek,0.03,0.02,0.09,0.07,0.08,0.07,0.11,0.14,0.04,0.03,0.02,0.02
Zavodoukovsk,56.5042,66.55153,RU,25682,1485357,Zavodoukovsk,0.0,0.0,0.0,0.03,0.08,0.06,0.05,0.06,0.05,0.03,0.01,0.0
Zarinsk,53.7074,84.9493,RU,52209,1485439,Zarinsk,0.0,0.0,0.02,0.03,0.15,0.05,0.06,0.05,0.05,0.06,0.01,0.0
Zarechnyy,56.811,61.3254,RU,27758,1485445,Zarechnyy,0.0,0.0,0.0,0.03,0.05,0.07,0.09,0.11,0.05,0.07,0.0,0.0
Yuzhnyy,53.25417,83.69361,RU,19515,1485627,Yuzhnyy,0.0,0.0,0.02,0.03,0.16,0.08,0.07,0.03,0.04,0.05,0.01,0.0
Yuzhnoural’sk,54.4418,61.2536,RU,39200,1485634,Yuzhnoural’sk,0.0,0.0,0.01,0.03,0.07,0.04,0.06,0.06,0.02,0.04,0.0,0.0
Yurga,55.72306,84.88611,RU,84220,1485724,Yurga,0.0,0.0,0.01,0.03,0.1,0.08,0.12,0.06,0.06,0.02,0.0,0.0
Yeniseysk,58.44937,92.17968,RU,19920,1485997,Yeniseysk,0.0,0.0,0.01,0.05,0.08,0.03,0.02,0.07,0.08,0.02,0.0,0.0
Yemanzhelinsk,54.75472,61.32083,RU,29849,1486039,Yemanzhelinsk,0.0,0.0,0.01,0.03,0.05,0.05,0.06,0.07,0.02,0.05,0.0,0.0
Yekaterinburg,56.8519,60.6122,RU,1495066,1486209,Yekaterinburg,0.0,0.0,0.0,0.03,0.05,0.09,0.1,0.09,0.04,0.07,0.0,0.0
Yashkino,55.8736,85.4265,RU,15197,1486298,Yashkino,0.0,0.0,0.01,0.03,0.09,0.09,0.13,0.06,0.07,0.02,0.0,0.0
Yarovoye,52.9273,78.58,RU,21195,1486340,Yarovoye,0.0,0.0,0.01,0.05,0.09,0.12,0.05,0.06,0.05,0.03,0.0,0.0
Yalutorovsk,56.65358,66.30057,RU,35892,1486468,Yalutorovsk,0.0,0.0,0.0,0.03,0.08,0.06,0.05,0.07,0.04,0.03,0.01,0.0
Vorkuta,67.49884,64.05253,RU,80039,1486910,Vorkuta,0.0,0.0,0.0,0.0,0.01,0.07,0.04,0.08,0.11,0.03,0.0,0.0
Vorgashor,67.58355,63.79399,RU,18946,1486913,Vorgashor,0.0,0.0,0.0,0.0,0.01,0.07,0.04,0.08,0.11,0.03,0.0,0.0
Verkhnyaya Salda,58.04874,60.55949,RU,48992,1487277,Verkhnyaya Salda,0.0,0.0,0.0,0.03,0.05,0.11,0.14,0.08,0.05,0.05,0.01,0.0
Verkhnyaya Pyshma,56.97047,60.58219,RU,59061,1487281,Verkhnyaya Pyshma,0.0,0.0,0.0,0.03,0.04,0.1,0.1,0.09,0.04,0.07,0.0,0.0
Verkhniy Ufaley,56.0556,60.2397,RU,33245,1487394,Verkhniy Ufaley,0.0,0.0,0.0,0.03,0.07,0.08,0.11,0.1,0.04,0.07,0.0,0.0
Uzhur,55.31246,89.83301,RU,15637,1487882,Uzhur,0.0,0.0,0.01,0.01,0.09,0.05,0.08,0.05,0.11,0.01,0.0,0.0
Zelenogorsk,56.1124,94.5985,RU,71354,1488253,Zelenogorsk,0.0,0.0,0.01,0.02,0.08,0.03,0.06,0.04,0.13,0.02,0.0,0.0
Uray,60.13044,64.78896,RU,39878,1488429,Uray,0.0,0.0,0.0,0.03,0.09,0.11,0.07,0.08,0.03,0.11,0.0,0.0
Tyumen,57.15222,65.52722,RU,768358,1488754,Tyumen,0.0,0.0,0.0,0.03,0.07,0.08,0.06,0.12,0.04,0.04,0.01,0.0
Turinsk,58.04575,63.69605,RU,18555,1488933,Turinsk,0.0,0.0,0.0,0.04,0.06,0.08,0.08,0.16,0.06,0.08,0.01,0.0
Troitsk,54.0979,61.5773,RU,82338,1489246,Troitsk,0.0,0.0,0.01,0.03,0.07,0.04,0.05,0.04,0.02,0.03,0.0,0.0
Topki,55.2769,85.6163,RU,30572,1489394,Topki,0.0,0.0,0.01,0.03,0.1,0.1,0.12,0.03,0.08,0.02,0.0,0.0
Tomsk,56.49771,84.97437,RU,574002,1489425,Tomsk,0.0,0.0,0.01,0.06,0.08,0.08,0.1,0.06,0.06,0.02,0.0,0.0
Toguchin,55.23528,84.38583,RU,21886,1489508,Toguchin,0.0,0.0,0.01,0.03,0.09,0.06,0.1,0.04,0.06,0.01,0.0,0.0
Tobolsk,58.19807,68.25457,RU,113800,1489530,Tobolsk,0.0,0.0,0.0,0.03,0.06,0.11,0.03,0.13,0.07,0.06,0.0,0.0
Tayshet,55.9342,98.0044,RU,37766,1489870,Tayshet,0.0,0.0,0.01,0.02,0.06,0.05,0.04,0.05,0.1,0.02,0.0,0.0
Tayga,56.06402,85.62238,RU,24328,1489907,Tayga,0.0,0.0,0.01,0.04,0.1,0.09,0.13,0.07,0.08,0.02,0.0,0.0
Tavda,58.04254,65.27258,RU,39480,1489962,Tavda,0.0,0.0,0.0,0.03,0.06,0.09,0.08,0.14,0.06,0.05,0.01,0.0
Tatarsk,55.21903,75.98283,RU,25150,1490003,Tatarsk,0.0,0.0,0.01,0.07,0.1,0.08,0.08,0.13,0.05,0.03,0.0,0.0
Tashtagol,52.7657,87.8894,RU,22779,1490042,Tashtagol,0.0,0.0,0.05,0.03,0.26,0.08,0.1,0.07,0.12,0.06,0.0,0.0
Tarko-Sale,64.91611,77.77457,RU,18568,1490085,Tarko-Sale,0.0,0.0,0.0,0.02,0.02,0.13,0.09,0.09,0.07,0.03,0.0,0.0
Tara,56.89436,74.37096,RU,26986,1490140,Tara,0.0,0.0,0.0,0.04,0.11,0.12,0.03,0.2,0.06,0.04,0.0,0.0
Talnakh,69.4865,88.3972,RU,59051,1490256,Talnakh,0.0,0.0,0.0,0.0,0.01,0.12,0.13,0.11,0.09,0.08,0.0,0.0
Tal’menka,53.8183,83.5677,RU,18900,1490266,Tal’menka,0.0,0.0,0.01,0.04,0.12,0.06,0.07,0.02,0.04,0.05,0.01,0.0
Talitsa,56.8804,60.0213,RU,19100,1490277,Talitsa,0.0,0.0,0.0,0.03,0.05,0.13,0.12,0.1,0.05,0.05,0.0,0.0
Talitsa,57.01095,63.73254,RU,18602,1490281,Talitsa,0.0,0.0,0.0,0.04,0.06,0.07,0.1,0.16,0.05,0.05,0.01,0.0
Sysert’,56.50243,60.81917,RU,21942,1490402,Sysert’,0.0,0.0,0.0,0.03,0.05,0.07,0.1,0.09,0.04,0.06,0.0,0.0
Suzun,53.7841,82.3116,RU,15365,1490551,Suzun,0.0,0.0,0.01,0.04,0.11,0.1,0.08,0.02,0.04,0.04,0.0,0.0
Surgut,61.25,73.41667,RU,300367,1490624,Surgut,0.0,0.0,0.0,0.02,0.05,0.18,0.05,0.17,0.06,0.07,0.0,0.0
Sukhoy Log,56.9094,62.0296,RU,36329,1490686,Sukhoy Log,0.0,0.0,0.0,0.05,0.05,0.07,0.1,0.13,0.05,0.07,0.01,0.0
Strezhevoy,60.7333,77.5889,RU,44784,1490796,Strezhevoy,0.0,0.0,0.0,0.02,0.05,0.26,0.02,0.19,0.07,0.07,0.0,0.0
Sredneuralsk,56.98921,60.46662,RU,20169,1491159,Sredneuralsk,0.0,0.0,0.0,0.03,0.04,0.1,0.1,0.09,0.04,0.07,0.0,0.0
Sovetskiy,61.36139,63.58417,RU,23685,1491230,Sovetskiy,0.0,0.0,0.0,0.03,0.08,0.12,0.05,0.07,0.03,0.08,0.0,0.0
Sosnovoborsk,56.1217,93.3385,RU,31632,1491291,Sosnovoborsk,0.0,0.0,0.01,0.01,0.07,0.03,0.05,0.04,0.09,0.02,0.0,0.0
Slavgorod,52.9978,78.6449,RU,34141,1491706,Slavgorod,0.0,0.0,0.01,0.05,0.1,0.1,0.04,0.06,0.05,0.03,0.0,0.0
Shushenskoye,53.325,91.93556,RU,18770,1491953,Shushenskoye,0.0,0.0,0.01,0.02,0.11,0.03,0.09,0.12,0.15,0.04,0.0,0.0
Shumikha,55.22611,63.29611,RU,18499,1491999,Shumikha,0.0,0.0,0.01,0.03,0.06,0.07,0.05,0.11,0.03,0.03,0.01,0.0
Sharypovo,55.54028,89.20083,RU,42773,1492401,Sharypovo,0.0,0.0,0.01,0.02,0.1,0.05,0.09,0.07,0.11,0.02,0.0,0.0
Shadrinsk,56.0852,63.6335,RU,79479,1492517,Shadrinsk,0.0,0.0,0.0,0.03,0.06,0.07,0.07,0.1,0.03,0.03,0.01,0.0
Serov,59.60334,60.5787,RU,98438,1492663,Serov,0.0,0.0,0.0,0.04,0.09,0.09,0.08,0.05,0.02,0.06,0.01,0.0
Sayanogorsk,53.0875,91.39972,RU,49939,1492893,Sayanogorsk,0.0,0.0,0.01,0.02,0.11,0.03,0.09,0.12,0.13,0.04,0.0,0.0
Salekhard,66.53,66.60194,RU,49214,1493197,Salekhard,0.0,0.0,0.0,0.0,0.01,0.11,0.02,0.06,0.13,0.06,0.0,0.0
Rubtsovsk,51.51473,81.20613,RU,161065,1493467,Rubtsovsk,0.0,0.0,0.04,0.05,0.12,0.04,0.04,0.04,0.05,0.04,0.02,0.0
Rezh,57.37005,61.40428,RU,37420,1493648,Rezh,0.0,0.0,0.0,0.04,0.05,0.07,0.1,0.1,0.04,0.07,0.01,0.0
Reftinskiy,57.09013,61.67692,RU,17673,1493687,Reftinskiy,0.0,0.0,0.0,0.04,0.05,0.07,0.1,0.12,0.05,0.07,0.01,0.0
Promyshlennaya,54.9159,85.6385,RU,17216,1494091,Promyshlennaya,0.0,0.0,0.01,0.03,0.1,0.08,0.09,0.03,0.08,0.03,0.0,0.0
Prokop’yevsk,53.9059,86.719,RU,219000,1494114,Prokop’yevsk,0.0,0.0,0.01,0.02,0.15,0.07,0.06,0.04,0.04,0.05,0.0,0.0
Poykovskiy,61.23333,73.33333,RU,28080,1494276,Poykovskiy,0.0,0.0,0.0,0.02,0.04,0.18,0.06,0.16,0.07,0.07,0.0,0.0
Polysayevo,54.6012,86.2459,RU,28026,1494456,Polysayevo,0.0,0.0,0.01,0.03,0.13,0.06,0.06,0.04,0.06,0.04,0.01,0.0
Polevskoy,56.44222,60.18778,RU,65770,1494573,Polevskoy,0.0,0.0,0.0,0.03,0.06,0.1,0.1,0.09,0.04,0.06,0.0,0.0
Plast,54.36914,60.81361,RU,17050,1494907,Plast,0.0,0.0,0.01,0.04,0.07,0.05,0.08,0.04,0.02,0.05,0.0,0.0
Osinniki,53.6239,87.3598,RU,48919,1495974,Osinniki,0.0,0.0,0.01,0.02,0.22,0.05,0.09,0.07,0.08,0.06,0.01,0.0
Omsk,54.99244,73.36859,RU,1172070,1496153,Omsk,0.0,0.0,0.01,0.02,0.09,0.1,0.07,0.15,0.02,0.04,0.0,0.0
Ob’,54.9872,82.7166,RU,24238,1496421,Ob’,0.0,0.0,0.01,0.04,0.1,0.15,0.07,0.06,0.08,0.03,0.0,0.0
Nyagan,62.14056,65.39361,RU,52137,1496476,Nyagan,0.0,0.0,0.0,0.03,0.08,0.13,0.12,0.1,0.03,0.06,0.0,0.0
Noyabrsk,63.19309,75.43728,RU,110000,1496503,Noyabrsk,0.0,0.0,0.0,0.03,0.04,0.16,0.08,0.12,0.06,0.05,0.0,0.0
Novyy Urengoy,66.08333,76.63333,RU,94212,1496511,Novyy Urengoy,0.0,0.0,0.0,0.0,0.01,0.13,0.03,0.08,0.09,0.03,0.0,0.0
Novosilikatnyy,53.30972,83.62389,RU,15241,1496739,Novosilikatnyy,0.0,0.0,0.02,0.03,0.15,0.07,0.06,0.03,0.04,0.05,0.01,0.0
Novosibirsk,55.0415,82.9346,RU,1612833,1496747,Novosibirsk,0.0,0.0,0.01,0.03,0.1,0.12,0.07,0.06,0.08,0.03,0.0,0.0
Novokuznetsk,53.7557,87.1099,RU,539616,1496990,Novokuznetsk,0.0,0.0,0.02,0.03,0.17,0.05,0.07,0.05,0.07,0.05,0.01,0.0
Novoaltaysk,53.3917,83.9363,RU,61050,1497173,Novoaltaysk,0.0,0.0,0.02,0.03,0.15,0.06,0.05,0.03,0.04,0.05,0.01,0.0
Norilsk,69.3535,88.2027,RU,140800,1497337,Norilsk,0.0,0.0,0.0,0.0,0.0,0.11,0.14,0.11,0.1,0.06,0.0,0.0
Nizhnyaya Salda,58.07756,60.7202,RU,17473,1497393,Nizhnyaya Salda,0.0,0.0,0.0,0.03,0.06,0.11,0.13,0.09,0.05,0.05,0.01,0.0
Nizhnevartovsk,60.9344,76.5531,RU,244937,1497543,Nizhnevartovsk,0.0,0.0,0.0,0.01,0.05,0.21,0.02,0.16,0.06,0.07,0.0,0.0
Nizhneudinsk,54.9076,99.0276,RU,38723,1497549,Nizhneudinsk,0.0,0.0,0.0,0.01,0.07,0.04,0.07,0.11,0.17,0.02,0.0,0.0
Nev’yansk,57.4953,60.2112,RU,25900,1497795,Nev’yansk,0.0,0.0,0.0,0.03,0.04,0.13,0.13,0.09,0.04,0.05,0.0,0.0
Nefteyugansk,61.09979,72.60349,RU,112632,1497917,Nefteyugansk,0.0,0.0,0.0,0.02,0.04,0.17,0.06,0.17,0.06,0.06,0.0,0.0
Nazarovo,56.0104,90.4011,RU,55252,1497951,Nazarovo,0.0,0.0,0.01,0.02,0.1,0.04,0.06,0.06,0.1,0.02,0.0,0.0
Nadym,65.53333,72.51667,RU,46339,1498087,Nadym,0.0,0.0,0.0,0.0,0.02,0.13,0.02,0.06,0.08,0.05,0.0,0.0
Myski,53.709,87.8014,RU,44082,1498129,Myski,0.0,0.0,0.02,0.03,0.22,0.05,0.07,0.06,0.12,0.06,0.01,0.0
Minusinsk,53.71028,91.6875,RU,72781,1498693,Minusinsk,0.0,0.0,0.01,0.01,0.11,0.02,0.08,0.1,0.13,0.03,0.0,0.0
Miass,55.045,60.10833,RU,167500,1498894,Miass,0.0,0.0,0.0,0.03,0.04,0.05,0.09,0.06,0.02,0.04,0.0,0.0
Mezhdurechensk,53.69417,88.06028,RU,101026,1498920,Mezhdurechensk,0.0,0.0,0.02,0.03,0.22,0.05,0.07,0.06,0.12,0.06,0.01,0.0
Megion,61.0296,76.1136,RU,48691,1499053,Megion,0.0,0.0,0.0,0.01,0.06,0.22,0.03,0.14,0.06,0.07,0.0,0.0
Mayma,52.01577,85.90963,RU,15428,1499163,Mayma,0.0,0.0,0.04,0.04,0.18,0.03,0.11,0.11,0.05,0.06,0.02,0.0
Mariinsk,56.21389,87.74722,RU,43122,1499350,Mariinsk,0.0,0.0,0.01,0.03,0.11,0.05,0.13,0.06,0.06,0.02,0.0,0.0
Linëvo,54.4589,83.3764,RU,21816,1500532,Linëvo,0.0,0.0,0.01,0.03,0.1,0.07,0.08,0.04,0.07,0.03,0.0,0.0
Lesosibirsk,58.23583,92.48278,RU,65945,1500607,Lesosibirsk,0.0,0.0,0.01,0.06,0.07,0.04,0.02,0.06,0.08,0.02,0.0,0.0
Leninsk-Kuznetsky,54.6567,86.1737,RU,109023,1500665,Leninsk-Kuznetsky,0.0,0.0,0.02,0.03,0.12,0.07,0.07,0.04,0.08,0.03,0.0,0.0
Labytnangi,66.65722,66.41833,RU,27067,1500933,Labytnangi,0.0,0.0,0.0,0.0,0.01,0.13,0.03,0.05,0.13,0.05,0.0,0.0
Kyzyl,51.71081,94.45338,RU,116983,1500973,Kyzyl,0.0,0.0,0.0,0.01,0.05,0.02,0.2,0.09,0.09,0.01,0.0,0.0
Kyshtym,55.714,60.5528,RU,41625,1500997,Kyshtym,0.0,0.0,0.0,0.03,0.06,0.07,0.1,0.12,0.03,0.07,0.0,0.0
Kuybyshev,55.44753,78.32181,RU,48308,1501141,Kuybyshev,0.0,0.0,0.01,0.07,0.09,0.11,0.08,0.15,0.04,0.03,0.0,0.0
Kurtamysh,54.91028,64.43194,RU,17936,1501255,Kurtamysh,0.0,0.0,0.01,0.03,0.06,0.06,0.07,0.08,0.03,0.03,0.0,0.0
Kurgan,55.45,65.33333,RU,309285,1501321,Kurgan,0.0,0.0,0.01,0.03,0.08,0.06,0.07,0.07,0.03,0.02,0.0,0.0
Kupino,54.36635,77.29805,RU,16333,1501365,Kupino,0.0,0.0,0.01,0.08,0.08,0.09,0.04,0.1,0.04,0.03,0.01,0.0
Kulunda,52.566,78.9385,RU,15345,1501460,Kulunda,0.0,0.0,0.02,0.05,0.1,0.08,0.06,0.04,0.06,0.05,0.0,0.0
Krasnoyarsk,56.01839,92.86717,RU,1090811,1502026,Krasnoyarsk,0.0,0.0,0.01,0.01,0.07,0.03,0.05,0.04,0.09,0.02,0.0,0.0
