name,latitude,longitude,country,population,id,city,jan,feb,mar,apr,may,jun,jul,aug,sep,oct,nov,dec
Vranov nad Topľou,48.88836,21.68479,SK,23246,723195,Vranov nad Topľou,0.01,0.02,0.09,0.1,0.08,0.04,0.17,0.01,0.1,0.01,0.08,0.08
Trebišov,48.62858,21.71954,SK,22947,723358,Trebišov,0.01,0.02,0.09,0.09,0.07,0.05,0.13,0.02,0.09,0.01,0.07,0.09
Stará Ľubovňa,49.29859,20.6862,SK,16000,723505,Stará Ľubovňa,0.01,0.02,0.04,0.1,0.12,0.09,0.21,0.09,0.06,0.02,0.05,0.03
Spišská Nová Ves,48.94464,20.56153,SK,39195,723526,Spišská Nová Ves,0.0,0.0,0.06,0.13,0.08,0.08,0.19,0.07,0.07,0.03,0.08,0.05
Snina,48.98857,22.15099,SK,22221,723559,Snina,0.01,0.02,0.09,0.1,0.08,0.04,0.17,0.01,0.1,0.01,0.08,0.08
Rožňava,48.66009,20.53758,SK,19261,723713,Rožňava,0.01,0.01,0.07,0.1,0.06,0.03,0.15,0.03,0.05,0.02,0.08,0.05
Rimavská Sobota,48.38284,20.02239,SK,25235,723736,Rimavská Sobota,0.01,0.02,0.08,0.1,0.03,0.05,0.14,0.03,0.06,0.04,0.09,0.06
Prešov,48.99839,21.23393,SK,83897,723819,Prešov,0.0,0.01,0.07,0.1,0.09,0.05,0.18,0.04,0.09,0.01,0.07,0.05
Poprad,49.06144,20.29798,SK,57431,723846,Poprad,0.0,0.01,0.07,0.12,0.07,0.07,0.19,0.07,0.05,0.03,0.09,0.05
Michalovce,48.75434,21.9195,SK,40360,724144,Michalovce,0.01,0.02,0.09,0.1,0.08,0.04,0.17,0.01,0.1,0.01,0.08,0.08
Košice,48.71395,21.25808,SK,228249,724443,Košice,0.01,0.02,0.08,0.11,0.06,0.06,0.14,0.03,0.07,0.01,0.07,0.06
Kežmarok,49.13571,20.43352,SK,16381,724503,Kežmarok,0.0,0.02,0.05,0.11,0.11,0.1,0.21,0.1,0.06,0.02,0.05,0.03
Humenné,48.93707,21.91625,SK,35367,724627,Humenné,0.01,0.02,0.09,0.1,0.08,0.04,0.17,0.01,0.1,0.01,0.08,0.08
Bardejov,49.29175,21.27271,SK,33060,725168,Bardejov,0.0,0.01,0.06,0.08,0.11,0.06,0.18,0.03,0.09,0.01,0.06,0.05
Zvolen,48.57442,19.15324,SK,44502,3056459,Zvolen,0.01,0.03,0.11,0.1,0.03,0.04,0.16,0.03,0.07,0.04,0.12,0.07
Zlaté Moravce,48.38553,18.40063,SK,15618,3056495,Zlaté Moravce,0.02,0.04,0.12,0.07,0.04,0.04,0.15,0.04,0.06,0.05,0.11,0.05
Žilina,49.22315,18.73941,SK,81940,3056508,Žilina,0.02,0.04,0.13,0.07,0.09,0.05,0.25,0.07,0.07,0.04,0.14,0.05
Žiar nad Hronom,48.59184,18.84958,SK,19392,3056523,Žiar nad Hronom,0.02,0.04,0.11,0.08,0.04,0.03,0.16,0.03,0.07,0.04,0.12,0.06
Trnava,48.37741,17.58723,SK,63194,3057124,Trnava,0.03,0.05,0.09,0.04,0.05,0.05,0.15,0.05,0.06,0.04,0.09,0.05
Trenčín,48.89452,18.04436,SK,58278,3057140,Trenčín,0.02,0.05,0.11,0.05,0.08,0.06,0.24,0.07,0.06,0.05,0.12,0.05
Stupava,48.27474,17.03173,SK,15095,3057384,Stupava,0.04,0.04,0.1,0.03,0.04,0.03,0.11,0.05,0.07,0.04,0.09,0.04
Staré Mesto,48.15039,17.09002,SK,46080,3057478,Staré Mesto,0.04,0.04,0.1,0.03,0.04,0.03,0.11,0.05,0.07,0.04,0.09,0.04
Skalica,48.8449,17.22635,SK,15013,3057630,Skalica,0.03,0.05,0.1,0.03,0.07,0.06,0.2,0.07,0.06,0.05,0.1,0.05
Senica,48.67922,17.36697,SK,21741,3057691,Senica,0.03,0.05,0.1,0.03,0.07,0.06,0.2,0.07,0.06,0.05,0.1,0.05
Šaľa,48.15127,17.88062,SK,24513,3057769,Šaľa,0.03,0.04,0.12,0.06,0.04,0.04,0.14,0.03,0.06,0.05,0.1,0.05
Ružomberok,49.0748,19.30751,SK,30806,3057789,Ružomberok,0.01,0.03,0.13,0.11,0.08,0.07,0.22,0.07,0.07,0.05,0.14,0.05
Púchov,49.12494,18.32597,SK,18833,3057963,Púchov,0.02,0.05,0.12,0.06,0.08,0.06,0.24,0.07,0.06,0.05,0.13,0.06
Prievidza,48.77446,18.6275,SK,52987,3058000,Prievidza,0.02,0.05,0.14,0.09,0.07,0.04,0.19,0.05,0.07,0.06,0.14,0.06
Považská Bystrica,49.12153,18.42169,SK,43936,3058060,Považská Bystrica,0.02,0.05,0.12,0.07,0.07,0.05,0.23,0.06,0.06,0.05,0.13,0.06
Piešťany,48.59479,17.82591,SK,30000,3058202,Piešťany,0.03,0.05,0.1,0.05,0.05,0.04,0.16,0.04,0.06,0.04,0.1,0.05
Pezinok,48.28986,17.26664,SK,21343,3058210,Pezinok,0.04,0.05,0.1,0.04,0.04,0.03,0.12,0.06,0.07,0.05,0.08,0.04
Partizánske,48.62861,18.38455,SK,24370,3058268,Partizánske,0.02,0.05,0.13,0.07,0.07,0.04,0.18,0.05,0.06,0.05,0.13,0.05
Nové Zámky,47.98544,18.16195,SK,37899,3058472,Nové Zámky,0.02,0.03,0.11,0.07,0.04,0.03,0.15,0.04,0.06,0.04,0.09,0.05
Nové Mesto nad Váhom,48.75763,17.8309,SK,21527,3058477,Nové Mesto nad Váhom,0.03,0.05,0.09,0.04,0.05,0.05,0.15,0.05,0.06,0.04,0.09,0.05
Nitra,48.30763,18.08453,SK,86329,3058531,Nitra,0.03,0.04,0.12,0.06,0.04,0.04,0.14,0.03,0.06,0.05,0.1,0.05
Martin,49.06651,18.92399,SK,54618,3058780,Martin,0.01,0.04,0.14,0.09,0.08,0.06,0.21,0.06,0.07,0.06,0.14,0.05
Malacky,48.43604,17.02188,SK,17773,3058897,Malacky,0.03,0.04,0.1,0.03,0.06,0.05,0.12,0.06,0.07,0.04,0.09,0.04
Lučenec,48.33249,19.66708,SK,28159,3058986,Lučenec,0.01,0.02,0.08,0.1,0.03,0.05,0.14,0.03,0.06,0.04,0.09,0.06
Liptovský Mikuláš,49.08061,19.62218,SK,31194,3059050,Liptovský Mikuláš,0.0,0.02,0.12,0.13,0.08,0.08,0.22,0.07,0.08,0.06,0.15,0.05
Levice,48.21563,18.60705,SK,37574,3059101,Levice,0.02,0.04,0.11,0.07,0.04,0.03,0.16,0.03,0.06,0.04,0.11,0.05
Kysucké Nové Mesto,49.3,18.78333,SK,16558,3059179,Kysucké Nové Mesto,0.02,0.04,0.13,0.07,0.09,0.05,0.25,0.07,0.07,0.04,0.14,0.05
Komárno,47.76356,18.12263,SK,32643,3059436,Komárno,0.03,0.03,0.1,0.07,0.04,0.03,0.14,0.03,0.06,0.04,0.07,0.05
Hlohovec,48.43174,17.8031,SK,23930,3060095,Hlohovec,0.03,0.05,0.1,0.05,0.05,0.04,0.16,0.04,0.06,0.04,0.1,0.05
Handlová,48.7276,18.76012,SK,18018,3060139,Handlová,0.02,0.05,0.12,0.08,0.07,0.05,0.22,0.06,0.06,0.05,0.14,0.05
Galanta,48.19001,17.72747,SK,15013,3060219,Galanta,0.03,0.04,0.1,0.05,0.03,0.04,0.13,0.04,0.06,0.04,0.09,0.05
Dunajská Streda,47.99268,17.61211,SK,22730,3060308,Dunajská Streda,0.04,0.04,0.1,0.05,0.03,0.04,0.11,0.06,0.06,0.04,0.07,0.05
Dubnica nad Váhom,48.95981,18.16634,SK,23762,3060346,Dubnica nad Váhom,0.02,0.05,0.12,0.06,0.08,0.06,0.24,0.07,0.06,0.05,0.13,0.06
Dolný Kubín,49.20983,19.30341,SK,18995,3060405,Dolný Kubín,0.02,0.04,0.12,0.1,0.14,0.14,0.33,0.11,0.1,0.05,0.13,0.04
Čadca,49.43503,18.78895,SK,24670,3060835,Čadca,0.03,0.07,0.13,0.08,0.15,0.11,0.35,0.1,0.09,0.05,0.12,0.03
Brezno,48.80431,19.63631,SK,21331,3060950,Brezno,0.0,0.02,0.12,0.14,0.04,0.06,0.16,0.03,0.07,0.06,0.13,0.07
Bratislava,48.14816,17.10674,SK,423737,3060972,Bratislava,0.04,0.04,0.1,0.03,0.04,0.03,0.11,0.05,0.07,0.04,0.09,0.04
Banská Bystrica,48.73946,19.15349,SK,75317,3061186,Banská Bystrica,0.0,0.02,0.12,0.14,0.04,0.06,0.16,0.03,0.07,0.06,0.13,0.07
Bánovce nad Bebravou,48.7213,18.25754,SK,18933,3061188,Bánovce nad Bebravou,0.03,0.05,0.11,0.06,0.06,0.04,0.16,0.03,0.06,0.05,0.12,0.06
