geonameid;name;latitude;longitude;countrycode;population;timezone;admin1code;alternatenames;continentcode
3040051;les Escaldes;42.50729;1.53414;AD;15853;Europe/Andorra;08;"[""Ehskal'des-Ehndzhordani"", 'Escaldes', 'Escaldes-Engordany', 'Les Escaldes', 'esukarudesu=engorudani jiao qu', 'lai sai si ka er de-en ge er da', 'Эскальдес-Энджордани', 'エスカルデス＝エンゴルダニ教区', '萊塞斯卡爾德-恩戈爾達', '萊塞斯卡爾德－恩戈爾達']";EU
3041563;Andorra la Vella;42.50779;1.52109;AD;20430;Europe/Andorra;07;"['ALV', 'Ando-la-Vyey', 'Andora', 'Andora la Vela', 'Andora la Velja', ""Andora lja Vehl'ja"", 'Andoro Malnova', 'Andorra', 'Andorra Tuan', 'Andorra a Vella', 'Andorra la Biella', 'Andorra la Vella', 'Andorra la Vielha', 'Andorra-a-Velha', ""Andorra-la-Vel'ja"", 'Andorra-la-Vielye', 'Andorre-la-Vieille', 'Andò-la-Vyèy', 'Andòrra la Vièlha', 'an dao er cheng', 'andolalabeya', 'andwra la fyla', 'Ανδόρρα', 'Андора ла Веля', 'Андора ла Веља', 'Андора ля Вэлья', 'Андорра-ла-Велья', 'אנדורה לה וולה', 'أندورا لا فيلا', 'አንዶራ ላ ቬላ', 'アンドラ・ラ・ヴェリャ', '安道爾城', '안도라라베야']";EU
363243;Sarandë;39.87534;20.00477;AL;15147;Europe/Tirane;51;['Agioi', 'Agioi Saranta', 'Ayii Saranda', 'Hagios Saranta', 'Onchesmus', 'Porto Edda', 'Santa Quaranta', 'Santi Quaranta', 'Saranda', 'Sarande', 'Sarandë', 'Sarandė', 'Saranta', 'XSA', 'Zogaj', 'sa lan da', 'salandeo', 'saranda', 'sarandh', 'srndh', 'Άγιοι Σαράντα', 'Саранда', 'Սարանդա', 'סרנדה', 'سارانده', 'ساراندہ', 'サランダ', '萨兰达', '사란더'];EU
781988;Pogradec;40.9025;20.6525;AL;61530;Europe/Tirane;46;['Opshtina Pogradec', 'Podgradec', 'Pogradec', 'Pogradeci', 'Pogradecis', 'Pogradets', 'bo ge la de ci', 'pogeuladecheu', 'poguradetsu', 'pwgradts', 'pwgrdz', 'Πόγραδετς', 'Општина Поградец', 'Поградец', 'Подградец', 'פוגרדץ', 'پوگرادتس', 'ポグラデツ', '波格拉德茨', '포그라데츠'];EU
782661;Kukës;42.07694;20.42194;AL;17832;Europe/Tirane;47;['Cucus', 'KFZ', 'Kukes', 'Kukesi', 'Kuks', 'Kuksi', 'Kukuch', 'Kukus', 'Kukush', 'Kukës', 'Kukësi', 'Кукес', 'Кукуш', 'Кукъс'];EU
782756;Korçë;40.61861;20.78083;AL;58259;Europe/Tirane;46;['Corce', 'Corcë', 'Coritsa', 'Coritza', 'Coriza', 'Corizza', 'Corriza', 'Ghiortsa Corcia', 'Goerice', 'Gorica', 'Goritsa', 'Görice', 'Korca', 'Korce', 'Korcha', 'Korche', 'Korcza', 'Korica', 'Korice', 'Koritsa', 'Koritza', 'Korrca', 'Korrce', 'Korrça', 'Korrçë', 'Korytsa', 'Korça', 'Korçë', 'Korča', 'Korčė', 'Körice', 'ke er cha', 'koleucheo', 'korucha', 'kwrchh', 'qwrzh', 'Κορυτσά', 'Горица', 'Корча', 'Կորչա', 'קורצה', 'کورچه', 'کورچہ', 'コルチャ', '科尔察', '코르처'];EU
783148;Gjirokastër;40.07583;20.13889;AL;23437;Europe/Tirane;45;['Agirocastro', 'Arghirocastru', 'Arghyrocastro', 'Argirocastro', 'Argirokastro', 'Argyrocastrum', 'Argyrokastro', 'Argyrokastron', 'Aryirokastro', 'Aryirokastron', 'Ergheni', 'Ergiri', 'GJirokastra', 'Ghinokastre', 'Girokasteris', 'Girokastra', 'Girokastro', 'Gjinokaster', 'Gjinokastra', 'Gjinokastre', 'Gjinokastrer', 'Gjinokastër', 'Gjirokaster', 'Gjirokastra', 'Gjirokastre', 'Gjirokastro', 'Gjirokastrë', 'Gjirokastër', 'arjyr', 'gyrwqstrh', 'ji nuo ka si te', 'jilokaseuteoleu', 'jirokasutora', 'jyrwkastr', 'Đirokastra', 'Αργυρόκαστρο', 'Ђирокастра', 'Ѓирокастро', 'Аргирокастро', 'Гирокастра', 'Гирокастро', 'Гірокастра', 'גירוקסטרה', 'ارجیر', 'جیروکاستر', 'გიროკასტრა', 'ジロカストラ', '吉诺卡斯特', '지로카스터르'];EU
783263;Elbasan;41.1125;20.08222;AL;100903;Europe/Tirane;43;"[""Ehl'basan"", 'Elbasan', 'Elbasani', 'Elbassan', 'Konukh', 'Елбасан', 'Коњух', 'Эльбасан']";EU
783493;Burrel;41.61028;20.00889;AL;15405;Europe/Tirane;41;"['Burel', 'Burela', 'Burele', 'Bureli', 'Burelis', 'Burelë', 'Burrel', ""Burrel'"", 'Burrele', 'Burreli', 'Burrelë', 'bu lei li', 'bulel', 'bureru', 'bwrly', 'Бурел', 'Буррели', 'Буррель', 'بورلی', 'ブレル', '布雷利', '부렐']";EU
3183719;Vlorë;40.4686;19.48318;AL;89546;Europe/Tirane;51;"[""Au'lon"", 'Au’lon', 'Avlon', 'Avlona', 'Avlonas', 'Avlonya', 'VRR', 'Vallona', 'Valona', ""Vl'ora"", 'Vliore', 'Vliorė', 'Vljora', 'Vlona', 'Vlone', 'Vlonë', 'Vlora', 'Vlore', 'Vlorë', 'Vlyora', 'Vļora', 'Wlora', 'beulloleo', 'fa luo la', 'flwrh', 'vurora', 'wlo rex', 'wlwrh', 'Αυλώνας', 'Валона', 'Вльора', 'Влёра', 'Վլորա', 'ולורה', 'فلوره', 'ولوره', 'ولورہ', 'วโลเรอ', 'ヴロラ', '发罗拉', '블로러']";EU
3183875;Tirana;41.3275;19.81889;AL;418495;Europe/Tirane;50;['TIA', 'Terana', 'Theranda', 'Tiorana', 'Tiorána', 'Tiran', 'Tiran khot', 'Tiran-a', 'Tirana', 'Tiranae', 'Tirane', 'Tirano', 'Tiranë', 'Tirāna', 'Trnava', 'Tyrana', 'Tyranna', 'Tírana', 'Tîrana', 'Tėrana', 'de la na', 'tilana', 'tirana', 'tyrana', 'tyrnh', 'Τίρανα', 'Тиран хот', 'Тиранæ', 'Тирана', 'Тиране', 'Трнава', 'Тырана', 'Տիրանա', 'טיראנא', 'טירנה', 'تىرانا', 'تيرانا', 'تیرانا', 'तिराना', 'তিরানা', 'ਤਿਰਾਨਾ', 'ଟିରାନା', 'டிரானா', 'ടിറാന', 'ติรานา', 'ཐིས་རན།', 'ტირანა', 'ቲራና', 'ティラナ', '地拉那', '티라나'];EU
3184081;Shkodër;42.06828;19.51258;AL;88245;Europe/Tirane;49;['Iskodra', 'Scutari', 'Shkoder', 'Shkodra', 'Shkodër', 'Skadar', 'Skodra', 'Szkodra', 'sqwdr', 'İşkodra', 'Škodra', 'Скадар', 'Шкодер', 'Шкодра', 'שקודר'];EU
3184517;Patos Fshat;40.64278;19.65083;AL;22679;Europe/Tirane;44;['Patos Fshat', 'Patosi Fshat'];EU
3184518;Patos;40.68333;19.61944;AL;16000;Europe/Tirane;44;['Pahtosa', 'Pahtosi', 'Patos', 'Patosi', 'Patosis', 'pa tu si', 'Патос', '帕圖斯'];EU
3184862;Lushnjë;40.94194;19.705;AL;41469;Europe/Tirane;44;['Liusne', 'Liušnė', 'Ljushna Cod a Gomares', 'Ljushnja', 'Ljusnje', 'Ljušnje', 'Lousnia', 'Lushne', 'Lushnja', 'Lushnje', 'Lushnjë', 'Lusnje', 'Lušnje', 'lu shen nie', 'lusyunyeo', 'lwshnyh', 'rushunya', 'Лушње', 'Люшня', 'لوشنيه', 'لوشنیہ', 'ルシュニャ', '卢什涅', '루슈녀'];EU
3184935;Lezhë;41.78361;19.64361;AL;18695;Europe/Tirane;48;['Alessio', 'Les', 'Lesh', 'Leshe', 'Leshi', 'Leska', 'Leze', 'Lezh', 'Lezha', 'Lezhe', 'Lezhë', 'Leş', 'Ležė', 'Lisi', 'Ljes', 'Ljesh', 'Lješ', 'Lyesh', 'lai shen', 'lejeo', 'lezha', 'lzhh', 'Љеш', 'Лежа', 'Леска', 'لژه', 'لژہ', 'ლეჟა', '莱什', '레저'];EU
3185012;Laç;41.63556;19.71306;AL;24825;Europe/Tirane;48;['Lac', 'Lach', 'Lachi', 'Laci', 'Lak', 'Latsch', 'Laç', 'Laçi', 'Liacis', 'Liačis', 'Ljach', 'la qi', 'lasy', 'Лак', 'Лач', 'Лачі', 'Ляч', 'لاسی', '拉奇'];EU
3185082;Krujë;41.50917;19.79278;AL;21286;Europe/Tirane;42;['Akcehisar', 'Akçehisar', 'Croia', 'Cruja', 'Krna', 'Kroia', 'Kroja', 'Kroya', 'Kroïa', 'Krue', 'Krueja', 'Kruja', 'Kruje', 'Krujë', 'Круе'];EU
3185211;Kavajë;41.18556;19.55694;AL;29354;Europe/Tirane;50;['Cavaia', 'Cavaja', 'Kavaia', 'Kavaj', 'Kavaja', 'Kavaje', 'Kavajë', 'Kavajė', 'Kavalye', 'Kavaya', 'Kavaïa', 'Kawaja', 'ka wa ya', 'kabayeo', 'kawayh', 'Кавайе', 'Кавая', 'Каваја', 'کاوایه', 'کاوایہ', '卡瓦亚', '카바여'];EU
3185670;Fier-Çifçi;40.71667;19.56667;AL;60995;Europe/Tirane;44;[''];EU
3185672;Fier;40.72389;19.55611;AL;56297;Europe/Tirane;44;"['Fearica', 'Fier', 'Fieri', 'Fieris', 'Fijer', 'Fjer', 'Fjeri', ""a pha'ira"", 'fei xia er', 'fieru', 'fyr', 'pieleu', 'Фиер', 'Фиери', 'Фієрі', 'Фјер', 'فیر', 'अ फाइर', 'フィエル', '非夏爾', '피에르']";EU
3185728;Durrës;41.32355;19.45469;AL;122034;Europe/Tirane;42;['DUH', 'Drac', 'Drach', 'Drač', 'Duraso', 'Durazo', 'Durazzo', 'Durazzu', 'Durehs', 'Dures', 'Duresi', 'Duresis', 'Durrazo', 'Durres', 'Durresa', 'Durresi', 'Durrsi', 'Durrës', 'Durrësi', 'Durts', 'Durus', 'Durz', 'Durësi', 'Dyrrachio', 'Dyrrachium', 'Dyrrakhion', 'Dyrrhachium', 'Epidamnos', 'dou la si', 'dourasu', 'draj', 'dras', 'duleoseu', 'duresi', 'durres', 'dwrs', 'Δυρράχιο', 'Драч', 'Дуррес', 'Дуръс', 'Дурэс', 'דורס', 'دراج', 'دراس', 'ดูร์เรส', 'დურესი', 'ドゥラス', '都拉斯', '두러스'];EU
3186084;Berat;40.70583;19.95222;AL;46866;Europe/Tirane;40;['Belgrad', 'Beligrad', 'Berat', 'Berati', 'Beration', 'Beratis', 'Berta', 'Bərat', 'Lezskigrad', 'Verati', 'Veration', 'belateu', 'berato', 'brat', 'byrat', 'pei la te', 'Μπεράτ', 'Белград', 'Берат', 'Բերատ', 'בראט', 'برات', 'بیرات', 'ბერატი', 'ベラト', '培拉特', '베라트'];EU
2761164;Wilten;47.25829;11.38808;AT;18142;Europe/Vienna;07;[''];EU
2761353;Wiener Neustadt;47.80485;16.23196;AT;44820;Europe/Vienna;03;['Becko Novo Mjesto', 'Becsujhely', 'Becsujvaros', 'Bečko Novo Mjesto', 'Bécsújhely', 'Bécsújváros', 'Dunajsko Novo mesto', 'Nemet-Ujhely', 'Nova civitas Vindobonensis', 'Német-Újhely', 'Videnske Nove Mesto', 'Viedenske Nove Mesto', 'Viedenské Nové Mesto', 'Viner Noistat', 'Viner Nojshhat', 'Viner Nojshtat', 'Viner-Nojshtadt', 'Viner-Nojstadt', 'Vyner Noistatas', 'Vyner Noištatas', 'Vídeňské Nové Město', 'Weana Neistod', 'Wiener Neustadt', 'Wr. Neustadt', 'bineonoisyutateu', 'fynr nwyshtat', 'wei ye na xin cheng', 'wynr nwyshtat', 'wynr nwystt', 'Βίνερ Νόιστατ', 'Винер Нойщат', 'Винер Нојштат', 'Винер-Нойштадт', 'Вінер-Нойштадт', 'וינר נוישטט', 'فينر نويشتات', 'وینر نویشتات', 'وینر نیوشٹڈ', 'ვინერ-ნოიშტადტი', 'ウィーナー・ノイシュタット', '維也納新城', '비너노이슈타트'];EU
2761369;Vienna;48.20849;16.37208;AT;1691468;Europe/Vienna;09;"['Bec', 'Bech', 'Becs', 'Beç', 'Beč', 'Bienne', 'Bécs', 'Dunaj', 'Fiena', 'VIE', 'Vena', 'Viden', ""Viden'"", 'Vieden', 'Viedeň', 'Viena', 'Vienna', 'Vienne', 'Vieno', 'Viin', 'Vin', 'Vinarborg', 'Vindobona', 'Viyana', 'Vídeň', 'Vín', 'Vínarborg', 'Wenen', 'Wieden', 'Wiedeń', 'Wien', 'bienna', 'bin', 'fyyna', 'wei ye na', 'weiynna', 'Βιέννη', 'Беч', 'Вена', 'Виена', 'Відень', 'فيينا', 'เวียนนา', 'ቪየና', '維也納', '비엔나', '빈']";EU
2761436;Wetzelsdorf;47.05293;15.39923;AT;15687;Europe/Vienna;06;['Wetzelsdorf'];EU
2761524;Wels;48.16667;14.03333;AT;16857;Europe/Vienna;04;"['Ovilava', ""Vel's"", 'Wels', 'wls', 'Вельс', 'ולס']";EU
2761669;Weinzierl bei Krems;48.4;15.6;AT;24092;Europe/Vienna;03;['Weinzierl', 'Weinzierl bei Krems'];EU
2762372;Villach;46.61028;13.85583;AT;58882;Europe/Vienna;02;['Beljak', 'Filachas', 'Filakh', 'Fillach', 'Fillaha', 'Fillakh', 'QVL', 'Santicum', 'Vilac', 'Villach', 'Villaco', 'fei la he', 'fil lakh', 'firahha', 'fylakh', 'pilakhi', 'pillaheu', 'pylʼk', 'wylakh', 'Φίλλαχ', 'Филах', 'Филлах', 'Філах', 'Філлах', 'פילאך', 'فیلاخ', 'ویلاخ', 'ฟิลลาค', 'ფილახი', 'フィラッハ', '菲拉赫', '필라흐'];EU
2763810;Telfs;47.30707;11.06817;AT;15229;Europe/Vienna;07;"[""Tel'fs"", 'Telfs', 'tai er fu si', 'tlfs', 'tlps', 'Телфс', 'Тельфс', 'טלפס', 'تلفس', 'ტელფსი', '泰爾夫斯']";EU
2764178;Straßgang;47.03333;15.4;AT;16268;Europe/Vienna;06;['Strassgang', 'Straßgang'];EU
2764279;Stockerau;48.38333;16.21667;AT;16292;Europe/Vienna;03;['Shhokerau', 'Shtokerau', 'Shtokkerau', 'Stockerau', 'Stokerau', 'astwkrayw', 'shi tuo ke lao', 'Štokerau', 'Штокерау', 'Штоккерау', 'Щокерау', 'שטוקראו', 'استوکرائو', 'შტოკერაუ', 'ስቶከራው', '施托克勞'];EU
2764359;Steyr;48.04274;14.42127;AT;38331;Europe/Vienna;04;['Shhajr', 'Shtajr', 'Stagier', 'Steiras', 'Steyer', 'Steyr', 'Steyr Stadt', 'ashtayr', 'shi tai er', 'shutaia', 'styyr', 'syutaieo', 'Šteiras', 'Στάγιερ', 'Штайр', 'Штајр', 'Щайр', 'שטייר', 'اشتایر', 'შტაირი', 'シュタイアー', '施泰爾', '슈타이어'];EU
2765028;Simmering;48.18333;16.43333;AT;101420;Europe/Vienna;09;['Simmering'];EU
2766429;Sankt Pölten;48.2;15.63333;AT;21911;Europe/Vienna;03;"['Cetium', 'POK', 'Poelten', 'Pölten', 'Saint Poelten', 'Saint Pölten', ""Sankt P'olten"", 'Sankt Pelten', 'Sankt Peltenas', 'Sankt Poelten', 'Sankt Polten', 'Sankt Polton', 'Sankt Pölten', 'Sankt Pölton', ""Sankt-Pel'ten"", ""Sankt-Pjol'tehn"", ""Sankt-Pjol'ten"", 'Sankt-Pyolten', 'Sanktpeltene', 'St. Poelten', 'St. Poetn', 'St. Pölten', 'St. Pötn', 'Sveti Hipolit', ""Zan'kt Pelten"", 'jangkeuteupoelten', 'jankta pyoltana', 'sang th pheil thein', 'sheng pa er teng', 'snqt pltn', 'zankt pwltn', 'Ζανκτ Πέλτεν', 'Санкт Пелтен', 'Санкт Пьолтен', 'Санкт-Пельтен', 'Санкт-Пёльтен', 'Санкт-Пёльтэн', 'סנקט פלטן', 'زانکت پولتن', 'سینکت پولٹن', 'जांक्ट प्योल्टन', 'ซังท์เพิลเทิน', 'სანქტ-პელტენი', 'ザンクト・ペルテン', '聖帕爾滕', '장크트푈텐']";EU
2766446;Sankt Peter;47.05;15.46667;AT;15187;Europe/Vienna;06;['Sankt Peter', 'Sankt Peter bei Graz'];EU
2766447;Sankt Peter;46.62978;14.34016;AT;20320;Europe/Vienna;02;['10.Bezirk', 'Klagenfurt 10.Bez.:St. Peter', 'St. Peter-Welzenegg'];EU
2766522;Sankt Martin;46.61667;14.28333;AT;20000;Europe/Vienna;02;['Sankt Martin', 'Smartin pri Celovcu- Otoce', 'St. Martin-Waidmannsdorf', 'XII St. Martin', 'Šmartin pri Celovcu- Otoče'];EU
2766824;Salzburg;47.79941;13.04399;AT;157245;Europe/Vienna;05;"['Estado de Salzburgo', 'Ijolati Zaltsburg', 'Lungsod ng Salzburg', 'SZG', 'Saizburg', 'Salcburg', 'Salcburk', 'Salisburgh', 'Salisburgium', 'Salisburgo', 'Salisburgu', 'Salisburgum', 'Saltsmpournk', 'Saltzburg', 'Salzborg', 'Salzbourg', 'Salzburg', 'Salzburgi liidumaa', 'Salzburgo', 'Salzbursko', 'Sałisburgo', 'Såizburg', ""Zal'cburg"", 'Zalcburg', 'Zalcburga', 'Zalcburgas', 'Zaltsburq', 'chai er ci bei ge', 'jalcheubuleukeu', 'jaltsaburga', 'sa er ci bao', 'sa er si bao', 'salajaburga', 'saljhabarga', 'sals bur k', 'salzaborga', 'salzbrg', 'salzbwrgh', 'zaltsburgi', 'zaltsbwrg', 'zarutsuburuku', 'zlzbwrg', 'Σάλτσμπουργκ', 'Залцбург', 'Зальцбург', 'Иёлати Залтсбург', 'Салцбург', 'Զալցբուրգ', 'זאלצבורג', 'זלצבורג', 'زالتسبورگ', 'سالزبرگ', 'سالزبورغ', 'जाल्त्सबुर्ग', 'साल्ज़बोर्ग', 'সলজবুর্গ', 'સાલ્ઝબર્ગ', 'ಸಾಲ್ಜ್\u200cಬರ್ಗ್\u200c', 'ซาลซ์บูร์ก', 'ზალცბურგი', 'ザルツブルク', '柴尔兹孛格', '萨尔斯堡', '萨尔茨堡', '薩爾斯堡', '잘츠부르크']";EU
2766922;Saalfelden am Steinernen Meer;47.42681;12.848;AT;16790;Europe/Vienna;05;"['Saafelden', 'Saalfelden', 'Saalfelden am Steinernen Meer', 'Salfelden', ""Zal'fel'den-am-Shtajnernen-Meer"", 'Зальфельден-ам-Штайнернен-Меер']";EU
2768442;Pradl;47.26539;11.4152;AT;32588;Europe/Vienna;07;[''];EU
2769110;Perchtoldsdorf;48.11935;16.26607;AT;15047;Europe/Vienna;03;"['Paedaschduaf', ""Perkhtol'dsdorf"", 'Perkhtoldzdorf', 'Petersdorf', 'Pädaschduaf', 'pei xi tuo er ci duo fu', 'prshtwlsdwrf', 'Перхтолдздорф', 'Перхтольдсдорф', 'پرشتولسدورف', 'პერხტოლდსდორფი', '佩希托爾茨多夫']";EU
2769359;Ottakring;48.21667;16.3;AT;104627;Europe/Vienna;09;['Ottakring'];EU
2771335;Mödling;48.08605;16.28921;AT;20555;Europe/Vienna;03;['Medling', 'Medlingas', 'Mjodling', 'Moedling', 'Mödling', 'Mėdlingas', 'mdlyng', 'medlingi', 'mo de lin', 'mwdlyng', 'Медлинг', 'Мёдлинг', 'מדלינג', 'مودلینگ', 'მედლინგი', '默德林'];EU
2771706;Meidling;48.16667;16.33333;AT;97624;Europe/Vienna;09;['Meidling'];EU
2772173;Lustenau;47.42642;9.65851;AT;22821;Europe/Vienna;08;['Lustenau', 'lu si te nao', 'luseutenau', 'rusutenau', 'Лустенау', 'לוסטנאו', 'لوستن\u200cآئو', 'ლუსტენაუ', 'ルステナウ', '盧斯特瑙', '루스테나우'];EU
2772400;Linz;48.30639;14.28611;AT;204846;Europe/Vienna;04;['LNZ', 'Lentia', 'Linc', 'Linca', 'Lincas', 'Linec', 'Lints', 'Linz', 'lin ci', 'lincheu', 'lins', 'lintsa', 'lintsi', 'lnz', 'lynts', 'lyntz', 'lynz', 'rintsu', 'Λιντς', 'Линц', 'Лінц', 'Լինց', 'לינץ', 'لنز', 'لينتز', 'لینتس', 'लिंत्स', 'ลินซ์', 'ლინცი', 'リンツ', '林茨', '린츠'];EU
2773913;Klosterneuburg;48.30521;16.32522;AT;15614;Europe/Vienna;03;['Klostehrnojburg', 'Klosterneuberg', 'Klosterneuburg', 'Klosternoiburgas', 'Klosternojburg', 'Vajdlingbakh-und-Shajblinshtajn', 'ke luo si te xin bao', 'klwstrnwybwrg', 'kurosutanoiburuku', 'Вайдлингбах-унд-Шайблинштайн', 'Клостернойбург', 'Клостернојбург', 'Клостэрнойбург', 'کلوسترنویبورگ', 'کوسٹرنیوبرگ', 'კლოსტერნოიბურგი', 'クロスターノイブルク', '克洛斯特新堡'];EU
2774326;Klagenfurt am Wörthersee;46.62472;14.30528;AT;100316;Europe/Vienna;02;['Celovac', 'Celovec', 'Clagenfurtum', 'KLU', 'Klagenfurt', 'Klagenfurte', 'Klāgenfurte', 'ke la gen fu', 'kuragenfuruto', 'qlgnpwrt', 'Клагенфурт', 'קלגנפורט', 'クラーゲンフルト', '克拉根福'];EU
2775220;Innsbruck;47.26266;11.39454;AT;132493;Europe/Vienna;07;['INN', 'Innsbruck', 'Innschbruck', 'Insbruc', 'Insbruk', 'Insbruka', 'Insbrukas', 'Insmprouk', 'Inzbruk', 'Pons Aeni', 'ansbrwk', 'anzbrk', 'aynsbrwk', 'insabruka', 'inseubeulukeu', 'insuburukku', 'xin s brukh', 'yin si bei lu ke', 'yin si bu lu ke', 'İnnsbruck', 'İnsbruk', 'Ίνσμπρουκ', 'Інсбрук', 'Инзбрук', 'Инсбрук', 'Ինսբրուք', 'אינסברוק', 'إنسبروك', 'انزبرک', 'اینسبروک', 'इन्सब्रुक', 'ইন্সব্রুক', 'อินส์บรุค', 'ინსბრუკი', 'インスブルック', '因斯孛鲁克', '因斯布鲁克', '인스브루크'];EU
2775260;Innere Stadt;48.20906;16.37135;AT;16450;Europe/Vienna;09;['Inner City'];EU
2775479;Hötting;47.26815;11.36868;AT;35043;Europe/Vienna;07;[''];EU
2775742;Hohenems;47.36121;9.68694;AT;16317;Europe/Vienna;08;['Gogenems', 'HOH', 'Hohenems', 'Khoehnems', 'Khoenems', 'ho-enemseu', 'hoenemsi', 'hoenemusu', 'huo en ai mu si', 'hwhnms', 'Гогенемс', 'Хоенемс', 'Хоэнемс', 'هوهنمس', 'ჰოენემსი', 'ホーエネムス', '霍恩埃姆斯', '호에넴스'];EU
2776421;Hietzing;48.18623;16.2965;AT;54265;Europe/Vienna;09;[''];EU
2776488;Hernals;48.23333;16.26667;AT;57546;Europe/Vienna;09;['Hernals'];EU
2778067;Graz;47.06667;15.45;AT;295424;Europe/Vienna;06;['GRZ', 'Grac', 'Graca', 'Gracas', 'Graco', 'Gradac', 'Gradec', 'Graecia', 'Gratz', 'Graz', 'Grác', 'Gráz', 'Grāca', 'Nkrats', 'Qras', 'Styrsky Hradec', 'ge la ci', 'geulacheu', 'ghrats', 'grats', 'gratsa', 'gratsi', 'guratsu', 'kras', 'Štýrský Hradec', 'Γκρατς', 'Грац', 'Գրաց', 'גראץ', 'غراتس', 'گراتس', 'ग्रात्स', 'กราซ', 'გრაცი', 'グラーツ', '格拉茨', '그라츠'];EU
2779469;Floridsdorf;48.25;16.4;AT;162779;Europe/Vienna;09;['Floridsdorf'];EU
2779674;Feldkirch;47.23306;9.6;AT;33420;Europe/Vienna;08;"[""Fel'dkirkh"", 'Feldkirch', 'pldqyrk', 'Фельдкирх', 'פלדקירך']";EU
2780361;Eggenberg;47.07;15.39871;AT;20511;Europe/Vienna;06;['Eggenberg'];EU
2780741;Dornbirn;47.41427;9.74195;AT;49278;Europe/Vienna;08;['Dornbirn', 'Dornbirnas', 'HOH', 'Ntornmpirn', 'doleunbileun', 'dornbirni', 'dorunbirun', 'duo en bi en', 'dwrnbyrn', 'Ντόρνμπιρν', 'Дорнбирн', 'Дорнбірн', 'דורנבירן', 'درن\u200cبیرن', 'دورنبيرن', 'ڈارنبرن', 'ڈورنبیرن', 'დორნბირნი', 'ドルンビルン', '多恩比恩', '도른비른'];EU
2781503;Bregenz;47.50311;9.7471;AT;29806;Europe/Vienna;08;['Bregenc', 'Bregenca', 'Bregencas', 'Bregence', 'Bregencja', 'Bregenz', 'Brehgenc', 'Brenkentz', 'Brigantium', 'Brégence', 'Brēgenca', 'Brėgencas', 'XGZ', 'ber ken s', 'beulegencheu', 'bregenjha', 'bregentsi', 'brgnts', 'brgnz', 'bryghnz', 'brygnz', 'bu lei gen ci', 'buregentsu', 'Μπρέγκεντζ', 'Брегенц', 'Брэгенц', 'Բրեգենց', 'ברגנץ', 'بريغنز', 'برگنتس', 'برگنز', 'بریگنز', 'ब्रेगेन्झ', 'เบรเกนซ์', 'ბრეგენცი', 'ብሬገንጽ', 'ブレゲンツ', '布雷根茨', '브레겐츠'];EU
2782067;Baden;48.00543;16.23264;AT;26286;Europe/Vienna;03;['Baden', 'Baden bei Wien', 'Badenas', 'Badene pie Vines', 'Bādene pie Vīnes', 'badenbaibin', 'badeni', 'baden・bai・uin', 'badn nzdyk bh wyn', 'wei ye na ba deng', 'Баден', 'באדן', 'بادن نزدیک به وین', 'ბადენი', 'バーデン・バイ・ウィーン', '維也納巴登', '바덴바이빈'];EU
2782555;Amstetten;48.1229;14.87206;AT;15559;Europe/Vienna;03;['Amshheten', 'Amshteten', 'Amshtetten', 'Amsteta', 'Amšteta', 'Aumstettn', 'a mu shi tai teng', 'amshttn', 'amsyuteten', 'amushutetten', 'Амштетен', 'Амштеттен', 'Амщетен', 'آمشتتن', 'ამშტეტენი', 'アムシュテッテン', '阿姆施泰滕', '암슈테텐'];EU
8063098;Favoriten;48.16116;16.38233;AT;201882;Europe/Vienna;09;[''];EU
11903636;Donaustadt;48.2333;16.46002;AT;187007;Europe/Vienna;09;[''];EU
11903637;Jakomini;47.05441;15.44984;AT;32912;Europe/Vienna;06;[''];EU
11903638;Lend;47.08256;15.41589;AT;31147;Europe/Vienna;06;[''];EU
11903639;Geidorf;47.08393;15.444;AT;24767;Europe/Vienna;06;[''];EU
11903640;Sankt Leonhard;47.06924;15.45784;AT;15853;Europe/Vienna;06;[''];EU
11903641;Andritz;47.11387;15.42348;AT;19020;Europe/Vienna;06;[''];EU
11903642;Gries;47.06236;15.42421;AT;29363;Europe/Vienna;06;[''];EU
3041732;Mariehamn;60.09726;19.93481;AX;10682;Europe/Mariehamn;211;['MHQ', 'Maarianhamina', 'Marianhamina', 'Mariankhamina', 'Mariehameena', 'Mariehamn', 'Mariekhamn', 'Mariuhoefn', 'Mariyekhamn', 'Marrianhamina', 'Maríuhöfn', 'malieham', 'mariehamun', 'Мариехамн', 'マリエハムン', '마리에함'];EU
3186573;Zenica;44.20169;17.90397;BA;164423;Europe/Sarajevo;01;['Zenica', 'Zenicja', 'jenicha', 'se nit sa', 'ze ni cha', 'zenitsa', 'zenitsua', 'znyka', 'znytsa', 'znyzh', 'zynytsa', 'Зеница', 'Зениця', 'Զենիցա', 'זניצה', 'زنیتسا', 'زنیکا', 'زينيتسا', 'زینیتسا', 'เซนีตซา', 'ზენიცა', 'ゼニツァ', '泽尼察', '제니차'];EU
3187609;Visoko;43.98889;18.17806;BA;17890;Europe/Sarajevo;01;['Visokas', 'Visoko', 'bisoko', 'vuisoko', 'wei suo ke', 'Високо', 'ヴィソコ', '维索科', '비소코'];EU
3188225;Velika Kladuša;45.18497;15.80579;BA;19330;Europe/Sarajevo;01;['Velika Kladusa', 'Velika Kladusha', 'Velika Kladuša', 'Velika-Kladusha', 'da ke la du sha', 'wlyka kldwsha', 'wlyqh qldwsh', 'wylyka kladwsha', 'Велика Кладуша', 'Велика-Кладуша', 'וליקה קלדושה', 'ولیکا کلدوشا', 'ویلیکا کلادوشا', 'ヴェリカ・クラドゥシャ', '大克拉杜沙'];EU
3188582;Tuzla;44.53842;18.66709;BA;142486;Europe/Sarajevo;01;['Donja Tuzla', 'Soli', 'TZL', 'Tuzl', 'Tuzla', 'touzura', 'tu ci la', 'tujeulla', 'twzla', 'tzla', 'Тузла', 'تزلا', 'تزلہ', 'توزلا', 'ტუზლა', 'トゥズラ', '图兹拉', '투즐라'];EU
3188893;Trebinje;42.71197;18.34362;BA;33178;Europe/Sarajevo;02;"['Trebigne', ""Trebin'e"", 'Trebine', 'Trebinje', 'Trebinė', 'te lei bi nie', 'teulebine', 'torebinye', 'Требине', 'Требинье', 'Требиње', 'トレビニェ', '特雷比涅', '트레비네']";EU
3188924;Travnik;44.22637;17.66583;BA;31127;Europe/Sarajevo;01;['Traunik', 'Travnik', 'Travnikas', 'te la fu ni ke', 'teulabeunikeu', 'toravuniku', 'travnik', 'trawnyk', 'Травник', 'Траўнік', 'טראווניק', 'تراونیک', 'トラヴニク', '特拉夫尼克', '트라브니크'];EU
3191281;Sarajevo;43.84864;18.35644;BA;696731;Europe/Sarajevo;01;['Bosna-Sarai', 'SJJ', 'Saarayego', 'Saireavo', 'Sairéavó', 'Saraeva', 'Saraevo', 'Saraevo osh', 'Saragebo', 'Saragiebo', 'Saragievo', 'Sarajeva', 'Sarajevas', 'Sarajevo', 'Sarajevs', 'Sarajevu', 'Sarajevó', 'Sarajewo', 'Sarajèvo', 'Saraxevo', 'Saraybosna', 'Sarayevo', 'Sarayevu', 'Seraium', 'Serayevo', 'Szarajevo', 'Szarajevó', 'Vrh Bosna', 'carayevo', 'sa la re wo', 'sai la ye fu', 'salayebo', 'saraevo', 'saraevuo', 'sarajyww', 'sarayavea', 'sarayebho', 'sarayevho', 'sarayevo', 'sarayewo', 'sarayh ww', 'sarayww', 'sarayyfw', 'srayyfw', 'srayyww', 'sryybw', 'Σαράγεβο', 'Σαράγιεβο', 'Σαραγιεβο', 'Сараева', 'Сараево', 'Сараево ош', 'Сараєво', 'Сарајево', 'Сараѥво', 'Սարաևո', 'סאראיעווא', 'סרייבו', 'ساراجیوو', 'ساراييفو', 'سارايېۋو', 'سارایه وو', 'سارایوو', 'سارایێڤۆ', 'سرائیوو', 'سراييفو', 'सारायेव्हो', 'সারায়েভো', 'ਸਾਰਾਯੇਵੋ', 'சாரயேவோ', 'സരയാവോ', 'ซาราเยโว', 'ས་ར་ཇི་བོ།', 'სარაევო', 'ሳራዬቮ', 'サラエヴォ', '塞拉耶佛', '薩拉熱窩', '사라예보'];EU
3192409;Prijedor;44.97991;16.71401;BA;36347;Europe/Sarajevo;02;['Grad Prijedor', 'Priedor', 'Priedora', 'Prijedor', 'Prijedoras', 'peuliyedoleu', 'pu li ye duo er', 'puriiedoru', 'Град Приједор', 'Приедор', 'Приедора', 'Прієдор', 'پریجیڈور', 'プリイェドル', '普里耶多尔', '프리예도르'];EU
3194828;Mostar;43.34333;17.80806;BA;104518;Europe/Sarajevo;01;['Mandetrium', 'Mostar', 'Mostara', 'Mostaras', 'Mostari', 'OMO', 'mo si ta er', 'moseutaleu', 'mosutaru', 'mwstar', 'mwstr', 'Μόσταρ', 'Мостар', 'מוסטר', 'موستار', 'モスタル', '莫斯塔爾', '모스타르'];EU
3196079;Lukavac;44.54245;18.52618;BA;44520;Europe/Sarajevo;01;['Lukavac', 'Lukavac Muslimanski', 'Lukavacas', 'Muslimanski Lukavac', 'lu ka wa ci', 'Лукавац', '盧卡瓦茨'];EU
3199744;Gradačac;44.87851;18.42764;BA;15659;Europe/Sarajevo;01;['Gradacac', 'Gradacacas', 'Gradachac', 'Gradačac', 'Gradačacas', 'ge la da cha ci', 'guradachatsu', 'Градачац', 'グラダチャツ', '格拉達查茨'];EU
3199779;Gračanica;44.70307;18.3101;BA;15758;Europe/Sarajevo;01;['Gracanica', 'Grachanica', 'Gračanica', 'ge la cha ni cha', 'grachanytsa  bwsny w hrzgwyn', 'Грачаница', 'گراچانیتسا، بوسنی و هرزگوین', 'گراچانیسا، بوسنیا و ہرزیگووینا', '格拉查尼察'];EU
3200396;Goražde;43.66795;18.97564;BA;17650;Europe/Sarajevo;01;['Gorajde', 'Gorazde', 'Gorazhda', 'Gorazhde', 'Goražde', 'Goraždė', 'ge la ri dai', 'golajude', 'gorajude', 'grazhdh', 'Горажде', 'گراژده', 'ゴラジュデ', '戈拉日代', '고라주데'];EU
3201984;Doboj;44.73179;18.08698;BA;27235;Europe/Sarajevo;02;['Doboj', 'Dobojus', 'doboi', 'duo bo yi', 'dwbwj', 'Добой', 'Добој', 'دوبوج', 'ドボイ', '多博伊', '도보이'];EU
3202822;Cazin;44.96694;15.94306;BA;21741;Europe/Sarajevo;01;['Cazin', 'Cazinas', 'cha jin', 'tsuajin', 'Цазин', 'ツァジン', '察津'];EU
3203099;Bugojno;44.05722;17.45083;BA;41378;Europe/Sarajevo;01;['Bugoinas', 'Bugojne', 'Bugojno', 'Bugoyno', 'bugoino', 'Бугойно', 'Бугојно', 'Բուգոյնո', 'ブゴイノ'];EU
3203521;Brčko;44.86995;18.81012;BA;38968;Europe/Sarajevo;BRC;['Bercka', 'Brchko', 'Brckas', 'Brcko', 'Brczko', 'Breucus', 'Bruchko', 'Brčkas', 'Brčko', 'Bërçka', 'beuleuchiko', 'brchkw', 'brkw', 'brtshkw', 'brzqw', 'bu er qi ke', 'buruchiko', 'Брчко', 'Бръчко', 'ברצקו', 'برتشكو', 'برچکو', 'برکو', 'ブルチコ', '布尔奇科', '브르치코'];EU
3203653;Bosanska Krupa;44.8825;16.15139;BA;15193;Europe/Sarajevo;01;['Bosanska Krupa', 'Krupa', 'Krupa na Uni', 'bo si ni ya ke lu pa', 'Босанска Крупа', 'ボサンスカ・クルパ', '波斯尼亞克魯帕'];EU
3204186;Bijeljina;44.75874;19.21437;BA;37692;Europe/Sarajevo;02;['Beline', 'Bielina', 'Bieline', 'Bijelina', 'Bijeljina', 'bi ye li na', 'bielina', 'biierina', 'biyellina', 'bjljyna', 'blnh', 'byh lyna', 'byylynh', 'Биелина', 'Биелине', 'Бијељина', 'Бієліна', 'Բիելինա', 'ביילינה', 'بجلجینا', 'بلنه', 'بيه لينا', 'بیه\u200cلینا', 'بیےلینا', 'ბიელინა', 'ビイェリナ', '比耶利納', '비옐리나'];EU
3204222;Bihać;44.81694;15.87083;BA;75641;Europe/Sarajevo;01;['Bichacas', 'Bichačas', 'Bihac', 'Bihacium', 'Bihacs', 'Bihaç', 'Bihać', 'Bihács', 'Bikhach', 'Bikhak', 'bi ha qi', 'bi hach', 'bihachi', 'byhach', 'byhʼz', 'bykhach', 'bykhatsh', 'Бихач', 'Бихаћ', 'Бихаќ', 'Біхач', 'ביחאץ', 'بيخاتش', 'بیخاچ', 'بیهاچ', 'بیہاج', 'บีฮาช', 'ビハチ', '比哈奇', '비하치'];EU
3204541;Banja Luka;44.77842;17.19386;BA;221106;Europe/Sarajevo;02;['BNX', 'Bagnaluka', 'Bana Luka', 'Bania Louka', 'Bania Luka', 'Banialuca', 'Banja Luka', 'Banja Luka - Bana Luka', 'Banja Luka - Бања Лука', 'Banja-Luka', 'Banja-Lukae', 'Banjaluka', 'Banjaluko', 'Banya Luka', 'Baņa Luka', 'ba ni ya lu ka', 'ban ya luk a', 'banja luka', 'banja lwka', 'banya lwka', 'banyaluka', 'Μπάνια Λούκα', 'Баня Лука', 'Баня-Лукæ', 'Баня-Лука', 'Банꙗ Лоука', 'Бања Лука', 'Բանյա Լուկա', 'באניה לוקה', 'بانجا لوکا', 'بانيا لوكا', 'بانیا لوکا', 'बंजा लुका', 'บันยาลูกา', 'ბანია-ლუკა', 'バニャ・ルカ', '巴尼亚卢卡', '바냐루카'];EU
3337476;Konjic;43.65126;17.96082;BA;15950;Europe/Sarajevo;01;['Konjic'];EU
2783081;Zwijndrecht;51.21979;4.32664;BE;18249;Europe/Brussels;VLG;['Zuindracum', 'Zvejndrekht', 'Zwijndrecht', 'Zwyndrecht', 'ci wei en de lei he te', 'zwyyzhndrkt', 'Звейндрехт', 'زوئیژندرکت', '兹韦恩德雷赫特'];EU
2783089;Zwevegem;50.81268;3.33848;BE;23358;Europe/Brussels;VLG;['Sweveghem', 'Zvevegem', 'Zwevegem', 'Zwevehem', 'ci wei fu hai mu', 'zwywwzhm', 'Звевегем', 'زوئووژم', '兹韦弗海姆'];EU
2783175;Zottegem;50.86955;3.81052;BE;24434;Europe/Brussels;VLG;['Sottegem', 'Zotegem', 'Zottegem', 'ztzhm', 'zuo te hai mu', 'Зотегем', 'Зоттегем', 'زتژم', '佐特海姆'];EU
2783188;Zonhoven;50.99064;5.36819;BE;19922;Europe/Brussels;VLG;['Zoneve', 'Zonhoven', 'Zonhovena', 'Zonkhoven', 'son ho fein', 'zong huo fen', 'zwnwwan', 'Зонховен', 'زونووان', 'โซนโฮเฟิน', '宗霍芬'];EU
2783197;Zolder;51.02455;5.30983;BE;17289;Europe/Brussels;VLG;['Heusden-Zolder (Zolder)', 'Zolder', 'ゾルダー・サーキット'];EU
2783274;Zemst;50.98318;4.46079;BE;21096;Europe/Brussels;VLG;['Sempst', 'Zemst', 'zamst', 'ze mu si te', 'Земст', 'زامست', '泽姆斯特'];EU
2783293;Zele;51.06566;4.0403;BE;20236;Europe/Brussels;VLG;['Zele', 'ze lai', 'zl', 'Зеле', 'زل', '泽莱'];EU
2783308;Zedelgem;51.14236;3.1368;BE;21968;Europe/Brussels;VLG;"[""Zedel'gem"", 'Zedelgem', 'Zedelghem', 'Zillegem', 'Zillehem', 'ze de er hai mu', 'zwdlzhm', 'Зеделгем', 'Зедельгем', 'زودلژم', '泽德尔海姆']";EU
2783310;Zaventem;50.88365;4.47298;BE;28188;Europe/Brussels;VLG;['Saventhem', 'Zaventem', 'zha fen te mu', 'zwantm', 'Завентем', 'زوانتم', '扎芬特姆'];EU
2783456;Wondelgem;51.08705;3.70909;BE;23546;Europe/Brussels;VLG;['Wendelghem', 'Wondelgem'];EU
2783476;Woluwe-Saint-Lambert;50.84389;4.42912;BE;56584;Europe/Brussels;BRU;['Brussel (Sint-Lambrechts-Woluwe)', 'Bruxelles (Woluwe-Saint-Lambert)', 'Sint Lambrekhts - Voljuve', 'Sint-Lambrechts-Woluwe', 'Volive Sen Lamber', 'Voljuve-Sen-Lamber', 'Woluwe-Saint-Lambert', 'Woluwe-Saint-Lambert - Sint-Lambrechts-Woluwe', 'Woluwe-Saint-Lambert/Sint-Lambrechts-Woluwe', 'vuoryuue=san=ranberu', 'wo lu wei-sheng lan bo', 'wollwibeusaenglangbeleu', 'wwlww-sn-lambr', 'Воливе Сен Ламбер', 'Волюве-Сен-Ламбер', 'Синт Ламбрехтс - Волюве', 'وولوو-سن-لامبر', 'ヴォリュウェ＝サン＝ランベール', '沃吕韦-圣兰伯', '월뤼브생랑베르'];EU
2783615;Wilrijk;51.16734;4.39513;BE;41403;Europe/Brussels;VLG;['Antwerpen (Wilrijk)', 'Vilrejk', 'Wilryck', 'wwylryyq', 'Вилрейк', 'ווילרייק'];EU
2783632;Willebroek;51.06041;4.36019;BE;22808;Europe/Brussels;VLG;['Vilebruk', 'Villebruk', 'Willebroeck', 'Willebroek', 'wei lei bu lu ke', 'wywbrwyk', 'Вилебрук', 'Виллебрук', 'ویوبروئک', '维勒布鲁克'];EU
2783759;Wevelgem;50.8;3.16667;BE;30954;Europe/Brussels;VLG;"[""Vevel'geme"", 'Vevelgem', 'Wevelgem', 'Wevelghem', 'Wevelhem', 'wei fu er hai mu', 'Вевелгем', 'Вевельгеме', '韦弗尔海姆']";EU
2783763;Wetteren;51.00526;3.88341;BE;22930;Europe/Brussels;VLG;['Veteren', 'Vetteren', 'Wetteran', 'Wetteren', 'awytwran', 'wei te lun', 'Ветерен', 'Веттерен', 'اوئتوران', '韦特伦'];EU
2783801;Westerlo;51.09049;4.91544;BE;22579;Europe/Brussels;VLG;['Vesterlas', 'Vesterlo', 'Westel', 'Westerlo', 'Westerloo', 'awystrlw', 'wei si te luo', 'Вестерло', 'اوئسترلو', '韦斯特洛'];EU
2783820;Wervik;50.78069;3.03854;BE;17340;Europe/Brussels;VLG;['Vervik', 'Viroviacum', 'Wervicq', 'Wervik', 'wei er fei ke', 'wrwyk', 'Вервик', 'Вервік', 'ورویک', '韦尔菲克'];EU
2783941;Wavre;50.71717;4.60138;BE;34305;Europe/Brussels;WAL;['Uavur', 'Vavr', 'Vavra', 'Vavras', 'Wave', 'Waver', 'Wavre', 'Wavria', 'Wåve', 'ZGV', 'uabeuleu', 'wa fu er', 'wavuru', 'wwr', 'Βαβρ', 'Вавр', 'Уавър', 'وور', 'ワーヴル', '瓦夫爾', '우아브르'];EU
2783979;Watermael-Boitsfort;50.80154;4.41436;BE;25157;Europe/Brussels;BRU;"['Brussel (Watermaal-Bosvoorde)', 'Bruxelles (Watermael-Boitsfort)', 'Vatermal - Bosvorde', ""Vatermal'-Buafor"", 'Watermaal-Boschvoorde', 'Watermaal-Bosvoorde', 'Watermael-Boitsfort', 'Watermael-Boitsfort - Watermaal-Bosvoorde', 'Watermael-Boitsfort/Watermaal-Bosvoorde', 'awytrmyl-bwatsfwr', 'wa te er ma er-bu wa fu er', 'wateleumalbuapoleu', 'waterumaru=bowaforu', 'Ватермал - Босворде', 'Ватермаль-Буафор', 'اوئترمئل-بوآتسفور', 'ワーテルマール＝ボワフォール', '瓦特尔马尔-布瓦福尔', '와테르말부아포르']";EU
2783985;Waterloo;50.71469;4.3991;BE;29778;Europe/Brussels;WAL;['Vaterlo', 'Vaterloo', 'Vatʻerloo', 'Waterlo', 'Waterloo', 'Waterloum', 'Waterlô', 'hua tie lu', 'oyataralu', 'wateruro', 'watrlw', 'wo da lao', 'woteollu', 'wwtrlw', 'Βατερλώ', 'Ватерло', 'Ватерлоо', 'Վաթեռլոո', 'ווטרלו', 'واترلو', 'واٹرلو، بیلجئیم', 'ওয়াটারলু', 'ワーテルロー', '滑鐵盧', '窩打老', '워털루'];EU
2784068;Waregem;50.88898;3.42756;BE;35896;Europe/Brussels;VLG;['Varegem', 'Varegemas', 'Waereghem', 'Waregem', 'Waregemi vald', 'Woaregem', 'baleheom', 'wa lei hai mu', 'warehemu', 'warkhm', 'Варегем', 'وارخم', 'ワレヘム', '瓦勒海姆', '바레험'];EU
2784189;Walcourt;50.25401;4.43796;BE;17501;Europe/Brussels;WAL;"[""Val'kur"", 'Valkur', 'Walcou', 'Walcourt', 'Walcoû', 'wa er ku er', 'wlkwr', 'Валкур', 'Валькур', 'ولکور', '瓦尔库尔']";EU
2784548;Visé;50.7376;5.69907;BE;17054;Europe/Brussels;WAL;['Vise', 'Visé', 'Wezet'];EU
2784604;Vilvoorde;50.92814;4.42938;BE;36955;Europe/Brussels;VLG;['Vilvoorde', 'Vilvorde', 'Vilvordė', 'fei er fu er de', 'wylwwrd', 'Вилворде', 'Вілворде', 'ویلوورد', '菲尔福尔德'];EU
2784821;Verviers;50.58907;5.86241;BE;52824;Europe/Brussels;WAL;"[""Verv'e"", 'Verve', 'Vervi', 'Vervia', 'Vervie', 'Verviers', 'Vervje', 'Vervjė', 'Vervî', 'beleubie', 'vervie', 'vueruvuie', 'wei er wei ye', 'wrwyh', 'Вервие', 'Вервье', 'Вервє', 'Вервје', 'ورویه', 'ვერვიე', 'ヴェルヴィエ', '韦尔维耶', '베르비에']";EU
2785123;Uccle;50.80225;4.33943;BE;82929;Europe/Brussels;BRU;['Brussel (Ukkel)', 'Bruxelles (Uccle)', 'Jukel', 'Uccla', 'Uccle', 'Uccle-Ukkel', 'Uccle/Ukkel', 'Ukel', 'Ukkel', 'awkl', 'ikuru', 'wikeul', 'xu kl', 'yu ke lei', 'Укел', 'Уккел', 'Юкел', 'اوکل', 'อุกล์', 'イクル', '于克勒', '위클'];EU
2785141;Turnhout;51.32254;4.94471;BE;44000;Europe/Brussels;VLG;"[""T'ornkhaut"", 'Tjurnkhaut', 'Turnaut', 'Turnholtum', 'Turnhout', 'Turnkhout', 'di lun hao te', 'tourunhauto', 'twileunhauteu', 'twrnhawt', 'twrnw', 'Турнаут', 'Турнхоут', 'Тьорнхаут', 'Тюрнхаут', 'تورنهاوت', 'تورنو', 'トゥルンハウト', '蒂伦豪特', '튀른하우트']";EU
2785169;Tubize;50.69059;4.2009;BE;18000;Europe/Brussels;WAL;['Tiubizas', 'Tjubiz', 'Tubeke', 'Tubize', 'di bi ci', 'twbyz', 'twibijeu', 'Тюбиз', 'توبيز', 'توبیز', '蒂比兹', '튀비즈'];EU
2785341;Tournai;50.60715;3.38932;BE;69554;Europe/Brussels;WAL;['Doornik', 'Doornyk', 'Tornai', 'Tournai', 'Tournay', 'Turnacum', 'Turne', 'Turnė', 'ZGQ', 'tourune', 'tu er nai', 'tuleune', 'twrnay', 'twrnh', 'Τουρναί', 'Турне', 'טורנה', 'تورناي', 'تورنه', 'ตูร์แน', 'トゥルネー', '图尔奈', '투르네'];EU
2785364;Torhout;51.0656;3.10085;BE;18933;Europe/Brussels;VLG;['Thouront', 'Thourout', 'Toeroet', 'Torhout', 'Torkhaut', 'Torkhout', 'Turholt', 'trw', 'tuo er hao te', 'Торхаут', 'Торхоут', 'ترو', '托尔豪特'];EU
2785389;Tongeren;50.78054;5.46484;BE;29816;Europe/Brussels;VLG;['Atuatuca Tungrorum', 'Tongere', 'Tongerehn', 'Tongeren', 'Tongerenas', 'Tongres', 'Toungern', 'Tungro', 'Tóngere', 'tnzhran', 'tong e lun', 'tong-eleon', 'tongngexrein', 'tonheren', 'Тонгерен', 'Тонгерэн', 'تنژران', 'โตงเงอเริน', 'トンヘレン', '通厄伦', '통에런'];EU
2785470;Tienen;50.80745;4.9378;BE;31743;Europe/Brussels;VLG;['Thenae', 'Thienen', 'Tienen', 'Tijnen', 'Tinen', 'Tirlemont', 'di nen', 'tyynan', 'Тийнен', 'Тинен', 'تیئنان', '蒂嫩'];EU
2785476;Tielt;50.99931;3.32707;BE;19299;Europe/Brussels;VLG;['Thielt', 'Tielt', 'Tijlt', 'Tilt', 'di er te', 'tylt', 'tyylt', 'Тийлт', 'Тілт', 'تيلت', 'تیئلت', '蒂尔特'];EU
2785612;Tessenderlo;51.06513;5.08856;BE;16574;Europe/Brussels;VLG;['Loei', 'Tesenderlo', 'Tessenderlo', 'Tessenderloo', 'tai sen de luo', 'teseondeleullo', 'theis seinde xrlo', 'tsandrlw', 'Тесендерло', 'تساندرلو', 'เทิสเซินเดอร์โล', '泰森德洛', '테선데를로'];EU
2785622;Tervuren;50.82372;4.51418;BE;20623;Europe/Brussels;VLG;"[""Terv'oren"", 'Tervjuren', 'Tervueren', 'Tervuren', 'te er fei lun', 'trwwran', 'Тервьорен', 'Тервюрен', 'ترووران', '特尔菲伦']";EU
2785778;Temse;51.12794;4.21372;BE;26054;Europe/Brussels;VLG;['Tamise', 'Tamsch', 'Tamse', 'Temsche', 'Temse', 'tams', 'te mu sai', 'Темсе', 'تامس', '特姆塞'];EU
2786087;Stekene;51.2099;4.03651;BE;16989;Europe/Brussels;VLG;['Stekene'];EU
2786229;Stabroek;51.33189;4.37127;BE;17294;Europe/Brussels;VLG;['Stabroeck', 'Stabroek'];EU
2786344;Soumagne;50.61385;5.74679;BE;15237;Europe/Brussels;WAL;"['Soumagne', 'Soûmagne', 'Suman', ""Suman'"", 'su ma nie', 'swmny', 'Суман', 'Сумань', 'سومنی', '苏马涅']";EU
2786420;Soignies;50.57904;4.07129;BE;24869;Europe/Brussels;WAL;"['Soani', 'Sougniye', ""Suan'e"", ""Suan'i"", 'Zinnik', 'swynyh', 'Соани', 'Суанье', 'Суаньи', 'Суаньї', 'سوئنیه']";EU
2786545;Sint-Truiden;50.81679;5.18647;BE;37859;Europe/Brussels;VLG;['Oppidum Sancti Trudonis', 'Saint-Trond', 'Sankt-Trond', 'Sent-Trueden', 'Sent-Trüden', 'Sint Treidenas', 'Sint Treidens', 'Sint Trojden', 'Sint Truijen', 'Sint-Trejden', 'Sint-Trjojden', 'Sint-Trjujden', 'Sint-Trond', 'Sint-Truiden', 'Sint-Truudn', 'Sintruin', 'Sinttreidena', 'sant trwnd', 'sheng te lei deng', 'shinto=toroiden', 'sint-tery dein', 'sinteuteulawideon', 'snt trwydn', 'Санкт-Тронд', 'Синт Тройден', 'Синт Тројден', 'Синт-Трюйден', 'Синт-Трёйден', 'Сінт-Трейден', 'سانت تروند', 'سنت ترویدن', 'ซินต์-เตรยเดิน', 'シント＝トロイデン', '圣特雷登', '신트트라위던'];EU
2786559;Sint-Pieters-Leeuw;50.77926;4.24355;BE;30446;Europe/Brussels;VLG;['Ieus', 'Leeuw-Saint-Pierre', 'Sin Piters Leuv', 'Sint Pijters Leu', 'Sint-Pieters-Leeuw', 'Sint-Piters-Leuv', 'sheng bi de si-lai wu', 'sn-pywth-lyw', 'Син Питерс Леув', 'Синт Пийтерс Леу', 'Синт-Питерс-Леув', 'سن-پیوته-لئو', '圣彼得斯-莱乌'];EU
2786578;Sint-Niklaas;51.16509;4.1437;BE;69010;Europe/Brussels;VLG;['Saint-Nicolas', 'Sint-Niklaas', 'Sint-Niklas', 'Синт-Никлас'];EU
2786634;Sint-Kruis;51.21399;3.24949;BE;16000;Europe/Brussels;VLG;['Sainte-Croix', 'Sint-Kruis'];EU
2786641;Sint-Katelijne-Waver;51.06691;4.53469;BE;19487;Europe/Brussels;VLG;['Sint Katelejne - Vaver', 'Sint Katelijne Waver', 'Sint-Katelijne-Waver', 'Sint-Kathelijne-Waver', 'Wavre-Sainte-Catherine', 'sheng ka te lai na-wa fu er', 'sn-ktwlyzhnwywh', 'Синт Кателейне - Вавер', 'سن-کتولیژنوئوه', '圣卡特莱娜-瓦弗尔'];EU
2786694;Sint-Gillis-Waas;51.21914;4.12374;BE;17658;Europe/Brussels;VLG;['Saint-Gilles-Waes', 'Saint-Gillis-Waas', 'Sint-Gillis-Waas'];EU
2786700;Sint-Genesius-Rode;50.74645;4.35754;BE;17990;Europe/Brussels;VLG;['Rhode-Saint-Genese', 'Rhode-Saint-Genèse', 'Sint-Genesius-Rode'];EU
2786739;Sint-Andries;51.19696;3.17891;BE;19336;Europe/Brussels;VLG;['Saint-Andre', 'Saint-André', 'Sint-Andries'];EU
2786743;Sint-Amandsberg;51.05947;3.74943;BE;32115;Europe/Brussels;VLG;['Mont-Saint Amand', 'Sint-Amandsberg'];EU
2786824;Seraing;50.58362;5.50115;BE;60737;Europe/Brussels;WAL;['Seraing', 'Sere', 'Seren', 'Serenas', 'Serranius', 'Serè', 'se lan', 'selaeng', 'seran', 'sex ræng', 'srn', 'Серен', 'سرن', 'เซอแร็ง', 'セラン', '瑟兰', '세랭'];EU
2786963;Schoten;51.25251;4.50268;BE;33622;Europe/Brussels;VLG;['Schooten', 'Schoten', 'Skhoten', 'shwtan', 'si huo teng', 'Схотен', 'شوتان', '斯霍滕'];EU
2787048;Schilde;51.24107;4.58336;BE;20373;Europe/Brussels;VLG;"['Schilde', ""Shil'de"", 'Шильде']";EU
2787149;Schaerbeek;50.86935;4.37737;BE;132761;Europe/Brussels;BRU;['Brussel (Schaarbeek)', 'Bruxelles (Schaerbeek)', 'Sarbeko', 'Scarbeca', 'Schaarbeek', 'Schaerbeek', 'Schaerbeek - Schaarbeek', 'Schaerbeek-Schaarbeek', 'Schaerbeek/Schaarbeek', 'Skharbek', 'seuhaleubeikeu', 'sharbyk', 'shyrbyk', 'si ha er bei ke', 'ska rbek', 'sukarubeku', 'Ŝarbeko', 'Схарбек', 'شئربئک', 'شاربیک', 'สการ์เบก', 'スカールベーク', '斯哈尔贝克', '스하르베이크'];EU
2787356;Saint-Nicolas;50.62837;5.53243;BE;22586;Europe/Brussels;WAL;['Saint-Nicolas', 'Sankt-Nikola', 'Sint-Niklaas', 'Санкт-Никола'];EU
2787387;Saint-Josse-ten-Noode;50.8538;4.37282;BE;27366;Europe/Brussels;BRU;['Brussel (Sint-Joost-ten-Node)', 'Bruxelles (Saint-Josse-ten-Noode)', 'Nauda Sancti Iudoci', 'Saint-Josse-ten-Noode', 'Saint-Josse-ten-Noode - Sint-Joost-ten-Node', 'Saint-Josse-ten-Noode/Sint-Joost-ten-Node', 'Sen-Zhoss-ten-Node', 'Sint Jost ten Node', 'Sint-Joost-ten-Node', 'saengjoseutangnodeu', 'san=josu=tan=nodo', 'sheng ruo si-teng-nuo de', 'sn-zhws-tan-nwd', 'Сен-Жосс-тен-Ноде', 'Синт Йост тен Ноде', 'سن-ژوس-تان-نود', 'سینٹ-جوسسے-تین-نووڈے', 'サン＝ジョス＝タン＝ノード', '圣若斯-滕-诺德', '생조스탕노드'];EU
2787413;Saint-Gilles;50.82763;4.34389;BE;50221;Europe/Brussels;BRU;"['Brussel (Sint-Gillis)', 'Bruxelles (Saint-Gilles)', 'Saint-Gilles', 'Saint-Gilles - Sint-Gillis', 'Saint-Gilles/Sint-Gillis', 'Sen Zhil', ""Sen-Zhil'"", 'Sint Gilis', 'Sint-Djile-dile-Brussele', 'Sint-Djîle-dilé-Brussele', 'Sint-Gillis', 'Sint-Gillis-Obbrussel', 'saengjil', 'san=jiru', 'sheng ji er', 'sn-zhyl', 'Сен Жил', 'Сен-Жиль', 'Сен-Жіль', 'Синт Гилис', 'سن-ژیل', 'سینٹ-گلیس، بیلجیم', 'サン＝ジル', '圣吉尔', '생질']";EU
2787416;Saint-Ghislain;50.44816;3.81886;BE;22500;Europe/Brussels;WAL;['Sankt-Gilene', 'Sen Gislen', 'Sen-Gilen', 'sheng ji si lan', 'sn-gyzln', 'Санкт-Гилене', 'Сен Гислен', 'Сен-Гилен', 'سن-گیزلن', 'سینٹ-غصلیں', '聖吉斯蘭'];EU
2787662;Rotselaar;50.95302;4.71665;BE;15007;Europe/Brussels;VLG;['Rotselaar', 'Rotselaer', 'Rotselar', 'luo ce la er', 'rwtswlr', 'Ротселар', 'روتسولر', '罗策拉尔'];EU
2787769;Ronse;50.74574;3.6005;BE;24204;Europe/Brussels;VLG;['Renaix', 'Rinais', 'Ronse', 'Rotnacum', 'long sai', 'rnz', 'Ронсе', 'رنز', '龙塞'];EU
2787889;Roeselare;50.94653;3.12269;BE;56016;Europe/Brussels;VLG;['Roeselare', 'Roeselare vald', 'Roeselave', 'Roeseloare', 'Roselare', 'Roulers', 'Rouselare', 'Ruselare', 'Ruselarė', 'Russelaers', 'lu se la lei', 'lusellale', 'rsl', 'ruserare', 'rwslarh', 'Руселаре', 'روسلاره', 'ルーセラーレ', '鲁瑟拉勒', '루셀라레'];EU
2787989;Rixensart;50.71229;4.52529;BE;21616;Europe/Brussels;WAL;['Ricsinsat', 'Ricsinsåt', 'Riksansar', 'Riksensart', 'Rixensart', 'li ke sang sa er', 'ryksansr', 'Риксансар', 'Риксенсарт', 'ریکسانسر', '里克桑萨尔'];EU
2788088;Riemst;50.80995;5.60131;BE;15809;Europe/Brussels;VLG;['Riempst', 'Riemst'];EU
2788348;Ranst;51.18983;4.56533;BE;17405;Europe/Brussels;VLG;['Ranst'];EU
2788499;Quaregnon;50.44067;3.8653;BE;18491;Europe/Brussels;WAL;"['Cargnon', 'Couargnon', ""Karen'on"", 'krwnywn', 'Кареньон', 'کرونیون']";EU
2788506;Puurs;51.07409;4.28844;BE;15944;Europe/Brussels;VLG;['Pjurs', 'Puers', 'Puurs', 'pi er si', 'pwr', 'Пюрс', 'پور', '皮尔斯'];EU
2788521;Putte;51.05337;4.63263;BE;15276;Europe/Brussels;VLG;['Putte'];EU
2788726;Poperinge;50.85386;2.72659;BE;19537;Europe/Brussels;VLG;['Poperienge', 'Poperinge', 'Poperinghe', 'bo po ling e', 'pprnzh', 'Поперинге', 'پپرنژ', '波珀灵厄'];EU
2788765;Pont-à-Celles;50.50518;4.36887;BE;15909;Europe/Brussels;WAL;"['Pont a Sel', ""Pont-a-Sel'"", 'pwn-a-sl', 'Понт а Сел', 'Понт-а-Сель', 'پون-ا-سل']";EU
2789162;Péruwelz;50.50819;3.59373;BE;16647;Europe/Brussels;WAL;"[""Perjuvel'z"", 'Perjuvelz', 'Perwe-e-Hinnot', 'Perwé-e-Hinnot', 'Pierwe', 'Piérwé', 'prwwlz', 'Перювелз', 'Перювельз', 'پروولز']";EU
2789232;Peer;51.1303;5.45952;BE;15551;Europe/Brussels;VLG;['Peer'];EU
2789413;Overijse;50.77436;4.53461;BE;23486;Europe/Brussels;VLG;['Overejse', 'Overijase', 'Overijsche', 'Overijse', 'Overyssche', 'ao gang lai ze', 'awryzhz', 'Оверейсе', 'Оверийсе', 'اوریژز', '奥纲赖泽'];EU
2789471;Oupeye;50.71184;5.6468;BE;23594;Europe/Brussels;WAL;['Oupeye', 'Oûpêye', 'Upe', 'Upej', 'awpyy', 'wu pei', 'Упе', 'Упей', 'اوپئی', '乌佩'];EU
2789529;Oudenaarde;50.85168;3.60891;BE;31866;Europe/Brussels;VLG;['Aldenarda', 'Audenaarde', 'Audenarde', 'Ontenarnt', 'Oudenaarde', 'Oudenaerde', 'Oudenoarde', 'ao de na er de', 'audenaleudeo', 'audenarude', 'awdnrd', 'Οντενάρντ', 'Ауденарде', 'Оуденаарде', 'اودنرد', 'アウデナールデ', '奥德纳尔德', '아우데나르더'];EU
2789751;Oostkamp;51.15432;3.23128;BE;21489;Europe/Brussels;VLG;['Oostcamp', 'Oostkamp', 'Ostkamp', 'Oôstkamp', 'ao si te kan pu', 'awztkam', 'Ôostkamp', 'Осткамп', 'اوزتکام', '奥斯特坎普'];EU
2789786;Ostend;51.21551;2.927;BE;69011;Europe/Brussels;VLG;['OST', 'Oostende', 'Oostenn', 'Ostend', 'Ostenda', 'Ostende', 'Ostendo', 'Ostendė', 'ao si teng de', 'astent', 'awstndh', 'oseutendeo', 'osutende', 'Οστένδη', 'Остенде', 'אוסטנדה', 'اوستنده', 'ஆஸ்டெண்ட்', 'オーステンデ', '奥斯滕德', '오스텐더'];EU
2790101;Nivelles;50.59833;4.32848;BE;24149;Europe/Brussels;WAL;"['Nijvel', 'Nivel', ""Nivel'"", 'Nivele', 'Nivelles', 'ni wei er', 'nywl', 'Нивел', 'Нивель', 'Нівель', 'نیول', '尼韦尔']";EU
2790114;Ninove;50.82776;4.02657;BE;34795;Europe/Brussels;VLG;['Ninove', 'Outer', 'ni nuo fu', 'nynw', 'Нинове', 'نینو', '尼诺弗'];EU
2790135;Nijlen;51.16096;4.67008;BE;20792;Europe/Brussels;VLG;['Nijlen', 'Nylen'];EU
2790357;Neerpelt;51.22807;5.4427;BE;16122;Europe/Brussels;VLG;['Neerpelt'];EU
2790471;Namur;50.4669;4.86746;BE;110939;Europe/Brussels;WAL;['Name', 'Namen', 'Nameur', 'Namir', 'Namira', 'Namiuras', 'Namiūras', 'Namjur', 'Namouer', 'Namuer', 'Namur', 'Namurcum', 'Namuro', 'Namyr', 'Namyur', 'Namür', 'Namīra', 'QNM', 'na mu er', 'namu r', 'namwileu', 'namwr', 'namyuru', 'nmwr  blzhyk', 'Ναμύρ', 'Намир', 'Намюр', 'Նամյուր', 'נאמור', 'نامور', 'نمور، بلژیک', 'นามูร์', 'ናሙር', 'ナミュール', '那慕爾', '나뮈르'];EU
2790595;Mouscron;50.74497;3.20639;BE;52069;Europe/Brussels;WAL;['MWW', 'Moeschroen', 'Moeschroên', 'Moeskroen', 'Moucron', 'Mouscron', 'Mukronas', 'Musera', 'Muskron', 'Muskrono', 'museukeulong', 'musukuron', 'mwzkrwn', 'Мускрон', 'موزکرون', 'ムスクロン', '무스크롱'];EU
2790676;Mortsel;51.16697;4.45127;BE;24525;Europe/Brussels;VLG;['Mortensella', 'Mortsel', 'mo ce er', 'mrtzl', 'Мортсел', 'مرتزل', '莫策尔'];EU
2790697;Morlanwelz-Mariemont;50.45502;4.24519;BE;18233;Europe/Brussels;WAL;['Morlanwelz', 'Morlanwelz-Mariemont'];EU
2790796;Montignies-sur-Sambre;50.41081;4.49109;BE;18765;Europe/Brussels;WAL;['Charleroi (Montignies-sur-Sambre)'];EU
2790869;Mons;50.45413;3.95229;BE;95299;Europe/Brussels;WAL;['Berge', 'Bergen', 'Bergn', 'Mon', 'Mons', 'Monsa', 'Monsas', 'Mont', 'Montes', 'mamsa', 'meng si', 'mngs', 'mongseu', 'monsu', 'mwn', 'mwns', 'Μονς', 'Монс', 'Մոնս', 'מונס', 'مون', 'مونس', 'माँस', 'มงส์', 'モンス', '蒙斯', '몽스'];EU
2791018;Molenbeek-Saint-Jean;50.8499;4.31248;BE;97037;Europe/Brussels;BRU;['Brussel (Sint-Jans-Molenbeek)', 'Bruxelles (Molenbeek-Saint-Jean)', 'Molenbeek-Saint-Jean', 'Molenbeek-Saint-Jean - Sint-Jans-Molenbeek', 'Molenbeek-Saint-Jean/Sint-Jans-Molenbeek', 'Sint-Jans-Molenbeek'];EU
2791067;Mol;51.19188;5.11662;BE;32659;Europe/Brussels;VLG;['Mol', 'Moli vald', 'Moll', 'mo er', 'mol', 'mwl', 'mwl  bljyka', 'Мол', 'مول', 'مول، بلجيكا', '莫尔', '몰'];EU
2791194;Middelkerke;51.18532;2.82077;BE;17789;Europe/Brussels;VLG;['Middelkerke', 'Middelkerke Bains', 'Middelkerke-Baden', 'Midelkerke', 'mi de er ke er ke', 'mydlkrk', 'Миделкерке', 'میدلکرک', '米德尔克尔克'];EU
2791301;Merksem;51.24623;4.44903;BE;44435;Europe/Brussels;VLG;['Antwerpen (Merksem)', 'Merxem'];EU
2791315;Merelbeke;50.99447;3.74621;BE;16684;Europe/Brussels;VLG;['Meirelbeke', 'Merelbeke', 'mei lei er bei ke', 'mwrlbwk', 'Мерелбеке', 'مورلبوک', '梅勒尔贝克'];EU
2791343;Menen;50.79722;3.12245;BE;31916;Europe/Brussels;VLG;['Meenen', 'Meenn', 'Menen', 'Menin', 'Mjeenn', 'Mêenn', 'mei nen', 'mnn', 'Менен', 'منن', '梅嫩'];EU
2791424;Meise;50.93934;4.32655;BE;18497;Europe/Brussels;VLG;['Meise', 'Mejse', 'Meysse', 'mai ze', 'mz', 'Мейсе', 'مز', '迈泽'];EU
2791534;Mechelen-aan-de-Maas;50.96589;5.69144;BE;15374;Europe/Brussels;VLG;['Maasmechelen (Mechelen-aan-de-Maas)', 'Mechelen', 'Mechelen-aan-Maas'];EU
2791537;Mechelen;51.02574;4.47762;BE;77530;Europe/Brussels;VLG;['Malinas', 'Malines', 'Mechele', 'Mechelen', 'Mechelenas', 'Mecheln', 'Mechlinia', 'Mehleno', 'Mekhelen', 'Meĥleno', 'ZGP', 'me khexlein', 'mehellen', 'meheren', 'mei he lun', 'mkln', 'mshlan', 'Мехелен', 'מכלן', 'مشلان', 'เมเคอเลิน', 'メヘレン', '梅赫伦', '메헬렌'];EU
2791700;Mariakerke;51.07476;3.68289;BE;17062;Europe/Brussels;VLG;['Mariakerke'];EU
2791726;Marcinelle;50.39216;4.44388;BE;23696;Europe/Brussels;WAL;['Charleroi (Marcinelle)', 'Marcinele', 'Mårcinele'];EU
2791735;Marchienne-au-Pont;50.40573;4.3953;BE;15154;Europe/Brussels;WAL;['Charleroi (Marchienne-au-Pont)', 'Marciene', 'Mårciene'];EU
2791744;Marche-en-Famenne;50.22678;5.34416;BE;16856;Europe/Brussels;WAL;"['Marca in Falmana', 'Marche', 'Marsh an Famen', 'Marsh-an-Famen', 'Matche-el-Famene', 'Måtche-el-Fåmene', 'fa mei en de qu ma er shen', 'maleusyuangpamen', ""marushu=an=famen'nu"", 'Марш ан Фамен', 'Марш-ан-Фамен', 'مرش\u200cآن\u200cفمن', 'マルシュ＝アン＝ファメンヌ', '法梅恩地区马尔什', '마르슈앙파멘']";EU
2791814;Manage;50.50312;4.23589;BE;22196;Europe/Brussels;WAL;['Manadje', 'Manage', 'Manazh', 'mnzh', 'Манаж', 'منژ'];EU
2791857;Maldegem;51.20737;3.44511;BE;22092;Europe/Brussels;VLG;"[""Mal'degem"", 'Maldegem', 'Moaldegem', 'ma er de hai mu', 'mldwzhm', 'Малдегем', 'Мальдегем', 'ملدوژم', '马尔德海姆']";EU
2791961;Maasmechelen;50.96545;5.69452;BE;36251;Europe/Brussels;VLG;['Maasmechelen', 'Maasmekhelen', 'Maasmekhelene', 'Masmekhelen', 'Massmechelen', 'Mechele', 'ma si mei he lun', 'mas me khexlein', 'masmykhylyn', 'masumeheren', 'myamshlan', 'Маасмехелен', 'Маасмехелене', 'Масмехелен', 'مئامشلان', 'ماسميخيلين', 'มาสเมเคอเลิน', 'マースメヘレン', '马斯梅赫伦'];EU
2791964;Maaseik;51.09802;5.78379;BE;25201;Europe/Brussels;VLG;['Maaseik', 'Maasejk', 'Maeseyck', 'Mezeik', 'ma sai ke', 'ma sik', 'masaiku', 'masayk', 'maseikeu', 'mazk', 'Маасейк', 'مازک', 'ماسايك', 'มาไซก์', 'マーサイク', '马塞克', '마세이크'];EU
2792073;Louvain-la-Neuve;50.66829;4.61443;BE;29521;Europe/Brussels;WAL;['Li Nou Loven', 'Li Noû Lovén', 'Luven-la-Nev', 'Novum Lovanium', 'Ottignies-Louvain-la-Neuve (Louvain-la-Neuve)', 'ruvuan=ra=nuvu', 'Лувен-ла-Нев', 'ルーヴァン＝ラ＝ヌーヴ'];EU
2792179;Lommel;51.23074;5.31349;BE;31993;Europe/Brussels;VLG;['Lomel', 'Lomelis', 'Lommel', 'lml', 'lom meil', 'luo mo er', 'lwml', 'Ломел', 'Ломмел', 'لمل', 'لومل', 'โลมเมิล', '洛默尔'];EU
2792196;Lokeren;51.10364;3.99339;BE;41438;Europe/Brussels;VLG;['Lokeren', 'Lokerenas', 'luo ke lun', 'lwkrn', 'Локерен', 'لوکرن', '洛克伦'];EU
2792235;Lochristi;51.09644;3.83194;BE;19696;Europe/Brussels;VLG;['Lochristi', 'Lokhristi', 'Loochristi', 'Loochristy', 'luo ke li si di', 'lwkrysty', 'Лохристи', 'لوکریستی', '洛克里斯蒂'];EU
2792360;Lille;51.24197;4.82313;BE;15466;Europe/Brussels;VLG;['Lille', 'Lille  Antwerpen  Belgie', 'Lille  Antwerpen  België'];EU
2792397;Lier;51.13128;4.57041;BE;33272;Europe/Brussels;VLG;"[""L'er"", 'Lier', 'Lierre', 'Lijr', 'Lir', 'Lyras', 'li er', 'lileu', 'lyr', 'riru', 'Лийр', 'Лир', 'Льер', 'Лір', 'لیر', 'リール', '利尔', '리르']";EU
2792413;Liège;50.63373;5.56749;BE;195278;Europe/Brussels;WAL;"[""L'ezh"", 'LGG', 'Leck', 'Leodic', 'Leodicum', 'Leodium', 'Lidje', 'Liege', 'Liegi', 'Liego', 'Lieja', 'Liex', 'Liez', 'Liezh', 'Lieĝo', 'Lige', 'Lijezh', 'Liège', 'Lièja', 'Ljez', 'Ljeza', 'Ljezas', 'Ljež', 'Lježas', 'Ljēža', 'Luettich', 'Luik', 'Luttich', 'Lutych', 'Luuk', 'Léck', 'Lüttich', 'Lēodic', 'Suguru', 'Sùguru', 'lie ri', 'lieju', 'liezhi', 'lija', 'lyj', 'lyyj', 'lyyz', 'lyzh', 'rieju', 'Λιέγη', 'Лиеж', 'Лијеж', 'Льеж', 'Льєж', 'Լիեժ', 'לייז', 'ליעזש', 'لييج', 'لیج', 'لیژ', 'लीज', 'ลีแยฌ', 'လိဂျမြို့', 'ლიეჟი', 'リエージュ', '列日', '리에주']";EU
2792482;Leuven;50.87959;4.70093;BE;101032;Europe/Brussels;VLG;"[""L'oven"", 'Leouben', 'Leuve', 'Leuven', 'Ljoven', 'Loewen', 'Louvain', 'Lovaina', 'Lovan', 'Lovanio', 'Lovanium', 'Lovaň', 'Loveno', 'Luven', 'Löwen', 'ZGK', 'lu wen', 'revuen', 'ruvuen', 'Λέουβεν', 'Лувен', 'Льовен', 'Лёвен', 'ルーヴェン', 'レーヴェン', '鲁汶']";EU
2792567;Lessines;50.71104;3.83579;BE;17687;Europe/Brussels;WAL;['Lesin', 'Lessen', 'Lessin', 'Lessines', 'lai xi en', 'lsyn', 'Лесин', 'Лессин', 'لسین', '莱西恩'];EU
2793077;Lede;50.96626;3.98594;BE;16813;Europe/Brussels;VLG;['Lede'];EU
2793144;Lebbeke;51.00464;4.13457;BE;17372;Europe/Brussels;VLG;['Lebbeke'];EU
2793446;Lanaken;50.89318;5.6468;BE;24771;Europe/Brussels;VLG;['Lanaeken', 'Lanaken'];EU
2793508;La Louvière;50.48657;4.18785;BE;76668;Europe/Brussels;WAL;"['El Lovire', 'La Louviere', 'La Louvière', 'La Luvjer', 'La Luvjeras', ""La-Luv'er"", 'Louvierre', 'Luparia', 'Luvier', 'la lu wei ye er', 'la lwwyr', 'lalubieleu', 'Ла Лувјер', 'Ла-Лувьер', 'Лувиер', 'لا لوویر', 'ラ・ルヴィエール', '拉卢维耶尔', '라루비에르']";EU
2794055;Kortrijk;50.82803;3.26487;BE;73879;Europe/Brussels;VLG;['Contrai', 'Cortoriacum', 'Cortrique', 'Courtrai', 'KJK', 'Kortrajk', 'Kortrehjk', 'Kortreika', 'Kortreikas', 'Kortrejk', 'Kortrejko', 'Kortrijk', 'Kortrik', 'Kortryk', 'ke te lai ke', 'khxrth rikh', 'koleuteuleikeu', 'kortrejk', 'korutoreiku', 'kwrtryk', 'qwrtryyq', 'Кортрајк', 'Кортрейк', 'Кортрэйк', 'קורטרייק', 'کورتریک', 'คอร์ทไรค์', 'コルトレイク', '科特赖克', '코르트레이크'];EU
2794070;Kortenberg;50.88982;4.54353;BE;17774;Europe/Brussels;VLG;['Cortenberg', 'Kortenberg', 'ke teng bei he', 'kwrtanbrg', 'Кортенберг', 'کورتانبرگ', '科滕贝赫'];EU
2794117;Kontich;51.13213;4.44706;BE;20290;Europe/Brussels;VLG;['Condacum', 'Contich', 'Kontich', 'Kontikh', 'kong di he', 'kwntyk', 'Контих', 'Контич', 'کونتیک', '孔蒂赫'];EU
2794166;Koksijde;51.11642;2.63772;BE;21957;Europe/Brussels;VLG;['Coxyde', 'Koksejde', 'Koksijde', 'Koksijdo', 'Koksyde', 'ke ke sai de', 'kwksyzhd', 'Коксейде', 'Коксийде', 'کوکسیژد', '科克赛德'];EU
2794179;Koersel;51.05909;5.27121;BE;18076;Europe/Brussels;VLG;['Beringen (Koersel)', 'Coursel'];EU
2794190;Koekelberg;50.86117;4.33136;BE;21984;Europe/Brussels;BRU;"['Brussel (Koekelberg)', 'Bruxelles (Koekelberg)', 'Koekelberg', ""Kukel'berg"", 'Kukelberg', 'kokuruberu', 'ku ke er bei er he', 'kukelbeleuheu', 'kwykwlbrg', 'Кукелберг', 'Кукельберг', 'کوئکولبرگ', 'コクルベール', '库克尔贝尔赫', '쿠켈베르흐']";EU
2794210;Knokke-Heist;51.35;3.26667;BE;33781;Europe/Brussels;VLG;['Knoke-Khajst', 'Knokke-Heist', 'Knokke-Khejst', 'Knokkne', 'Noke-Khajst', 'ke nuo ke-hai si te', 'keunokeoheiseuteu', 'knwkyst', 'kunokku=heisuto', 'Кноке-Хайст', 'Кнокке-Хейст', 'Ноке-Хајст', 'کنوکئست', 'クノック＝ヘイスト', '克诺克－海斯特', '크노커헤이스트'];EU
2794507;Kessel-Lo;50.88549;4.73717;BE;30215;Europe/Brussels;VLG;['Kessel-Loo', 'Leuven (Kessel-Lo)'];EU
2794663;Kasterlee;51.24118;4.96651;BE;17765;Europe/Brussels;VLG;['Casterle', 'Kasterlee'];EU
2794730;Kapellen;51.31377;4.43539;BE;26410;Europe/Brussels;VLG;['Cappellen', 'Kapelen', 'Kapellen', 'Kapellene', 'ka pei lun', 'kpwlan', 'Капелен', 'Капеллен', 'Капеллене', 'کپولان', '卡佩伦'];EU
2794788;Kalmthout;51.38442;4.47556;BE;17485;Europe/Brussels;VLG;['Calmpthout', 'Kalmthout'];EU
2794860;Jumet;50.4422;4.43745;BE;24510;Europe/Brussels;WAL;['Charleroi (Jumet)', 'Djumet'];EU
2794914;Jette;50.87309;4.33419;BE;52490;Europe/Brussels;BRU;['Brussel (Jette)', 'Bruxelles (Jette)', 'Jete', 'Jette', 'Zhet', 'jeteu', 'jetto', 'jyty', 're te', 'zht', 'Жет', 'Йете', 'جيتي', 'ژت', 'ジェット', '热特', '제트'];EU
2794981;Jambes;50.45636;4.87166;BE;19658;Europe/Brussels;WAL;['Djambe', 'Namur (Jambes)', 'jmbs', 'جمبس'];EU
2795009;Izegem;50.91396;3.21378;BE;26382;Europe/Brussels;VLG;['Iseghem', 'Izegem', 'Izzegem', 'Yseghem', 'Yzegem', 'ayzzhm', 'yi ze hai mu', 'Изегем', 'ایزژم', '伊泽海姆'];EU
2795011;Ixelles;50.83333;4.36667;BE;86671;Europe/Brussels;BRU;"['Brussel (Elsene)', 'Bruxelles (Ixelles)', 'Elsene', 'Iksel', ""Iksel'"", 'Ixelles', 'Ixelles - Elsene', 'Ixelles-Elsene', 'Ixelles/Elsene', 'ayksl', 'igsel', 'ikuseru', 'yi ke sai er', 'Іксель', 'Иксел', 'Иксель', 'إيكسل', 'ایکسل', 'イクセル', '伊克塞尔', '익셀']";EU
2795100;Ieper;50.85114;2.88569;BE;35089;Europe/Brussels;VLG;['Ieper', 'Iper', 'Ipr', 'Ipra', 'Ipro', 'Yper', 'Ypern', 'Ypr', 'Ypra', 'Ypras', 'Ypres', 'Ypry', 'aypr', 'ipeoleu', 'iperu', 'yi po er', 'yprys', 'Υπρ', 'Іпр', 'Ипер', 'Ипр', 'איפר', 'ایپر', 'یپریس', 'イーペル', '伊珀尔', '이퍼르'];EU
2795113;Huy;50.51894;5.23284;BE;19973;Europe/Brussels;WAL;['Hoei', 'Hu', 'Huy', 'Jui', 'awyy', 'hwy', 'i', 'yu yi', 'yui', 'Юи', 'Юї', 'אואי', 'اویی', 'هوي', 'ユイ', '于伊', '이'];EU
2795261;Houthalen;51.03427;5.37429;BE;30050;Europe/Brussels;VLG;['Houthaelen', 'Houthaelenberg', 'Houthalen-Helchteren (Houthalen)'];EU
2795398;Hoogstraten;51.40029;4.76034;BE;18524;Europe/Brussels;VLG;['Hoogstraeten', 'Hoogstraten', 'Khogstraten', 'awgstrtan', 'huo he si te la teng', 'hwkhstratn', 'Хогстратен', 'اوگسترتان', 'هوخستراتن', '霍赫斯特拉滕'];EU
2795730;Hoboken;51.17611;4.34844;BE;34443;Europe/Brussels;VLG;['Antwerp (Hoboken)', 'Hoboken-lez-Anvers'];EU
2795783;Heverlee;50.86426;4.69597;BE;23278;Europe/Brussels;VLG;['Heverle', 'Leuven (Heverlee)'];EU
2795795;Heusy;50.57457;5.86618;BE;15420;Europe/Brussels;WAL;['Verviers (Heusy)'];EU
2795800;Heusden;51.03664;5.28013;BE;31017;Europe/Brussels;VLG;['Heusden-Zolder (Heusden)'];EU
2795908;Herzele;50.88681;3.89014;BE;16523;Europe/Brussels;VLG;['Herzele'];EU
2795912;Herve;50.64083;5.79353;BE;16544;Europe/Brussels;WAL;['Ehrv', 'Erv', 'Herf', 'Herve', 'arw', 'he er fu', 'Ерв', 'Эрв', 'ارو', '赫尔夫'];EU
2795930;Herstal;50.66415;5.62346;BE;36503;Europe/Brussels;WAL;"[""Ehrstal'"", 'Erstal', 'Heristalium', 'Herstal', 'Herstalis', 'Hesta', 'Kherstal', 'arstal', 'eleuseutal', 'erusutaru', 'he er si ta er', 'Ерстал', 'Херстал', 'Эрсталь', 'ارستال', 'エルスタル', '赫尔斯塔尔', '에르스탈']";EU
2796009;Herentals;51.17655;4.83248;BE;25912;Europe/Brussels;VLG;['Herentals', 'Herenthals', 'Kherentals', 'arantl', 'he lun ta er si', 'Херенталс', 'ارانتل', '赫伦塔尔斯'];EU
2796012;Herent;50.90861;4.67056;BE;19218;Europe/Brussels;VLG;['Herent', 'Kherent', 'aran', 'hai lun te', 'Херент', 'اران', '海伦特'];EU
2796132;Helchteren;51.05591;5.38244;BE;30050;Europe/Brussels;VLG;['Houthalen-Helchteren (Helchteren)'];EU
2796153;Heist-op-den-Berg;51.07537;4.72827;BE;37873;Europe/Brussels;VLG;['Heist-op-den-Berg', 'Heyst-op-den-Berg', 'Khajst op den Berg', 'Khejst op den Berg', 'aystwp-dan-brg', 'hai si te ao pu deng bei er he', 'Хајст оп ден Берг', 'Хейст оп ден Берг', 'ایستوپ-دان-برگ', '海斯特奥普登贝尔赫'];EU
2796491;Hasselt;50.93106;5.33781;BE;77651;Europe/Brussels;VLG;['Asselt', 'Gasselt', 'Haselt', 'Haseltas', 'Haselto', 'Hasselt', 'Khaselt', 'Khasselt', 'QHA', 'aslt', 'ha se er te', 'has sel th', 'haselteu', 'hasseruto', 'Άσσελτ', 'Гасселт', 'Хаселт', 'Хасселт', 'Հասելտ', 'اسلت', 'ฮัสเซลท์', 'ハッセルト', '哈瑟尔特', '하셀트'];EU
2796542;Harelbeke;50.85343;3.30935;BE;25978;Europe/Brussels;VLG;['Hailebeke', 'Harelbeke', 'Harelbeke vald', 'Harelbekė', 'Harlebeke', 'Kharelbeke', 'Oarelbeke', 'ha lei er bei ke', 'Харелбеке', 'ارل\u200cبک', '哈勒尔贝克'];EU
2796637;Hamme;51.09822;4.13705;BE;22891;Europe/Brussels;VLG;['Ama', 'Hame', 'Hamme', 'Hamė', 'Khame', 'Khamme', 'am', 'ha mo', 'Хаме', 'Хамме', 'ام', '哈默'];EU
2796696;Halle;50.73385;4.23454;BE;34479;Europe/Brussels;VLG;['Galle', 'Hal', 'Halle', 'Halle i Belgia', 'Khale', 'Khalle', 'al', 'ha lai', 'halh', 'Галле', 'Хале', 'Халле', 'ال', 'هاله', '哈莱'];EU
2796833;Haaltert;50.90634;4.00093;BE;17129;Europe/Brussels;VLG;['Haaltert', 'Haeltert'];EU
2797096;Grivegnée;50.62148;5.61101;BE;21057;Europe/Brussels;WAL;['Liege (Grivegnee)', 'Liège (Grivegnée)'];EU
2797114;Grimbergen;50.93409;4.37213;BE;37000;Europe/Brussels;VLG;['Grimbergen', 'Grimberghen', 'Xrimberxen', 'grymbrzhan', 'he lin bei heng', 'Гримберген', 'Խրիմբերխեն', 'گریمبرژان', '赫林贝亨'];EU
2797532;Gilly;50.42449;4.4789;BE;20043;Europe/Brussels;WAL;['Charleroi (Gilly)', 'Djili', 'Djilî'];EU
2797638;Geraardsbergen;50.77343;3.88223;BE;30807;Europe/Brussels;VLG;['Geeraardsbergen', 'Geraardsbergen', 'Gerardsbergen', 'Grammont', 'he la er ci bei heng', 'zhrardzbrzhan', 'Гераардсберген', 'Герардсберген', 'ژراردزبرژان', '赫拉尔兹贝亨'];EU
2797652;Gentbrugge;51.03692;3.76509;BE;15885;Europe/Brussels;VLG;['Gentbrugge'];EU
2797656;Gent;51.05;3.71667;BE;265086;Europe/Brussels;VLG;['GNE', 'Gaent', 'Gand', 'Gandavum', 'Gandawa', 'Gande', 'Gant', 'Gante', 'Ganti', 'Gend', 'Gent', 'Gentas', 'Gente', 'Gento', 'Ghent', 'Gint', 'Gænt', 'gen te', 'genta', 'ghnt', 'gnt', 'henteu', 'hento', 'jenta', 'jnt', 'ken t', 'khenta', 'khnt', 'Γάνδη', 'Гент', 'Գենտ', 'גנט', 'جنت', 'خنت', 'غنت', 'غینٹ', 'खेंट', 'गेंट', 'জেন্ট', 'เกนต์', 'ဂင့်မြို့', 'გენტი', 'ヘント', '根特', '헨트'];EU
2797670;Genk;50.965;5.50082;BE;63666;Europe/Brussels;VLG;['Genck', 'Genk', 'Генк'];EU
2797713;Gembloux;50.56149;4.69889;BE;21676;Europe/Brussels;WAL;['Djiblou', 'Gembloers', 'Gembloux', 'Gemblua', 'Geminiacum', 'Jembloux', 'Zamblu', 'Zhamblu', 'janburu', 'jangbeullu', 'rang bu lu', 'zhamblw', 'Žamblu', 'Гемблуа', 'Жамблу', 'ژامبلو', 'ジャンブルー', '让布卢', '장블루'];EU
2797779;Geel;51.16557;4.98917;BE;34697;Europe/Brussels;VLG;['Geel', 'Gel', 'Gelis', 'Gheel', 'he er', 'heil', 'heru', 'zhl', 'Геел', 'Гел', 'ژل', 'ヘール', '赫尔', '헤일'];EU
2797844;Ganshoren;50.87065;4.31531;BE;24859;Europe/Brussels;BRU;['Brussel (Ganshoren)', 'Bruxelles (Ganshoren)', 'Gansgoren', 'Ganshoren', 'Ganskhoren', 'gangsolang', 'ganshoan', 'ganshwran', 'han si huo lun', 'Гансгорен', 'Гансхорен', 'گانشوران', 'ガンショアン', '汉斯霍伦', '강소랑'];EU
2798023;Frameries;50.40578;3.89603;BE;20598;Europe/Brussels;WAL;['Frameri', 'Frameris', 'Framrie', 'Framriye', 'frmwrh', 'Фрамери', 'Фрамерис', 'فرموره'];EU
2798139;Forest;50.81678;4.32775;BE;56254;Europe/Brussels;BRU;['Brussel (Vorst)', 'Bruxelles (Forest)', 'Fore', 'Forest', 'Forest-Vorst', 'Forest/Vorst', 'Vorst', 'foresuto', 'fu lei', 'fwrh', 'pole', 'Форе', 'Форест', 'فوره', 'フォレスト', '福雷', '포레'];EU
2798297;Fleurus;50.48351;4.55006;BE;22080;Europe/Brussels;WAL;"[""Fl'orjus"", 'Flerus', 'Fleuru', 'Fljorjus', 'flwrw', 'fururyusu', 'peulloelwiseu', 'Флерус', 'Фльорюс', 'Флёрюс', 'فلورو', 'フルーリュス', '플뢰뤼스']";EU
2798301;Fléron;50.61516;5.68062;BE;15994;Europe/Brussels;WAL;['Fleron', 'flrwn', 'fu lai long', 'Флерон', 'فلرون', '弗莱龙'];EU
2798307;Flémalle-Haute;50.59994;5.44471;BE;25144;Europe/Brussels;WAL;['Flemalle (Flemalle-Haute)', 'Flémalle (Flémalle-Haute)'];EU
2798551;Evergem;51.11306;3.70976;BE;31615;Europe/Brussels;VLG;['Ehvergem', 'Evergem', 'Everghem Rabot', 'ai fu hai mu', 'aywrzhm', 'Евергем', 'Эвергем', 'ایورژم', '埃弗海姆'];EU
2798554;Evere;50.87441;4.39905;BE;41667;Europe/Brussels;BRU;['Brussel (Evere)', 'Bruxelles (Evere)', 'Ehvere', 'Ever', 'Evere', 'ai wei lei', 'awr', 'ebeleo', 'evuere', 'Евер', 'Евере', 'Эвере', 'اور', 'エヴェレ', '埃韦勒', '에베러'];EU
2798573;Eupen;50.6279;6.03647;BE;18029;Europe/Brussels;WAL;['Ehjpen', 'Ejpen', 'Epen', 'Epenas', 'Eupe', 'Eupen', 'Eypen', 'Neyaw', 'Neyåw', 'Ojpen', 'ao yi peng', 'awpan', 'oipen', 'Ейпен', 'Епен', 'Ойпен', 'Эйпен', 'Էյպեն', 'اوپان', 'オイペン', '奥伊彭', '오이펜'];EU
2798578;Etterbeek;50.83272;4.38835;BE;48344;Europe/Brussels;BRU;['Brussel (Etterbeek)', 'Bruxelles (Etterbeek)', 'Ehtterbek', 'Eterbek', 'Etermpeek', 'Etterbeek', 'Etterbek', 'Ietrebecca', 'ai te er bei ke', 'aytrbyk', 'aytrbyyk', 'eteleubeikeu', 'eterubeku', 'Έτερμπεεκ', 'Етербек', 'Еттербек', 'Эттербек', 'إيتربيك', 'ایتربیئک', 'エテルベーク', '埃特尔贝克', '에테르베이크'];EU
2798873;Ekeren;51.28087;4.41813;BE;23300;Europe/Brussels;VLG;['Antwerpen (Ekeren)', 'Eeckeren'];EU
2798987;Eeklo;51.18703;3.55654;BE;19116;Europe/Brussels;VLG;['Eecloo', 'Eeklo', 'Eekloo', 'Ehklo', 'Eklo', 'ai ke luo', 'aklw', 'Êeklo', 'Екло', 'Экло', 'اکلو', '埃克洛'];EU
2799007;Edegem;51.15662;4.44504;BE;21839;Europe/Brussels;VLG;['Edegem', 'Edeghem'];EU
2799090;Duffel;51.09554;4.50903;BE;16011;Europe/Brussels;VLG;['Duffel'];EU
2799226;Dour;50.39583;3.77792;BE;16861;Europe/Brussels;WAL;['Dou', 'Doû', 'Dur', 'du er', 'dwr', 'Дур', 'دور', '杜尔'];EU
2799365;Dilbeek;50.84799;4.25972;BE;39482;Europe/Brussels;VLG;['Dilbeek', 'Dilbek', 'Zibbeek', 'di er bei ke', 'dilbek', 'dylbyk', 'Дилбек', 'دیلبئک', '迪尔贝克'];EU
2799369;Diksmuide;51.03248;2.86384;BE;15515;Europe/Brussels;VLG;['Diksmude', 'Diksmuide', 'Diksmuiden', 'Dixmude', 'Dixmuide', 'Dixmuiden', 'Smude'];EU
2799397;Diest;50.98923;5.05062;BE;22516;Europe/Brussels;VLG;['Diest', 'Dijst', 'Distas', 'di si te', 'dist', 'dyh', 'Дийст', 'دیه', 'ดีสต์', '迪斯特'];EU
2799412;Diepenbeek;50.90769;5.41875;BE;17699;Europe/Brussels;VLG;[''];EU
2799478;Deurne;51.22134;4.46595;BE;78747;Europe/Brussels;VLG;['Deurne'];EU
2799496;Destelbergen;51.05952;3.79899;BE;16853;Europe/Brussels;VLG;['Destelbergen', 'dai si te er bei heng', 'dtlbrzhan', 'Дестелберген', 'دتلبرژان', '代斯特尔贝亨'];EU
2799645;Dendermonde;51.02869;4.10106;BE;45673;Europe/Brussels;VLG;['Dendermonde', 'Teneramonda', 'Termonde', 'dandrmwnd', 'dendeleumondeo', 'dendermonde', 'denderumonde', 'deng de er meng de', 'dndrmwndh', 'Дендермонде', 'דנדרמונדה', 'داندرموند', 'デンデルモンデ', '登德尔蒙德', '덴데르몬더'];EU
2799647;Denderleeuw;50.88506;4.07601;BE;16969;Europe/Brussels;VLG;['Denderleeuw'];EU
2799746;Deinze;50.98175;3.53096;BE;29815;Europe/Brussels;VLG;['Dajnze', 'Deinze', 'Dejnze', 'Deynze', 'dai yin ze', 'dnz', 'Дайнзе', 'Дейнзе', 'دنز', '代因泽'];EU
2800063;Courcelles;50.46379;4.3747;BE;29473;Europe/Brussels;WAL;"['Courcele', 'Courcelles', 'Curticellae', 'Kursel', ""Kursel'"", 'kwrsl', 'kwrsyl', 'Курсел', 'Курсель', 'كورسيل', 'کورسل']";EU
2800220;Colfontaine;50.4141;3.85569;BE;19964;Europe/Brussels;WAL;"['Colfontinne', ""Kol'fonten"", 'Kolfonten', 'kwlfwntn', 'Колфонтен', 'Кольфонтен', 'کولفونتن']";EU
2800438;Chaudfontaine;50.5828;5.6341;BE;20960;Europe/Brussels;WAL;['Chaudfontaine', 'Shofonten', 'Tchofontinne', 'Tchôfontinne', 'shao de fang dan', 'shwfwntn', 'Шофонтен', 'شوفونتن', '绍德方丹'];EU
2800445;Châtelineau;50.41499;4.52016;BE;17166;Europe/Brussels;WAL;['Chatelineau', 'Châtelineau'];EU
2800448;Châtelet;50.40338;4.52826;BE;35238;Europe/Brussels;WAL;['Castellarium', 'Chatelet', 'Châtelet', 'Shatle', 'Tcheslet', 'shtlh', 'Шатле', 'شتله'];EU
2800481;Charleroi;50.41136;4.44448;BE;200132;Europe/Brussels;WAL;['Carleroe', 'Carleroé', 'Caroloregium', 'Charleroi', 'Sarlero', 'Sarleroua', 'Sarlerua', 'Sarlrua', 'Sharleroa', 'Sharlerua', 'Sharlroa', 'Tchalerwe', 'Tchålerwè', 'char lex raw', 'charlyrwyy', 'sha lei luo wa', 'sharlerua', 'sharlrwa', 'sharlwrwa', 'sharururowa', 'syaleullua', 'Ŝarlero', 'Šarlerua', 'Šarlruā', 'Σαρλερουά', 'Шарлероа', 'Шарлеруа', 'Шарлроа', 'Շառլեռուա', 'שרלרואה', 'شارلروآ', 'شارلوروا', 'چارلیروئی', 'ชาร์เลอรัว', 'შარლერუა', 'シャルルロワ', '沙勒罗瓦', '샤를루아'];EU
2800866;Brussels;50.85045;4.34878;BE;1019022;Europe/Brussels;BRU;"['An Bhruiseil', 'An Bhruiséil', 'BRU', 'Brasels', 'Breissel', 'Brisel', 'Brisele', 'Briuselis', 'Brjuksel', ""Brjusel'"", ""Brjussel'"", 'Brueksel', 'Bruessel', 'Bruesszel', 'Bruiseal', 'Bruksel', 'Bruksela', 'Brukseli', 'Brukselo', ""Brusehl'"", 'Brusel', 'Brusela', 'Bruselas', 'Bruseles', 'Bruselj', 'Bruselo', 'Brusel·les', 'Brussel', 'Brussele', 'Brussels', 'Brussel·les', 'Bruxel', 'Bruxelas', 'Bruxellae', 'Bruxelles', 'Brwsel', 'Bryssel', 'Bryusel', 'Bryxelles', 'Bréissel', 'Brüksel', 'Brüssel', 'Brüsszel', 'Citta di Bruxelles', 'Città di Bruxelles', 'City of Brussels', 'Kota Brusel', 'beulwisel', 'bi lu xi', 'braselasa', 'braselsa', 'brassels', 'briuseli', 'brwksl', 'brysl', 'bu lu sai er', 'buryusseru', 'Βρυξέλλες', 'Брисел', 'Брусэль', 'Брюксел', 'Брюсель', 'Брюссель', 'Բրյուսել', 'בריסל', 'بروكسل', 'بروکسل', 'بريۇسسېل', 'ܒܪܘܟܣܠ', 'ब्रसेल्स', 'ব্রাসেলস', 'บรัสเซลส์', 'ბრიუსელი', 'ブリュッセル', '布魯塞爾', '布鲁塞尔', '比律悉', '브뤼셀']";EU
2800931;Brugge;51.20892;3.22424;BE;118509;Europe/Brussels;VLG;['Brige', 'Briuge', 'Briugė', 'Briz', 'Brizh', 'Briž', 'Brjuge', 'Brjugge', 'Broegge', 'Brudje', 'Bruegge', 'Brugae', 'Brugeh', 'Bruges', 'Brugge', 'Bruggy', 'Brugia', 'Brugo', 'Bruhhe', 'Brujas', 'Bruxas', 'Bruza', 'Bruĝo', 'Brycg', 'Brygge', 'Bryugge', 'Bryz', 'Brögge', 'Brügge', 'beulwiheo', 'briuge', 'bruch', 'bruja', 'brwj', 'brwkhh', 'brwyz', 'brwz', 'bu lu he', 'bu lu ri li shi zhong xin', 'buruhhe', 'Μπρυζ', 'Бриж', 'Бругэ', 'Брюгге', 'Брюге', 'Բրյուգգե', 'ברוז', 'بروج', 'بروخه', 'برویز', 'ब्रूज', 'บรูช', 'ბრიუგე', 'ブルッヘ', '布吕赫', '布鲁日历史中心', '브뤼허'];EU
2801117;Brasschaat;51.2912;4.49182;BE;37040;Europe/Brussels;VLG;['Braschatas', 'Braskhat', 'Brasschaat', 'Brasschaep', 'Brasschaet', 'braskhat', 'bu la si ha te', 'Брасхат', 'براسخات', '布拉斯哈特'];EU
2801150;Braine-le-Comte;50.60979;4.14658;BE;20133;Europe/Brussels;WAL;"[""'s-Gravenbrakel"", 'Braine-le-Comte', 'Brem-le-Kont', ""Bren l'o Kont"", 'Bren-le-Kont', 'Brinne-e-Hinnot', 's-Gravenbrakel', 'Брем-ле-Конт', 'Брен льо Конт', 'Брен-ле-Конт', 'برن\u200cلوکمت']";EU
2801154;Braine-l'Alleud;50.68363;4.36784;BE;37512;Europe/Brussels;WAL;"[""Braine-l'Alleud"", 'Braine-l’Alleud', ""Bren l'Al'o"", ""Bren l'Ale"", ""Bren-l'Alljo"", ""Brinne-l'-Alou"", 'Eigenbrakel', 'bu lai en la lei', ""Брен л'Але"", ""Брен л'Альо"", ""Брен-л'Аллё"", 'برن\u200cللو', '布赖恩拉勒']";EU
2801226;Boussu;50.43417;3.7944;BE;20058;Europe/Brussels;WAL;['Boussu', 'Boussu-dle-Mont', 'Boussu-dlé-Mont', 'Boussu-lez-Mons', 'Busju', 'Bussju', 'bwsw', 'Боуссу', 'Буссю', 'Бусю', 'بوسو'];EU
2801447;Bornem;51.09716;4.24364;BE;19997;Europe/Brussels;VLG;['Bornem', 'Bornhem', 'bo er ne mu', 'bwrnm', 'Борнем', 'بورنم', '博尔讷姆'];EU
2801471;Borgerhout;51.20957;4.43539;BE;46087;Europe/Brussels;VLG;['Antwerpen (Borgerhout)', 'Borgerhouts'];EU
2801494;Boom;51.09242;4.3717;BE;15810;Europe/Brussels;VLG;['Boom'];EU
2801824;Blauwput;50.88587;4.72415;BE;30215;Europe/Brussels;VLG;[''];EU
2801858;Blankenberge;51.31306;3.13227;BE;18000;Europe/Brussels;VLG;"[""Blank'nberge"", 'Blankenberge', 'Blankenberghe', 'Blanknberge', 'blanknbrzh', 'bu lan ken bei er he', 'burankenberuhe', 'Бланкенберге', 'بلانکنبرژ', 'ブランケンベルヘ', '布兰肯贝尔赫']";EU
2801922;Binche;50.41155;4.16469;BE;32030;Europe/Brussels;WAL;['Bensh', 'Bince', 'Binche', 'Binchium', 'baengsyu', 'banshu', 'bnsh', 'Бенш', 'بنش', 'バンシュ', '뱅슈'];EU
2801924;Bilzen;50.87325;5.5184;BE;29622;Europe/Brussels;VLG;['Bilsen', 'Bilze', 'Bilzen', 'bi er ceng', 'bil sein', 'bylzan', 'Билзен', 'Білзен', 'بیلزان', 'บิลเซิน', '比尔曾'];EU
2802031;Beveren;51.21187;4.25633;BE;45179;Europe/Brussels;VLG;['Beveren', 'Beveren Waas', 'Beveren-Waes', 'Beverenas', 'bebeleon', 'bei fu lun', 'bwwran', 'Беверен', 'بووران', '贝弗伦', '베베런'];EU
2802039;Bevere;50.8496;3.5873;BE;15311;Europe/Brussels;VLG;['Bevere'];EU
2802170;Beringen;51.04954;5.22606;BE;40930;Europe/Brussels;VLG;['Beeringen', 'Beringen', 'Beringenas', 'Beringene', 'Berringe', 'be xri ng khen', 'bei ling en', 'brnzhan', 'Беринген', 'Берингене', 'برنژان', 'เบอริงเคน', '贝灵恩'];EU
2802247;Berchem-Sainte-Agathe;50.86567;4.29557;BE;25162;Europe/Brussels;BRU;['Berchem-Sainte-Agathe', 'Berchem-Sainte-Agathe - Sint-Agatha-Berchem', 'Berchem-Sainte-Agathe/Sint-Agatha-Berchem', 'Berkem-Sent-Agat', 'Brussel (Sint-Agatha-Berchem)', 'Bruxelles (Berchem-Sainte-Agathe)', 'Sint Agata - Berkhem', 'Sint-Agatha-Berchem', 'bei er ke mu-sheng a jia te', 'shinto=agata=berushemu', 'synt-agata-brkhm', 'Беркем-Сент-Агат', 'Синт Агата - Берхем', 'سینت-آگاتا-برخم', 'シント＝アガタ＝ベルシェム', '贝尔克姆-圣阿加特'];EU
2802249;Berchem;51.19021;4.43264;BE;43511;Europe/Brussels;VLG;['Antwerpen (Berchem)'];EU
2802433;Beersel;50.76589;4.3002;BE;23228;Europe/Brussels;VLG;['Beersel', 'Bersel', 'bei er sai er', 'byrsl', 'Берсел', 'بئرسل', '贝尔塞尔'];EU
2802435;Beerse;51.31927;4.85304;BE;16208;Europe/Brussels;VLG;['Beerse', 'Beersse'];EU
2802743;Balen;51.16837;5.17027;BE;19978;Europe/Brussels;VLG;['Baelen', 'Balen', 'Balen-sur-Nethe', 'ba lun', 'blan', 'Бален', 'بلان', '巴伦'];EU
2802960;Auderghem;50.81667;4.43333;BE;33984;Europe/Brussels;BRU;['Anderghen', 'Audergem', 'Auderghem', 'Auderghem - Oudergem', 'Auderghem-Oudergem', 'Auderghem/Oudergem', 'Brussel (Oudergem)', 'Bruxelles (Auderghem)', 'Odergem', 'Oudergem', 'ao de er he mu', 'awdrgm', 'odeleugem', 'oderugemu', 'Аудергем', 'Одергем', 'اودرگم', 'オーデルゲム', '奥德尔赫姆', '오데르겜'];EU
2803010;Ath;50.62937;3.77801;BE;26681;Europe/Brussels;WAL;['Aat', 'At', 'Ate', 'Ath', 'Athum', 'at', 'Ât', 'Ατ', 'Ат', 'ات'];EU
2803030;Assebroek;51.19367;3.2623;BE;19772;Europe/Brussels;VLG;['Assebroek', 'Assebroeke', 'Assebrouck'];EU
2803033;Asse;50.91011;4.19836;BE;28985;Europe/Brussels;VLG;['Ase', 'Assche', 'Asse', 'Asso', 'a se', 'as', 'aseo', 'Асе', 'Ассе', 'Ассо', 'اس', '阿瑟', '아서'];EU
2803073;Arlon;49.68333;5.81667;BE;26179;Europe/Brussels;WAL;['Aarle', 'Aarlen', 'Arel', 'Arlon', 'Arlona', 'Arlonas', 'Arloni vald', 'Orolaunum', 'QON', 'a er long', 'aleullong', 'arln', 'arlwn', 'aruron', 'Årlon', 'Αρλόν', 'Арлон', 'Արլոն', 'ארלון', 'آرلن', 'آرلون', 'アルロン', '阿爾隆', '아를롱'];EU
2803138;Antwerpen;51.22047;4.40026;BE;529247;Europe/Brussels;VLG;['ANR', 'Amberes', 'Amberis', 'Amversa', 'Anberes', 'Antuairp', 'Antuerpen', 'Antuerpia', 'Antuérpia', 'Antverpen', 'Antverpenas', 'Antverpene', 'Antverpeno', 'Antverpens', 'Antverpia', 'Antverpy', 'Antwarp', 'Antwerp', 'Antwerpa', 'Antwerpe', 'Antwerpen', 'Antwerpia', 'Antwerpium', 'Antwerpn', 'Antwyrpijo', 'Antwérp', 'Anvers', 'Anversa', 'Anverse', 'Anvèrs', 'Anvérse', 'Kota Antwerpen', 'On-thit-vi-phu', 'amtavarpa', 'an te wei pu', 'anteubeleupen', 'antouerupen', 'antowapu', 'antverp', 'antwrb', 'antwrp', 'antwyrb', 'Ôn-thi̍t-ví-phú', 'Αμβέρσα', 'Антверпен', 'Անտվերպեն', 'אנטווערפן', 'אנטוורפן', 'آنتورپ', 'أنتويرب', 'انتورب', 'انتويرب', 'انٹیورپ', 'अँटवर्प', 'ஆண்ட்வெர்ப்', 'ആന്റ്\u200cവെർപ്', 'แอนต์เวิร์ป', 'အန့်တွပ်မြို့', 'ანტვერპენი', 'アントウェルペン', 'アントワープ', '安特卫普', '安特衞普', '안트베르펜'];EU
2803160;Ans;50.6623;5.52029;BE;27297;Europe/Brussels;WAL;['Ans', 'Anse', 'an', 'ang si', 'ansu', 'Анс', 'آن', 'アンス', '昂斯'];EU
2803201;Anderlecht;50.83619;4.31454;BE;160553;Europe/Brussels;BRU;['Anderlacum', 'Anderlech', 'Anderlecht', 'Anderleht', 'Anderlek', 'Anderlekht', 'Anderlihto', 'Anderliĥto', 'Brussel (Anderlecht)', 'Bruxelles (Anderlecht)', 'an de lai he te', 'andeoleheuteu', 'anderurehito', 'andrlkht', 'andrlsht', 'xandexr lekht', 'Андерлехт', 'آندرلخت', 'آندرلشت', 'أندرلخت', 'อันเดอร์เลคต์', 'アンデルレヒト', '安德莱赫特', '안더레흐트'];EU
2803204;Andenne;50.48941;5.09513;BE;24055;Europe/Brussels;WAL;['Anden', 'Andene', 'Andenn', 'Andenne', 'andn', 'ang dai ne', 'Анден', 'Анденн', 'آندن', '昂代讷'];EU
2803429;Aarschot;50.98715;4.83695;BE;27656;Europe/Brussels;VLG;['Aarschot', 'Aarschoti vald', 'Aarshot', 'Aerschot', 'Arschotas', 'Arskhot', 'a er si huo te', 'aleuseuhos', 'arssht', 'arusukoto', 'Άαρσχοτ', 'Ааршот', 'Арсхот', 'آرسچوٹ', 'ارسشت', 'アールスコート', '阿尔斯霍特', '아르스홋'];EU
2803443;Aalter;51.09017;3.44693;BE;18802;Europe/Brussels;VLG;['Aalter', 'Aeltre', 'Alter', 'a er te', 'alth', 'Άαλτερ', 'Алтер', 'آلٹیر', 'الته', '阿尔特'];EU
2803448;Aalst;50.93604;4.0355;BE;77534;Europe/Brussels;VLG;['Aals', 'Aalst', 'Alost', 'Alosti', 'Alostum', 'Alst', 'Alsta', 'Alstas', 'Alósti', 'Aosite', 'Halosta', 'Oalst', 'Àosītè', 'Ālsta'];EU
725578;Yambol;42.48333;26.5;BG;63656;Europe/Sofia;65;['Iambol', 'JAM', 'Jambol', 'Jamboli', 'Yambol', 'Yampolis', 'Ямбол'];EU
725712;Vratsa;43.21;23.5625;BG;64941;Europe/Sofia;64;['Ivraca', 'Vraca', 'Vracae', 'Vrata', 'Vratca', 'Vratsa', 'Vrattsa', 'Vratza', 'Vrața', 'Wraca', 'Wraza', 'beulacha', 'fratsa', 'fu la cha', 'vratsa', 'vuratsua', 'wratsa', 'İvraca', 'Βράτσα', 'Врацæ', 'Враца', 'וראצה', 'فراتسا', 'وراتسا', 'ڤراتسا', 'ヴラツァ', '弗拉察', '브라차'];EU
725905;Vidin;43.99159;22.88236;BG;40422;Europe/Sofia;63;['Vidin', 'Vidinas', 'Vidine', 'Vidinu', 'Vintin', 'Widin', 'Widyn', 'Widyń', 'bidin', 'fydn', 'vuidin', 'wdyn', 'wei ding', 'wydyn', 'Βίντιν', 'Видин', 'Видинъ', 'וידין', 'فيدن', 'ودین', 'ویدین', 'ヴィディン', '維丁', '비딘'];EU
725988;Velingrad;42.02754;23.99155;BG;24036;Europe/Sofia;48;['Velingrad', 'Velingradas', 'Velinkrant', 'Welingrad', 'bellingeuladeu', 'vueringurato', 'wei lin ge lei', 'wlyngrad', 'Βέλιγκραντ', 'Велинград', 'ולינגראד', 'ولینگراد', 'ڤێلینگراد', 'ヴェリングラト', '韋林格勒', '벨린그라드'];EU
725993;Veliko Tŭrnovo;43.08124;25.62904;BG;66217;Europe/Sofia;62;['Tarnovo', 'Tarnowo', 'Ternovo', 'Tirnovo', 'Trnova', 'Trnovo', 'Turnovo', 'Tărnovo', 'Tărnowo', 'Tŭrnovo', 'Veliko Trnovo', 'Veliko Tarnovo', 'Veliko Tărnovo', 'Weliko Tarnowo', 'Wielkie Tyrnowo', 'vueriko・tarunovuo', 'Велико Търново', 'ヴェリコ・タルノヴォ'];EU
726050;Varna;43.21667;27.91667;BG;312770;Europe/Sofia;61;['Barna', 'Odessos', 'Odessus', 'Stalin', 'VAR', 'Varna', 'Varna khot', 'Varnae', 'Várna', 'Warna', 'baleuna', 'farna', 'varna', 'vharna', 'vuaruna', 'wa er na', 'war na', 'warna', 'wʼrnh', 'Βάρνα', 'Варнæ', 'Варна', 'Варна хот', 'Վառնա', 'וארנה', 'فارنا', 'وارنا', 'व्हर्ना', 'วาร์นา', 'ვარნა', 'ヴァルナ', '瓦爾納', '바르나'];EU
726174;Targovishte;43.2512;26.57215;BG;34793;Europe/Sofia;60;['Eski Cuma', 'Eski Djoumaia', 'Eski Djoumaïa', 'Eski Dschumaja', 'Eski Dzhumaya', 'Eski Dzuma', 'Eski Dzumaja', 'Eski Dzumaya', 'Eski Džuma', 'Eski Džumaja', 'TGV', 'Targovichte', 'Targovichté', 'Targovishte', 'Targovisjte', 'Targoviste', 'Targovixte', 'Targoviŝte', 'Targowischte', 'Targòvixte', 'Tarnkoviste', 'Tergovishce', 'Tergoviste', 'Tergovištė', 'Tirgovishte', 'Trgovishte', 'Trgoviste', 'Trgovište', 'Turgovishhe', 'Turgovishte', 'Turgoviste', 'Tyrgovishte', 'Tyrgowiszte', 'Tërgovishçe', 'Tărgovište', 'Tărgoviște', 'Tărgowischte', 'Tŭrgovishte', 'Tŭrgovište', 'Tǎrgovište', 'targhwfyshth', 'te er ge wei shen te', 'teoleugobisyute', 'trgwbysth', 'Ταργκόβιστε', 'Тирговиште', 'Трговиште', 'Търговище', 'Тырговиште', 'טרגובישטה', 'تارغوفيشته', 'ترگوویشتے', 'ترگوویشتے ،بلغاریہ', '特爾戈維什特', '터르고비슈테'];EU
726320;Troyan;42.89427;24.71589;BG;21162;Europe/Sofia;46;['Comuna Troian', 'Gmina Trojan', 'Obshhina Trojan', 'Troian', 'Trojan', 'Troyan Municipality', 'Troïan', 'te luo yang shi', 'Община Троян', 'Троян', 'ტროიანის თემი', '特羅揚市'];EU
726418;Dobrich;43.56667;27.83333;BG;79269;Europe/Sofia;40;['Bazargic', 'Dobric', 'Dobrich', 'Dobrici', 'Dobricius', 'Dobricz', 'Dobritch', 'Dobritj', 'Dobrits', 'Dobritsch', 'Dobritsj', 'Dobritx', 'Dobritš', 'Dobriç', 'Dobriĉ', 'Dobrič', 'Dobričius', 'Dobrych', 'Dòbritx', 'Hadzi-Oghlu-Pazardzik', 'Hadži-Oghlu-Pazardžik', 'Khadzhioglu Bazardzhik', 'Khadzhioglu Pazardzhik', 'Ntomprits', 'Tolbuhin', 'Tolbukhin', 'dobeulichi', 'doburichi', 'duo bu li qi', 'dwbrch', 'dwbrych', 'dwbrytsh', 'dwbryz', 'Ντόμπριτς', 'Добрич', 'Добрыч', 'Դոբրիչ', 'דובריץ', 'دوبريتش', 'دوبرچ', 'دوبریچ', 'ドブリチ', '多布里奇', '도브리치'];EU
726534;Svishtov;43.61875;25.35033;BG;30157;Europe/Sofia;62;['Novae', 'Novensis Moesia Civitas', 'Sistov', 'Sistova', 'Staklen', 'Steklen', 'Sveyestov', 'Svisclov', 'Svishhov', 'Svishtov', 'Svislova', 'Svistov', 'Svišlova', 'Svištov', 'Swischtow', 'Свищов'];EU
726546;Svilengrad;41.76667;26.2;BG;19279;Europe/Sofia;43;['Cisri Mustafapasa', 'Cisri Mustafapaşa', 'Mustafa-Pasha', 'Mustafapasa', 'Mustafapaşa', 'Slivengrad', 'Svilen', 'Svilengrad', 'Svilengradas', 'Svilengrade', 'Swilengrad', 'aswylngrad', 'si wei lun ge lei', 'Свиленград', 'סבילנגראד', 'اسویلنگراد', 'سڤیلێنگراد', '斯維倫格勒'];EU
726848;Stara Zagora;42.43278;25.64194;BG;143431;Europe/Sofia;59;['Eski Zagra', 'Eski Zağra', 'SZR', 'Stara Sagora', 'Stara Zagora', 'Stara-Zagora', 'Stara-Zagorae', 'Stará Zagora', 'astara zagwra', 'jiu zha ge la', 'seutalajagola', 'stara zaghwra', 'stara zagwra', 'Στάρα Ζαγόρα', 'Стара Загора', 'Стара Ꙁагора', 'Стара-Загорæ', 'Стара-Загора', 'Ստարա Զագորա', 'סטארה זאגורה', 'استارا زاگورا', 'ستارا زاغورا', 'ستارا زاگورا', 'სტარა-ზაგორა', 'スタラ・ザゴラ', '舊扎戈拉', '스타라자고라'];EU
726872;Dupnitsa;42.26667;23.11667;BG;34764;Europe/Sofia;45;['Doepnitsa', 'Doupnitsa', 'Doupnitza', 'Dubnica', 'Dupnica', 'Dupnicja', 'Dupnita', 'Dupnitsa', 'Dupnitza', 'Dupniza', 'Dupnița', 'Marek', 'Ntoupnitsa', 'Stanke Dimitrov', 'Stanke Dimitrovo', 'doupunitsua', 'du pu ni cha', 'dupeunicha', 'dwpnytsa', 'dwpnyzh', 'Ντούπνιτσα', 'Дупница', 'Дупниця', 'דופניצה', 'دوپنیتسا', 'ドゥプニツァ', '杜普尼察', '두프니차'];EU
727011;Sofia;42.69751;23.32415;BG;1152556;Europe/Sofia;42;"['SOF', 'Safija', 'Serdica', 'Sofi', 'Sofia', 'Sofiae', 'Sofie', 'Sofii', 'Sofij', 'Sofija', 'Sofija osh', 'Sofijo', 'Sofio', 'Sofiya', 'Sofiä', 'Sofiýa', 'Sofja', 'Sofya', 'Sofía', 'Soifia', 'Sophia', 'Sredets', 'Suofeje', 'Suofėjė', 'Szofia', 'Szófia', 'Sòfia', 'Sófia', 'Sófía', 'Sóifia', 'Ulpia Serdica', 'cohviya', 'saphiya', 'seaphiya', 'sofeiy', ""sofi'a"", 'sofia', 'sophiya', 'sopia', 'suo fei ya', 'swfya', 'swfyh', 'swpyh', 'Σόφια', 'Сафія', 'Софи', 'Софий', 'София', 'София ош', 'Софија', 'Софія', 'Софїꙗ', 'Սոֆիա', 'סאפיע', 'סופיה', 'سوفىيە', 'سۆفیا', 'صوفيا', 'صوفیه', 'صوفیہ', 'صوٙفیە', 'सोफिया', 'সফিয়া', 'ਸੋਫ਼ੀਆ', 'சோஃவியா', 'സോഫിയ', 'โซเฟีย', 'སོ་ཧྥི་ཡ།', 'სოფია', 'ሶፊያ', 'ソフィア', '索菲亞', '소피아', '𐍃𐍉𐍆𐌹𐌰']";EU
727030;Smolyan;41.57439;24.71204;BG;26167;Europe/Sofia;57;['Paschmaklii', 'Pashmakla', 'Pashmakli', 'Pashmaklă', 'Pasmakli', 'Pasmakly', 'Pašmakli', 'Smolian', 'Smoljan', 'Smolyan', 'Смолян'];EU
727079;Sliven;42.68583;26.32917;BG;83740;Europe/Sofia;56;['Islimiye', 'Islimje', 'Sliven', 'Slivenas', 'Slivno', 'Sliwen', 'aslmyh', 'aslywn', 'seulliben', 'si li wen', 'sliveni', 'slybn', 'slyfn', 'slywyn', 'surivuen', 'sylwyn', 'Σλίβεν', 'Сливен', 'Слівен', 'סליבן', 'اسلمیه', 'اسلیون', 'سليفن', 'سلیوین', 'سلیڤێن', 'سیلوین', 'სლივენი', 'スリヴェン', '斯利文', '슬리벤'];EU
727221;Silistra;44.1171;27.26056;BG;29498;Europe/Sofia;55;['Dristra', 'Durostorum', 'SLS', 'Silistra', 'Silistrae', 'Silistre', 'Szilisztra', 'shirisutora', 'si li s tra', 'silliseuteula', 'sylstra', 'sylystra', 'sylystrh', 'xi li si te la', 'Σιλίστρα', 'Силистрæ', 'Силистра', 'Сілістра', 'סיליסטרה', 'سيليسترا', 'سیلسترا', 'سیلیسترا', 'ซิลิสตรา', 'シリストラ', '錫利斯特拉', '실리스트라'];EU
727233;Shumen;43.27064;26.92286;BG;72342;Europe/Sofia;54;['Choumen', 'Choumèn', 'Kolarovgrad', 'Schumen', 'Shoumen', 'Shumen', 'Shumla', 'Sjumen', 'Sumen', 'Sumla', 'Sumnu', 'shumen', 'Şumnu', 'Šumen', 'Šumla', 'Шумен'];EU
727337;Sevlievo;43.02583;25.11361;BG;24582;Europe/Sofia;41;['Savlievo', 'Seljvi', 'Selvi', 'Sevelijevo', 'Sevlievo', 'Sevlijevo', 'Sewliewo', 'Севлиево'];EU
727447;Sandanski;41.56667;23.28333;BG;28510;Europe/Sofia;38;['Sandanski', 'Sveti Vrac', 'Sveti Vrach', 'Sveti Vrač', 'Sveti-Vratch', 'Svéti-Vratch', 'Sweti Wratsch', 'Xanne Sandanski', 'Yane Sandanski', 'Сандански', 'Свети Врач'];EU
727462;Samokov;42.337;23.5528;BG;26765;Europe/Sofia;58;['Samakov', 'Samokov', 'Samokow', 'Samovkov', 'Самоков'];EU
727523;Ruse;43.84872;25.9534;BG;143417;Europe/Sofia;53;['ROU', 'Roese', 'Rouse', 'Rousse', 'Roussé', 'Roustchouk', 'Ruschuk', 'Ruschuq', 'Rusciuk', 'Rusclink', 'Ruscuk', 'Ruse', 'Rushchuk', 'Rushtuk', 'Russe', 'Rustcuk', 'Rustschuk', 'Rusze', 'Rusçuk', 'Rusė', 'Ruzo', 'Ruščuk', 'Saray-Makhle', 'Sexantaprista', 'lu sai', 'luse', 'ru se', 'ruse', 'rwsh', 'rwsh  blgharstan', 'Ρούσε', 'Роусє', 'Русе', 'Ռուսե', 'רוסה', 'روسه', 'روسه، بلغارستان', 'روسے، بلغاریہ', 'ڕوسێ', 'รูเซ', 'რუსე', 'ルセ', '鲁塞', '루세'];EU
727696;Razgrad;43.53333;26.51667;BG;38285;Europe/Sofia;52;['Rasgrad', 'Razgrad', 'Razgradas', 'Raznkrant', 'Ràzgrad', 'la zi ge lei', 'lajeugeuladeu', 'razghrad', 'razgrad', 'razugurato', 'Ράζγκραντ', 'Разград', 'ראזגרד', 'رازغراد', 'رازگراد', 'رازگراڈ', 'ラズグラト', '拉茲格勒', '라즈그라드'];EU
727791;Rakovski;42.27408;24.94083;BG;15782;Europe/Sofia;51;['General Niklaevo', 'General Nikolaevo', 'General Nikolaewo', 'Kalich', 'Kaliclii', 'Kaličh', 'Kaličlii', 'Kaluchlii', 'Kaluchliy', 'Kalŭchlii', 'Kalŭchliy', 'Rakovski', 'Раковски'];EU
727886;Parvomay;42.1;25.21667;BG;17000;Europe/Sofia;51;['Borisograd', 'Borisovgrad', 'Borissograd', 'Borissovgrade', 'Borissowgrad', 'Hadzi Ejles', 'Hadzi-Eles', 'Hadzi-Jeiles', 'Hadži Ejles', 'Hadži-Eles', 'Hadži-Jeiles', 'Khadzhi Eiles', 'Khadzhi-Eles', 'Parvomay', 'Purvomai', 'Purvomaj', 'Purvomay', 'Pŭrvomai', 'Pŭrvomay', 'Първомай'];EU
728075;Popovo;43.35;26.23333;BG;16571;Europe/Sofia;60;['Popkioj', 'Popkioy', 'Popkiöj', 'Popovas', 'Popovo', 'Popowo', 'bo bo wo', 'pwpwbw', 'pwpwww  blgharstan', 'Попово', 'פופובו', 'پوپووو، بلغارستان', 'پۆپۆڤۆ', '波波沃'];EU
728193;Plovdiv;42.15;24.75;BG;346893;Europe/Sofia;51;"['Eumolpias', 'Filiba', 'Filibe', 'Filipopol', 'Filipopul', 'Filippopol', ""Filippopol'"", 'Filippopoli', 'Flavia', 'Julia', 'PDV', 'Philippopel', 'Philippopoli', 'Philippopolis', 'Philippoupole', 'Pinople', 'Plodin', 'Ploudin', 'Plovdin', 'Plovdiv', 'Plovdiva', 'Plovdivas', 'Plowdiw', 'Plóvdiv', 'Poulpoudeva', 'Płowdiw', 'Sinople', 'Trimontium', 'Ulpia', 'Vinipoppolis', 'blwfdyf', 'peullobeudipeu', 'phlx fdif', 'plovhadivha', 'plwbdyb', 'plwwdyf', 'plwwdyw', 'pu luo fu di fu', 'purovudifu', 'Φιλιππούπολη', 'Пловдив', 'Фїлїппополь', 'Պլովդիվ', 'פלאוודיוו', 'פלובדיב', 'بلوفديف', 'پلوودیف', 'پلوودیو', 'प्लॉव्हडिव्ह', 'พลอฟดิฟ', 'პლოვდივი', 'プロヴディフ', '普罗夫迪夫', '플로브디프']";EU
728203;Pleven;43.41667;24.61667;BG;100952;Europe/Sofia;50;['Pleven', 'Plevenas', 'Plevna', 'Plevne', 'Plewen', 'Plyeven', 'blfn', 'peulleben', 'plbn', 'plwn', 'plywyn', 'pu lie wen', 'purevuen', 'Πλέβεν', 'Плевен', 'Պլևեն', 'פלבן', 'بلفن', 'پلون', 'پلیوین', 'პლევენი', 'プレヴェン', '普列文', '플레벤'];EU
728288;Petrich;41.39846;23.20702;BG;30722;Europe/Sofia;38;"['Petric', 'Petrich', ""Petrich'"", 'Petrici', 'Petricius', 'Petricz', 'Petritch', 'Petrits', 'Petritsch', 'Petritsi', 'Petritsj', 'Petritš', 'Petriç', 'Petrič', 'Petričius', 'Pétritch', 'bytrytsh', 'pei te li qi', 'peteulichi', 'petorichi', 'ptrych', 'ptryz', 'Πετρίτσι', 'Петрич', 'Пєтричь', 'פטריץ', 'بيتريتش', 'پتریچ', 'ペトリチ', '佩特里奇', '페트리치']";EU
728317;Peshtera;42.03372;24.29995;BG;18676;Europe/Sofia;48;['Momarsko', 'Pechtera', 'Pescera', 'Peschtera', 'Peshchera', 'Peshhera', 'Peshtera', 'Pestera', 'Peštera', 'Peščera', 'Пещера'];EU
728330;Pernik;42.6;23.03333;BG;82467;Europe/Sofia;49;['Dimitrovo', 'Pernik', 'Pernikas', 'brnyk', 'pei er ni ke', 'peleunikeu', 'per nik', 'peruniku', 'prnyk', 'prnyq', 'pyrnk', 'Πέρνικ', 'Перник', 'Пернік', 'פרניק', 'برنيك', 'پرنیک', 'پیرنک', 'پێرنیک', 'เปร์นิก', 'ペルニク', '佩尔尼克', '페르니크'];EU
728378;Pazardzhik;42.2;24.33333;BG;65671;Europe/Sofia;48;['Pasardschik', 'Pasardshik', 'Pazarcik', 'Pazarcık', 'Pazardjik', 'Pazardsjik', 'Pazardzhik', 'Pazardzik', 'Pazardzikas', 'Pazardzjik', 'Pazardĵik', 'Pazardżik', 'Pazardžik', 'Pazardžikas', 'Pazartzik', 'Pàzardjik', 'Tatar Bazardzik', 'Tatar Bazardžik', 'Tatar Pazardjik', 'Tatar Pazardzhik', 'Tatar Pazardzik', 'Tatar Pazardžik', 'Tatar-Bazardzhik', 'bazarjyk', 'pa sar cik', 'pa zha er ji ke', 'pajaleujikeu', 'pazarjk', 'pazarjyk', 'pazarjyk  blgharstan', 'pazarjyk  bwlgarya', 'pazarujiku', 'Πάζαρτζικ', 'Пазарджик', 'Пазарџик', 'פאזארדזיק', 'بازارجيك', 'پازارجک', 'پازارجیک', 'پازارجیک، بلغارستان', 'پازارجیک، بولگاریا', 'ปาซาร์จีก', 'パザルジク', '帕扎爾吉克', '파자르지크'];EU
728448;Panagyurishte;42.49518;24.19021;BG;19389;Europe/Sofia;48;['Otalkioj', 'Otalkiöj', 'Panaghiourichte', 'Panaghiourichté', 'Panaghurichte', 'Panagiuriste', 'Panagjurisce', 'Panagjurischte', 'Panagjurishhe', 'Panagjuriste', 'Panagjurište', 'Panagjurišče', 'Panagyurishche', 'Panagyurishte', 'Панагюрище'];EU
728742;Nova Zagora;42.48333;26.01667;BG;23625;Europe/Sofia;56;['Eni Zagra', 'Ienizagra', 'Jeni Saghra', 'Jeni Zagra', 'Nova Zagora', 'Nova-Zagora', 'Nová Zagora', 'Nowa Sagora', 'Nowa Zagora', 'Yeni Sagra', 'Yeni Zagra', 'Yeni Zağra', 'nobajagola', 'nwwa zagwra', 'xin zha ge la', 'Νόβα Ζαγόρα', 'Нова Загора', 'Нова-Загора', 'נובה זאגורה', 'نووا زاگورا', 'نۆڤا زاگۆرا', '新扎戈拉', '노바자고라'];EU
729114;Montana;43.4125;23.225;BG;47445;Europe/Sofia;47;['Ferdinand', 'Ferdinandovo', 'Golyama Kutlovitsa', 'Khristo Mikhaylov', 'Kutlovica', 'Kutlu Vice', 'Kutlu Viçe', 'Mikhailovgrad', 'Mikhaylovgrad', 'Montana', 'Montanae', 'Velika Kutlovica', 'meng ta na', 'montana', 'mwntana', 'mwntana  blgharstan', 'mwntnh', 'Μοντάνα', 'Монтанæ', 'Монтана', 'Монтана · Блъгарїи', 'מונטנה', 'مونتانا', 'مونتانا، بلغارستان', 'مۆنتانا، بولگاریا', 'モンタナ', '蒙塔納', '몬타나'];EU
729559;Lovech;43.13333;24.71667;BG;29659;Europe/Sofia;46;['Lavech', 'Lofca', 'Lofça', 'Lovca', 'Lovcha', 'Lovec', 'Lovecas', 'Lovech', 'Loveci', 'Lovetch', 'Lovetj', 'Lovets', 'Lovetsj', 'Lovetš', 'Loveĉ', 'Loveč', 'Lovečas', 'Lovča', 'Lowecz', 'Lowetsch', 'Melta', 'lobechi', 'luo wei qi', 'lwbz', 'lwftsh', 'lwwch', 'lwwych', 'rovuechi', 'Łowecz', 'Λόβετς', 'Лавеч', 'Ловеч', 'לובץ', 'لوفتش', 'لووچ', 'لوویچ', 'لۆڤێچ', 'ロヴェチ', '洛維奇', '로베치'];EU
729581;Lom;43.82106;23.23677;BG;26594;Europe/Sofia;47;['Aligina Makhala', 'Dzhembek Makhala', 'Kalen Potok', 'Lom', 'Lom Palanka', 'Nikolaevo', 'Nikolaewo', 'Лом'];EU
729730;Kyustendil;42.28389;22.69111;BG;37799;Europe/Sofia;45;['Keustendil', 'Kioustendil', 'Kioustentil', 'Kiousténdil', 'Kjustendil', 'Koestendil', 'Kostendil', 'Kustendil', 'Kyustendil', 'Köstendil', 'Küstendil', 'Κιουστεντίλ', 'Кюстендил'];EU
729794;Kardzhali;41.65;25.36667;BG;51000;Europe/Sofia;44;['Exrdzhali', 'Kardjali', 'Kardschali', 'Kardshali', 'Kardzali', 'Kardzhali', 'Kardzjali', 'Kardĵali', 'Kardžali', 'Kartzali', 'Kerdzalai', 'Kerdzhali', 'Kerdžalai', 'Kerjali', 'Kircaali', 'Kirdjalu', 'Kirdjalü', 'Kirdzali', 'Kirdzalu', 'Kirdzhali', 'Kirdžali', 'Kirdžalü', 'Kirjali', 'Krdjali', 'Krdzali', 'Krdžali', 'Kudjaly', 'Kurdzali', 'Kurdzhale', 'Kurdzhali', 'Kurdzhalii', 'Kyakyrdzhali', 'Kyrdzali', 'Kyrdzhali', 'Kyrdżali', 'Kărdjali', 'Kărdzhali', 'Kărdžali', 'Kırcaali', 'Kŭrdzhale', 'Kŭrdzhali', 'Kŭrdzhalii', 'Kŭrdžali', 'kardzhaly', 'karjly', 'ke er gu li', 'keoleujalli', 'kurujari', 'Κάρτζαλι', 'Кирджалі', 'Крџали', 'Кърджали', 'Кырджали', 'קרדזאלי', 'كارجلي', 'کاردژالی', 'კირჯალი', 'クルジャリ', '克爾賈利', '커르잘리'];EU
730435;Haskovo;41.93415;25.55557;BG;67086;Europe/Sofia;43;['Chaskoi', 'Chaskovas', 'Chaskovo', 'Chaskowo', 'Chasköi', 'HKV', 'Haskioj', 'Haskiöj', 'Haskovo', 'Haskoy', 'Hasköy', 'Khaskava', 'Khaskovo', 'Khàskovo', 'ha si ke wo', 'haseukobo', 'haskwfw', 'hasukovuo', 'khaskww', 'Ĥaskovo', 'Χάσκοβο', 'Хаскава', 'Хасково', 'חאסקובו', 'خاسکوو', 'خاسکۆڤۆ', 'هاسكوفو', 'هاسکوفو', 'ہسکوا', 'ハスコヴォ', '哈斯科沃', '하스코보'];EU
730442;Harmanli;41.93333;25.9;BG;18931;Europe/Sofia;43;['Charmanlii', 'Harmanli', 'Harmanlii', 'Harmanlu', 'Harmanly', 'Harmanlü', 'Hermanli', 'Kharmanli', 'Kharmanlii', 'Kharmanliy', 'Харманли'];EU
730496;Kazanlak;42.61667;25.4;BG;47918;Europe/Sofia;59;['Kasanlak', 'Kasanlăk', 'Kazanlk', 'Kazanlak', 'Kazanlako', 'Kazanlek', 'Kazanlik', 'Kazanlk', 'Kazanluk', 'Kazanlyk', 'Kazanlăk', 'Kazanlık', 'Kazanlŭk', 'Kazanłyk', 'qʼzʼnlq', 'Казанлък', 'Казанлык', 'קאזאנלק'];EU
730559;Karnobat;42.65;26.98333;BG;19709;Europe/Sofia;39;['Karnabat', 'Karnobat', 'Karnobatski prokhod', 'Poljanovgrad', 'Polyanovgrad', 'Карнобат', 'Карнобатски проход'];EU
730565;Karlovo;42.63333;24.8;BG;30340;Europe/Sofia;51;['Grad Karlove', 'Karliova', 'Karlovas', 'Karlovo', 'Karlowo', 'Karlıova', 'Karłowo', 'Levskigrad', 'ka er luo wo', 'kaleullobo', 'karlwww', 'karurovuo', 'qrlwbw', 'Κάρλοβο', 'Карлово', 'קרלובו', 'کارلووو', 'کارلۆڤۆ', 'カルロヴォ', '卡爾洛沃', '카를로보'];EU
731108;Gotse Delchev;41.56667;23.73333;BG;20522;Europe/Sofia;38;"['Ano Nevrokopi', 'Goce Delcev', 'Goce Delcevas', 'Goce Delchev', 'Goce Delczew', 'Goce Delčev', 'Goce Delčevas', 'Goce Dełczew', 'Goce-Delchev', 'Gote Delcev', 'Gotse Delchev', 'Gotse Deltchev', 'Gotse Deltsev', 'Gotse Deltsjev', 'Gotse Deltšev', 'Gotsi Delchev', 'Gotsé Deltchev', 'Gotze Deltchev', 'Goze Deltschew', 'Goțe Delcev', 'Nevrakop', 'Nevrekop', 'Nevrokop', 'Nevrâkop', 'Newrokop', 'ge cai dai er qie fu', 'gwjh dlchw', ""gwzh dlz'b"", 'Άνω Νευροκόπι', 'Гоце Делчев', 'Гоце-Делчев', 'Неврокоп', 'Գոցե Դելչև', ""גוצה דלצ'ב"", 'گوجه دلچو', 'ゴツェ・デルチェフ', '戈采代爾切夫']";EU
731233;Gorna Oryahovitsa;43.12778;25.70167;BG;32792;Europe/Sofia;62;['GOZ', 'Gorna Orehovica', 'Gorna Orehovitsa', 'Gorna Orehovitza', 'Gorna Orekhovitsa', 'Gorna Oriahovica', 'Gorna Orjakhovica', 'Gorna Orjechovica', 'Gorna Oryahovitsa', 'Gorna Oryakhovitsa', 'Gorna Oréhovitza', 'Gorna-Orechowiza', 'Gorna-Oryekhovitsa', 'Gorno Oryakhovitsa', 'Горна Оряховица'];EU
731549;Gabrovo;42.87472;25.33417;BG;66175;Europe/Sofia;41;['Gabrava', 'Gabrova', 'Gabrovas', 'Gabrovo', 'Gabrowo', 'Gàbrovo', 'Nkamprovo', 'gabeulobo', 'gabrww', 'gabrwww', 'gaburovuo', 'gbrwbw', 'gbrwwa', 'ghabrwfw', 'jia bu luo wo', 'Γκάμπροβο', 'Габрава', 'Габрово', 'Գաբրովո', 'גברובו', 'غابروفو', 'گابروو', 'گابرووو', 'گابرۆڤۆ', 'گبرووا', 'ガブロヴォ', '加布羅沃', '가브로보'];EU
732263;Dimitrovgrad;42.05;25.6;BG;38015;Europe/Sofia;43;['Dimitrovgrad', 'Dimitrovgradas', 'Dimitrowgrad', 'Ntimitrovnkrant', 'dimiteulobeugeuladeu', 'dymytrwfgrad  blgharstan', 'dymytrۆvgrad  bwlgarya', 'ji mi te luo fu ge lei', 'Ντιμίτροβγκραντ', 'Димитровград', 'Димитровъ Градъ · Блъгарїи', 'דימיטרובגראד', 'دیمیتروفگراد، بلغارستان', 'دیمیترۆڤگراد، بولگاریا', '季米特洛夫格勒', '디미트로브그라드'];EU
732452;Chirpan;42.2;25.33333;BG;15109;Europe/Sofia;59;['Chirpan', 'Cirpan', 'Tchirpan', 'Tschirpan', 'Čirpan', 'Чирпан'];EU
732770;Burgas;42.50606;27.46781;BG;195966;Europe/Sofia;39;['BOJ', 'Boergas', 'Bourgas', 'Bournkas', 'Burgas', 'Burgas khot', 'Burgasa', 'Burgasas', 'Burgaso', 'Burgasz', 'Burgaz', 'Burghaz', 'Burgàs', 'Burqas', 'Mpournkas', 'brgas', 'bu er jia si', 'buleugaseu', 'burgasa', 'burgasi', 'burugasu', 'bwrgas', 'bwrghas', 'bwrgs', 'Μπουργκάς', 'Μπουργκας', 'Μπούργκας', 'Бургас', 'Бургас хот', 'Пѷргъ', 'Բուրգաս', 'בורגס', 'برگاس', 'بورغاس', 'بورگاس', 'बुर्गास', 'ბურგასი', 'ブルガス', '布爾加斯', '부르가스'];EU
733014;Botevgrad;42.9;23.78333;BG;20909;Europe/Sofia;58;['Botevgrad', 'Orchanie', 'Orhanie', 'Orhanje', 'Orkhanie', 'Ботевград'];EU
733191;Blagoevgrad;42.01667;23.1;BG;67810;Europe/Sofia;38;['Blagoeugrad', 'Blagoevgrad', 'Blagoewgrad', 'Blagojevgrad', 'Blagojevgradas', 'Blagojewgrad', 'Blagoëvgrad', 'Blagòevgrad', 'Blankoevnkrant', 'Blaqoyevqrad', 'Błagojewgrad', 'Djumaja', 'Dzhumaya', 'Dzuma', 'Dzumaja', 'Džuma', 'Džumaja', 'Gorna Djoumaia', 'Gorna Djumaya', 'Gorna Dshumaja', 'Gorna Dzhumaja', 'Gorna Dzhumaya', 'Gorna Dzumaja', 'Gorna Džumaja', 'Yukari Cuma', 'Yukarı Cuma', 'beullago-ebeugeuladeu', 'blaghwyfghrad', 'blagoevgradi', 'blagwwgrad', 'blagwyywgrad', 'bu la ge ye fu ge lei', 'buragoevugurato', 'Μπλαγκόεβγκραντ', 'Благоевград', 'Благоеўград', 'Благоєвград', 'Горна Джумая', 'Բլագոևգրադ', 'בלגואבגרד', 'بلاغويفغراد', 'بلاگوئیوگراد', 'بلاگووگراد', 'ბლაგოევგრადი', 'ブラゴエヴグラト', '布拉戈耶夫格勒', '블라고에브그라드'];EU
733264;Berkovitsa;43.23581;23.12738;BG;15027;Europe/Sofia;47;['Berkovica', 'Berkovitsa', 'Berkovitsa Municipality', 'Berkovitsay', 'Berkovitza', 'Berkowiza', 'Comuna Berkovita', 'Comuna Berkovița', 'Gmina Berkowica', 'Obshhina Berkovica', 'Obstina Berkovica', 'Obština Berkovica', 'bei er ke wei cha shi', 'Берковица', 'Община Берковица', 'ბერკოვიცის თემი', '貝爾科維察市'];EU
733579;Aytos;42.7;27.25;BG;20986;Europe/Sofia;39;['Aitos', 'Ajtos', 'Aytos', 'Айтос'];EU
733606;Asparuhovo;43.18067;27.88823;BG;27000;Europe/Sofia;61;['Asparuhovo', 'Asparukhovo', 'Аспарухово'];EU
733618;Asenovgrad;42.01667;24.86667;BG;54778;Europe/Sofia;51;['Asenovgrad', 'Assenovgrad', 'Assenovgrade', 'Assenowgrad', 'Stanimaka', 'Асеновград'];EU
618800;Horad Zhodzina;54.0985;28.3331;BY;65451;Europe/Minsk;05;['Gorad Zhodzina', 'Gorod Zhodino', 'Horad Zhodzina', 'Schodsina', 'Zhodino', 'Zhodzina', 'Zodino', 'Żodino', 'Горад Жодзіна', 'Жодзiна', 'Жодино'];EU
618806;Zhlobin;52.8926;30.024;BY;76078;Europe/Minsk;02;['Korpilovka', 'Zhlobin', 'Zlobin', 'Жлобин', 'Жлобін'];EU
620127;Vitebsk;55.1904;30.2049;BY;342700;Europe/Minsk;07;"['VTB', 'Vicebsk', 'Vicebsko', 'Vicebszk', 'Viciebsk', ""Vit'b'sku"", ""Vitebs'k"", 'Vitebscum', 'Vitebsk', 'Vitebska', 'Vitebskas', 'Vitepsk', 'Vitsebsk', ""Vitsemp'sk"", 'Vitsiebsk', 'Vitsyebsk', 'Vítebsk', 'Vítsiebsk', 'Witebsk', 'Wizebsk', 'bichebseukeu', 'fytybsk', 'vuitsuepusuku', 'wei jie bu si ke', 'wi tebskh', 'wtybsk', 'wytbsq', 'Βιτσέμπσκ', 'Витебск', 'Витепск', 'Витьбьскъ', 'Вітебськ', 'Віцебск', 'Վիտեբսկ', 'וויטעבסק', 'ויטבסק', 'فيتيبسك', 'وتیبسک', 'วีเต็บสค์', 'ვიტებსკი', 'ヴィーツェプスク', '维捷布斯克', '비쳅스크']";EU
620181;Vilyeyka;54.4914;26.9111;BY;30000;Europe/Minsk;05;['Vileika', 'Vilejka', 'Vileyka', 'Vilyeyka', 'Wilejka', 'Вилейка', 'Вілейка'];EU
620391;Volkovysk;53.1561;24.4513;BY;47300;Europe/Minsk;03;"['Valkaviskas', 'Vaukavisk', 'Vaukavysk', 'Vavkavisk', 'Vavkaviska', 'Vavkaviszk', 'Vawkavysk', 'Vaŭkavisk', 'Vaŭkavysk', 'Volkovisk', 'Volkovysk', ""Vovkovis'k"", 'Waukawysk', 'Wolkowysk', 'Wołkowysk', 'fawkafysk', 'vuaukavuisuku', 'wa fu ka wei si ke', 'wawkwysk', 'wwlqwbysq', 'Вавкависк', 'Ваўкавыск', 'Вовковиськ', 'Волковиск', 'Волковыск', 'וואלקאוויסק', 'וולקוביסק', 'فاوكافيسك', 'واوکویسک', 'ヴァウカヴィスク', '瓦夫卡維斯克']";EU
621074;Svyetlahorsk;52.6329;29.7389;BY;67054;Europe/Minsk;02;['Shatilki', 'Shatsilki', 'Svetlagorsk', 'Svetlogorsk', 'Svyetlahorsk', 'Светлагорск', 'Светлогорск'];EU
621266;Stowbtsy;53.4785;26.7434;BY;15400;Europe/Minsk;05;['Stolbci', 'Stolbcy', 'Stolbtsy', 'Stolbtzy', 'Stolpcai', 'Stolpce', 'Stolptse', 'Stolptsy', 'Stolpze', 'Stoubcy', 'Stoubtsy', 'Stovbci', 'Stovpci', 'Stowbtsy', 'Stołpce', 'Stoŭbcy', 'Stoŭbtsy', 'Sztovbci', 'si tuo er bu qi', 'stwwbzy', 'stwypz', 'Стовпци', 'Столбци', 'Столбцы', 'Столбці', 'Стоўбцы', 'סטוובצי', 'סטויפץ', '斯托爾布齊'];EU
621713;Smarhoń;54.4798;26.3957;BY;35908;Europe/Minsk;03;"[""Smargon'"", ""Smarhon'"", 'Smarhon’', ""Smorgon'"", 'Smorgone', 'Smorgonie', 'Smorgon’', 'Smurgainys', 'Смаргонь', 'Сморгонь']";EU
621729;Smaliavičy;54.0249;28.0894;BY;16594;Europe/Minsk;05;['Gorad Smaljavichy', 'Horad Smalyavichy', 'Smalyavichy', 'Smolevichi', 'Smolewitsch', 'Горад Смалявічы', 'Смолевичи'];EU
621741;Slutsk;53.0274;27.5597;BY;61802;Europe/Minsk;05;"['Sloetsk', 'Sloutsk', ""Sluc'k"", 'Sluck', 'Slucka', 'Sluckas', 'Slutsk', 'Sluzk', 'Słuck', 'seullucheukeu', 'si lu ci ke', 'slutskh', 'slwzq', 'suutsuku', 'Слуцк', 'Слуцьк', 'סלוצק', 'สลูตสค์', 'スウツク', '斯盧茨克', '슬루츠크']";EU
621754;Slonim;53.0869;25.3163;BY;51434;Europe/Minsk;03;['Slanimas', 'Slonim', 'Slonima', 'Sloņima', 'Słonim', 'seullonim', 'si luo ni mu', 'slonimi', 'slwnym', 'suronimu', 'Слоним', 'Слонім', 'סלאנים', 'סלונים', 'სლონიმი', 'スロニム', '斯洛尼姆', '슬로님'];EU
622113;Shchuchyn;53.6014;24.7465;BY;15475;Europe/Minsk;03;['Shchuchin', 'Shchuchyn', 'Shhuchin', 'Szczuczyn', 'Шчучын', 'Щучин'];EU
622428;Salihorsk;52.7876;27.5415;BY;106627;Europe/Minsk;05;"['Chizhevichi', 'Saligorsk', 'Salihorsk', 'Salihorska', 'Salihorskas', 'Salyhorsk', 'Saļihorska', ""Soligors'k"", 'Soligorsk', 'Szalihorszk', 'salliholeuseukeu', 'salyhwrsk', 'suo li ge er si ke', 'Салигорск', 'Салігорск', 'Солигорск', 'Солігорськ', 'سالیهورسک', '索利戈尔斯克', '살리호르스크']";EU
622739;Rahachow;53.0934;30.0495;BY;34700;Europe/Minsk;02;['Ragachou', 'Ragachov', 'Rahachow', 'Rahacou', 'Rahacovas', 'Rahatchow', 'Rahatjou', 'Rahatjoŭ', 'Rahatschou', 'Rahatsou', 'Rahatšou', 'Rahaĉoŭ', 'Rahačovas', 'Rahačoŭ', 'Rogachev', 'Rogachjov', 'Rogachov', 'Rogachëv', 'Rogatschew', 'Rohaczow', 'Rohaczów', 'luo jia qiao fu', 'rahachou', 'rhzwb', 'Рагачов', 'Рагачоў', 'Рогачев', 'Рогачов', 'Рогачёв', 'ראגאטשאוו', 'רהצוב', 'ラハチョウ', '羅加喬夫'];EU
622794;Rechytsa;52.3617;30.3916;BY;65400;Europe/Minsk;02;['Rechica', 'Rechitsa', 'Rechysta', 'Rechytsa', 'Rehchyca', 'Retschyza', 'Ryechitsa', 'Речица', 'Рэчыца'];EU
622997;Pruzhany;52.556;24.4573;BY;19135;Europe/Minsk;01;['Pruzana', 'Pruzhana', 'Pruzhany', 'Пружаны'];EU
623317;Polatsk;55.4879;28.7856;BY;82258;Europe/Minsk;07;"['Podolsk', 'Polack', 'Polatsk', 'Polazk', ""Poloc'k"", 'Polock', 'Polocka', 'Polockas', ""Polot'sku"", 'Polotia', 'Polotk', 'Polotsk', 'Polozk', 'Poloțk', 'Potolsk', 'Połack', 'Połock', 'Pòlatsk', 'Pólatsk', 'bo luo ci ke', 'pollacheukeu', 'poratsuku', 'Полацк', 'Полотьскъ', 'Полоцк', 'Полоцьк', 'Պոլոցկ', 'פולאצק', 'პოლოცკი', 'ポラツク', '波洛茨克', '폴라츠크']";EU
623549;Pinsk;52.1229;26.0951;BY;130777;Europe/Minsk;01;"[""Pins'k"", 'Pinscum', 'Pinsk', 'Pinska', 'Pinskas', 'Pinszk', 'Pińsk', 'ping si ke', 'pinseukeu', 'pinsuku', 'pynsq', 'Пинск', 'Пінск', 'Пінськ', 'פינסק', 'ピンスク', '平斯克', '핀스크']";EU
623760;Pastavy;55.11676;26.83263;BY;19800;Europe/Minsk;07;['Pastavi', 'Pastavy', 'Pastawy', 'Pastovys', 'Pasztavi', 'Postavi', 'Postavy', 'Postawy', 'bo si ta wei', 'Пастави', 'Паставы', 'Постави', 'Поставы', 'פסטאווי', '波斯塔維'];EU
624034;Asipovichy;53.3011;28.6386;BY;34591;Europe/Minsk;06;['Asipopovichy', 'Asipovichy', 'Osipovichi', 'Ospipovichi', 'Ossipowitschi', 'Sipovichi', 'Асіпоповічы', 'Осиповичи'];EU
624079;Orsha;54.5081;30.4172;BY;125347;Europe/Minsk;07;['Orsa', 'Orscha', 'Orsha', 'Orsza', 'Orŝa', 'Orša', 'TXC', 'Vorsja', 'ao er sha', 'boleusya', 'vuorusha', 'Орша', 'ヴォルシャ', '奥尔沙', '보르샤'];EU
624784;Navapolatsk;55.5318;28.5987;BY;108000;Europe/Minsk;07;"['Navapolack', 'Navapolackas', 'Navapolatsk', 'Navapołack', 'Navapólatsk', 'Nawapolazk', ""Novopoloc'k"", 'Novopolock', 'Novopolocka', 'Novopolotsk', 'Nowopolock', 'Nowopołock', 'Polotskiy', 'nabapollacheukeu', 'nwfwbwlwtsk', 'xin bo luo ci ke', 'Наваполацк', 'Новополоцк', 'Новополоцьк', 'نوفوبولوتسك', '新波洛茨克', '나바폴라츠크']";EU
624785;Novogrudok;53.5942;25.8191;BY;29441;Europe/Minsk;03;['Naugardukas', 'Navagrudak', 'Navahradak', 'Navahroedak', 'Navahroudak', 'Navahrudak', 'Navahrudaka', 'Nawahradak', 'Novogrodek', 'Novogroudok', 'Novogrudek', 'Novogrudok', 'Nowogrodek', 'Nowogródek', 'nabaheuludakeu', 'navuafurudaku', 'nbhrdq', 'xin ge lu duo ke', 'Навагрудак', 'Новогрудок', 'נבהרדק', 'ナヴァフルダク', '新格鲁多克', '나바흐루다크'];EU
625144;Minsk;53.9;27.56667;BY;1742124;Europe/Minsk;04;"['MSQ', ""Mins'k"", 'Minsc', 'Minscum', 'Minsk', 'Minsk - Minsk', 'Minsk - Мінск', 'Minsk osh', 'Minska', 'Minskaj', 'Minskas', 'Minsko', 'Minszk', 'Mińsk', 'Myensk', 'Myenyesk', 'Mînsk', 'ming si ke', 'ming si ke shi', 'minseukeu', 'minsk', 'minsuku', 'mnsk', 'mynsk', 'mynsq', 'mynysky', 'Μινσκ', 'Минск', 'Минск ош', 'Минскай', 'Мінск', 'Мінськ', 'Мѣньскъ', 'Մինսկ', 'מינסק', 'منسک', 'مىنىسكى', 'مينسك', 'مینسک', 'मिन्\u200dस्\u200dक', 'மின்ஸ்க்', 'ಮಿನ್ಸ್ಕ್', 'മിൻസ്ക്', 'มินสก์', 'མིན་སིཀ།', 'მინსკი', 'ミンスク', '明斯克', '明斯克市', '민스크']";EU
625324;Mazyr;52.0495;29.2456;BY;112348;Europe/Minsk;02;"['Masyr', 'Mazir', 'Mazira', 'Mazyr', 'Mozir', 'Mozyr', ""Mozyr'"", 'Mozyrius', 'Mozyrz', 'Mozyr’', 'majileu', 'mazuiru', 'mo ji li', 'moziri', 'Мазыр', 'Мозир', 'Мозырь', 'מאזיר', 'მოზირი', 'マズィル', '莫济里', '마지르']";EU
625367;Mosty;53.4122;24.5387;BY;15770;Europe/Minsk;03;['Mastai', 'Masti', 'Masty', 'Mosti', 'Mosty', 'mo si te', 'Масти', 'Масты', 'Мости', 'Мосты', '莫斯特'];EU
625409;Mar’’ina Horka;53.509;28.147;BY;20100;Europe/Minsk;05;"[""Mar''ina Horka"", ""Mar'ina Gorka"", 'Maryina Gorka', 'Mar’ina Gorka', 'Mar’’ina Horka', 'Марьина Горка', 'Мар’іна Горка']";EU
625625;Maladziečna;54.3167;26.854;BY;101300;Europe/Minsk;05;['Maladsetschna', 'Maladzechna', 'Maladzyechna', 'Molodechno', 'Molodeczno', 'Маладзечна', 'Молодечно'];EU
625665;Mahilyow;53.9168;30.3449;BY;369200;Europe/Minsk;06;"['MVQ', 'Magiljou', 'Maguilov', 'Mahileu', 'Mahiliou', 'Mahilioŭ', 'Mahiljou', 'Mahiljov', 'Mahiljow', 'Mahiljoŭ', 'Mahilou', 'Mahiloŭ', 'Mahilyow', 'Mahilëŭ', ""Mogil'ov"", 'Mogilev', 'Mogileva', 'Mogilew', 'Mogiliavas', 'Mogiliovas', 'Mogiljov', 'Mogilov', 'Mogilëv', 'Mogiļeva', 'Moguilev', 'Mohylew', 'mwgylb', 'mwhylb', 'mʼhlyb', 'Магілёў', 'Могилев', 'Могильов', 'Могилёв', 'Могиљов', 'מאהליב', 'מוגילב', 'מוהילב']";EU
625743;Lyepyel’;54.8814;28.699;BY;17400;Europe/Minsk;07;"[""Lepel'"", 'Lepel’', ""Lyepyel'"", 'Lyepyel’', 'Лепель']";EU
625818;Luninyets;52.2472;26.8047;BY;25000;Europe/Minsk;01;['Luninec', 'Luninets', 'Luniniec', 'Luniniez', 'Luninyets', 'Łuniniec', 'Лунинец', 'Лунінец'];EU
626081;Lida;53.88333;25.29972;BY;102700;Europe/Minsk;03;['Lida', 'Lieda', 'Lyda', 'li da', 'lida', 'lyda', 'rida', 'Ļida', 'Лида', 'Ліда', 'לידא', 'ليدا', 'ლიდა', 'リダ', '利达', '리다'];EU
626450;Krychaw;53.69571;31.71233;BY;27681;Europe/Minsk;06;['Krichev', 'Krychau', 'Krychaw', 'Krytchev', 'Krytschau', 'Кричев', 'Крычаў'];EU
627083;Kalodzishchy;53.944;27.7823;BY;17000;Europe/Minsk;05;['Kalodzishchy', 'Kolodishchi', 'Kolodishhi', 'Калодзішчы', 'Колодищи'];EU
627145;Kobryn;52.2138;24.3564;BY;50691;Europe/Minsk;01;"['Kobrin', ""Kobrin'"", 'Kobrina', 'Kobriny', 'Kobryn', 'Kobrynas', 'Kobryń', 'Kóbriny', 'ke bu lin', 'koburuin', 'qwbryn', 'Кобрин', 'Кобринь', 'Кобрын', 'קאברין', 'קוברין', 'コブルィン', '科布林']";EU
627751;Kalinkavichy;52.1323;29.3257;BY;37190;Europe/Minsk;02;['Kalinkavichy', 'Kalinkovichi', 'Kalinkowitschi', 'Калинкавичы', 'Калинковичи'];EU
